     2.11           OBSERVATION DATA    G (GPS)             RINEX VERSION / TYPE
teqc  2018Dec12     gpsops              20200902 00:56:46UTCPGM / RUN BY / DATE
Linux 2.6.32-573.12.1.x86_64|x86_64|gcc -static|Linux 64|=+ COMMENT
BIT 2 OF LLI FLAGS DATA COLLECTED UNDER A/S CONDITION       COMMENT
TIDB                                                        MARKER NAME
50103M108                                                   MARKER NUMBER
GGN                 JPL                                     OBSERVER / AGENCY
UC2200524011        ASHTECH UZ-12       CQ00                REC # / TYPE / VERS
402                 AOAD/M_T        NONE                    ANT # / TYPE
 -4460996.4047  2682557.0885 -3674443.3930                  APPROX POSITION XYZ
        0.0614        0.0000        0.0000                  ANTENNA: DELTA H/E/N
     1     1                                                WAVELENGTH FACT L1/2
     7    L1    L2    P1    P2    C1    S1    S2            # / TYPES OF OBSERV
    30.0000                                                 INTERVAL
Forced Modulo Decimation to 30 seconds                      COMMENT
                                                            COMMENT
This data is provided as a public service by NASA/JPL.      COMMENT
No warranty is expressed or implied regarding suitability   COMMENT
for use.  For further information, contact:                 COMMENT
Dave Stowers, NASA/JPL m/s 238-600                          COMMENT
4800 Oak Grove Drive, Pasadena CA 91109 USA                 COMMENT
                                                            COMMENT
 SNR is mapped to RINEX snr flag value [0-9]                COMMENT
  L1 & L2: min(max(int(snr_dBHz/6), 0), 9)                  COMMENT
pseudorange smoothing corrections not applied               COMMENT
  2020     9     1     0     0    0.0000000     GPS         TIME OF FIRST OBS
                                                            END OF HEADER
 20  9  1  0  0  0.0000000  0  7G09G07G27G30G08G04G16
 -24221349.08749 -18836754.78648  20596814.3314   20596818.0054   20596813.931
        57.0004         52.0004
 -20319078.39549 -15788181.17848  20990626.7814   20990627.8744   20990626.369
        54.0004         50.0004
  -5802280.95747  -4492184.21947  23906880.6814   23906886.1554   23906880.601
        46.0004         42.0004
  -9378505.37648  -7266458.19248  23065884.2414   23065888.9494   23065884.201
        53.0004         49.0004
  -6456498.53347  -5018734.66847  23661089.8804   23661095.9024   23661090.270
        46.0004         42.0004
 -18124145.31948 -14076956.39948  21403870.4434   21403873.7324   21403870.177
        53.0004         48.0004
  -8866573.22247  -6863187.35647  23130158.8404   23130160.8354   23130159.260
        47.0004         42.0004
 20  9  1  0  0 30.0000000  0  7G09G07G27G30G08G04G16
 -24239257.71449 -18850709.56548  20593406.4624   20593409.9184   20593405.867
        56.0004         52.0004
 -20349167.12049 -15811626.94048  20984901.2024   20984902.0124   20984900.633
        54.0004         50.0004
  -5831600.46047  -4515030.58247  23901301.9414   23901306.9814   23901301.896
        46.0004         42.0004
  -9445371.22749  -7318561.42648  23053159.9674   23053164.7984   23053160.153
        54.0004         49.0004
  -6527999.48747  -5074449.64247  23647484.4004   23647491.1934   23647484.023
        46.0004         42.0004
 -18074881.57048 -14038569.08648  21413245.2084   21413247.8784   21413244.772
        53.0004         48.0004
  -8788935.36747  -6802690.33147  23144932.3654   23144934.7904   23144933.343
        47.0004         43.0004
 20  9  1  0  1  0.0000000  0  7G09G07G27G30G08G04G16
 -24256776.21549 -18864360.34648  20590072.8994   20590076.5604   20590072.302
        56.0004         52.0004
 -20378967.16049 -15834847.74748  20979230.4274   20979231.4154   20979229.774
        54.0004         50.0004
  -5860470.67747  -4537526.83646  23895807.5254   23895811.2884   23895806.890
        46.0004         41.0004
  -9512064.34449  -7370530.06548  23040468.8064   23040473.4894   23040468.852
        54.0004         49.0004
  -6599253.44947  -5129972.16147  23633924.5124   23633929.8194   23633924.624
        46.0004         42.0004
 -18025254.93548 -13999898.99748  21422689.0124   21422691.6084   21422688.467
        53.0004         48.0004
  -8710993.67147  -6741956.55747  23159765.0854   23159766.8414   23159765.395
        47.0004         42.0004
 20  9  1  0  1 30.0000000  0  7G09G07G27G30G08G04G16
 -24273903.22649 -18877706.07148  20586813.5914   20586817.1104   20586812.915
        56.0004         52.0004
 -20408478.92149 -15857843.92248  20973614.4364   20973615.4744   20973614.148
        54.0004         50.0004
  -5888890.00547  -4559671.76347  23890399.3044   23890404.5684   23890399.152
        46.0004         42.0004
  -9578584.83249  -7422364.18348  23027809.7944   23027814.9404   23027809.603
        54.0004         49.0004
  -6670257.94047  -5185300.28147  23620414.1094   23620418.7174   23620413.855
        46.0004         42.0004
 -17975265.62648 -13960946.31948  21432201.6834   21432204.0294   21432200.842
        53.0004         48.0004
  -8632750.45947  -6680987.82847  23174654.1504   23174656.0404   23174654.385
        47.0004         43.0004
 20  9  1  0  2  0.0000000  0  7G09G07G27G30G08G04G16
 -24290637.28549 -18890745.59948  20583629.3494   20583632.9324   20583629.048
        56.0004         52.0004
 -20437702.43449 -15880615.49148  20968053.4764   20968054.6834   20968052.974
        54.0004         50.0004
  -5916856.56447  -4581463.87447  23885077.9334   23885082.6294   23885077.960
        46.0004         42.0004
  -9644932.64749  -7474063.75948  23015184.8944   23015189.4764   23015185.003
        54.0004         49.0004
  -6741009.62347  -5240431.43447  23606948.1434   23606953.9904   23606949.303
        46.0004         42.0004
 -17924913.73648 -13921711.10648  21441783.4744   21441786.6814   21441782.742
        53.0004         48.0004
  -8554208.01547  -6619785.94847  23189599.9244   23189601.9434   23189600.370
        47.0004         42.0004
 20  9  1  0  2 30.0000000  0  7G09G07G27G30G08G04G16
 -24306976.86149 -18903477.74148  20580519.9664   20580523.5024   20580519.438
        56.0004         52.0004
 -20466638.11349 -15903162.76948  20962547.2084   20962548.1784   20962546.824
        54.0004         50.0004
  -5944368.45547  -4602901.69347  23879842.5304   23879846.2614   23879842.528
        47.0004         42.0004
  -9711107.69349  -7525628.71148  23002591.9114   23002596.6914   23002591.564
        54.0004         49.0004
  -6811505.20847  -5295363.02047  23593536.2944   23593540.6024   23593535.464
        46.0004         42.0004
 -17874199.18348 -13882193.30548  21451434.2764   21451437.2114   21451433.464
        53.0004         48.0004
  -8475368.97947  -6558352.93747  23204602.9084   23204604.1644   23204603.770
        47.0004         42.0004
 20  9  1  0  3  0.0000000  0  7G09G07G27G30G08G04G16
 -24322920.53849 -18915901.39048  20577485.7994   20577489.5664   20577485.607
        56.0004         52.0004
 -20495286.42249 -15925486.12148  20957095.5664   20957096.6524   20957095.211
        54.0004         50.0004
  -5971424.01247  -4623983.92147  23874694.1574   23874699.2614   23874693.397
        47.0004         42.0004
  -9777109.99749  -7577059.05248  22990032.1434   22990036.9784   22990032.582
        54.0004         49.0004
  -6881741.82347  -5350092.80647  23580169.9224   23580176.1024   23580169.251
        47.0004         42.0004
 -17823122.11348 -13842393.02148  21461153.8474   21461156.5674   21461153.136
        53.0004         48.0004
  -8396235.68047  -6496690.64047  23219661.8754   23219662.8964   23219661.567
        47.0004         42.0004
 20  9  1  0  3 30.0000000  0  7G09G07G27G30G08G04G16
 -24338466.94949 -18928015.47948  20574527.5944   20574531.0574   20574527.390
        56.0004         52.0004
 -20523647.60249 -15947585.73848  20951698.3404   20951699.6274   20951698.086
        54.0004         50.0004
  -5998021.54547  -4644709.25747  23869632.8644   23869637.0634   23869632.601
        47.0004         42.0004
  -9842939.60549  -7628354.83748  22977505.1244   22977509.7854   22977505.240
        54.0004         49.0004
  -6951716.74447  -5404618.69347  23566853.6934   23566859.2404   23566852.903
        47.0004         42.0004
 -17771682.73248 -13802310.40348  21470941.9934   21470945.1284   21470941.796
        53.0004         48.0004
  -8316810.20147  -6434800.66747  23234776.2674   23234777.3554   23234775.421
        47.0004         42.0004
 20  9  1  0  4  0.0000000  0  7G09G07G27G30G08G04G16
 -24353614.70449 -18939818.92648  20571645.0354   20571648.7704   20571644.697
        56.0004         52.0004
 -20551722.21349 -15969462.05248  20946356.1384   20946357.4084   20946355.617
        54.0004         50.0004
  -6024159.30447  -4665076.32847  23864659.1864   23864662.3724   23864658.526
        47.0004         42.0004
  -9908596.52749  -7679516.04548  22965010.9824   22965015.4044   22965010.876
        54.0004         49.0004
  -7021426.67047  -5458938.07347  23553588.3064   23553593.3094   23553588.600
        46.0004         42.0004
 -17719881.17248 -13761945.57948  21480799.4704   21480802.7904   21480799.224
        53.0004         48.0004
  -8237095.02747  -6372684.96447  23249944.4364   23249946.3094   23249944.739
        47.0004         42.0004
 20  9  1  0  4 30.0000000  0  7G09G07G27G30G08G04G16
 -24368362.26149 -18951310.53048  20568838.5594   20568842.0064   20568838.369
        56.0004         52.0004
 -20579510.21249 -15991115.03348  20941068.3234   20941069.5304   20941067.862
        54.0004         50.0004
  -6049835.48947  -4685083.74147  23859772.5434   23859778.5834   23859771.676
        47.0004         42.0004
  -9974080.65849  -7730542.61548  22952549.5844   22952554.1674   22952550.080
        54.0004         49.0004
  -7090868.82947  -5513048.81847  23540373.8584   23540378.9124   23540373.657
        46.0004         42.0004
 -17667717.45248 -13721298.55048  21490726.4584   21490729.4504   21490725.690
        53.0004         48.0004
  -8157092.75647  -6310345.54847  23265169.1434   23265170.2874   23265168.904
        47.0004         42.0004
 20  9  1  0  5  0.0000000  0  7G09G07G27G30G08G04G16
 -24382708.30549 -18962489.26948  20566108.9434   20566112.2404   20566108.342
        57.0004         52.0004
 -20607012.13849 -16012545.09748  20935835.0014   20935836.1604   20935834.438
        54.0004         50.0004
  -6075048.47647  -4704730.20447  23854975.3234   23854978.7154   23854975.279
        47.0004         42.0004
 -10039392.04149  -7781434.58648  22940121.3964   22940125.5884   22940120.994
        54.0004         49.0004
  -7160040.10447  -5566948.47447  23527210.6814   23527215.5894   23527209.936
        46.0004         42.0004
 -17615191.78848 -13680369.49248  21500721.6334   21500724.6944   21500721.135
        53.0004         48.0004
  -8076805.44147  -6247784.01947  23280446.9144   23280448.9474   23280446.608
        47.0004         42.0004
 20  9  1  0  5 30.0000000  0  7G09G07G27G30G08G04G16
 -24396651.46249 -18973354.07248  20563455.3694   20563459.0704   20563455.032
        57.0004         52.0004
 -20634228.50849 -16033752.65548  20930655.6824   20930656.8794   20930655.235
        54.0004         50.0004
  -6099796.67647  -4724014.49547  23850266.3834   23850270.4904   23850265.495
        47.0004         42.0004
 -10104530.77849  -7832192.01648  22927726.0744   22927730.4904   22927725.760
        54.0004         49.0004
  -7228937.39447  -5620634.64147  23514100.1464   23514105.9914   23514100.020
        47.0004         42.0004
 -17562304.36948 -13639158.54648  21510785.8474   21510788.7924   21510785.040
        53.0004         48.0004
  -7996235.44047  -6185002.21547  23295778.9184   23295780.7804   23295779.040
        47.0004         42.0004
 20  9  1  0  6  0.0000000  0  7G09G07G27G30G08G04G16
 -24410190.31949 -18983903.83648  20560879.0704   20560882.5624   20560878.730
        57.0004         52.0004
 -20661159.76249 -16054738.03948  20925531.0684   20925532.2874   20925530.281
        54.0004         50.0004
  -6124078.37647  -4742935.29347  23845645.6844   23845650.6864   23845644.853
        47.0004         42.0004
 -10169496.75549  -7882814.83948  22915363.1694   22915367.5154   22915363.570
        54.0004         49.0004
  -7297558.04847  -5674105.24947  23501041.6784   23501048.3814   23501040.710
        47.0004         42.0004
 -17509055.35148 -13597665.82948  21520918.7164   21520921.6794   21520918.102
        53.0004         48.0004
  -7915385.49647  -6122002.27947  23311164.3574   23311166.4334   23311164.314
        47.0004         42.0004
 20  9  1  0  6 30.0000000  0  7G09G07G27G30G08G04G16
 -24423323.48949 -18994137.48148  20558379.8264   20558383.5134   20558379.376
        57.0004         52.0004
 -20687805.94049 -16075501.29048  20920460.4524   20920461.4334   20920459.701
        54.0004         50.0004
  -6147891.94447  -4761491.29747  23841112.8254   23841116.6314   23841112.249
        47.0004         42.0004
 -10234290.01149  -7933303.06448  22903033.6274   22903038.0284   22903032.949
        54.0004         49.0004
  -7365899.25447  -5727358.09347  23488037.0214   23488042.2824   23488036.347
        47.0004         42.0004
 -17455444.89248 -13555891.47148  21531120.4284   21531123.4204   21531119.862
        53.0004         48.0004
  -7834257.71947  -6058785.85047  23326602.5684   23326604.6504   23326602.586
        47.0004         42.0004
 20  9  1  0  7  0.0000000  0  7G09G07G27G30G08G04G16
 -24436049.55649 -19004053.90248  20555958.0514   20555961.8964   20555957.684
        57.0004         52.0004
 -20714167.49449 -16096042.75948  20915443.6674   20915445.0544   20915443.168
        54.0004         50.0004
  -6171235.69147  -4779681.23047  23836670.8644   23836675.8114   23836670.515
        47.0004         42.0004
 -10298910.50749  -7983656.68248  22890736.6954   22890741.4244   22890736.973
        54.0004         49.0004
  -7433957.66047  -5780390.59047  23475085.4844   23475091.7384   23475085.259
        47.0004         42.0004
 -17401473.14448 -13513835.59448  21541390.8414   21541393.9494   21541390.326
        53.0004         48.0004
  -7752854.70147  -5995354.94547  23342092.7624   23342094.3834   23342092.420
        47.0004         42.0004
 20  9  1  0  7 30.0000000  0  7G09G07G27G30G08G04G16
 -24448367.27049 -19013652.12648  20553614.2254   20553617.9174   20553613.921
        57.0004         52.0004
 -20740244.84349 -16116362.77048  20910481.6524   20910482.8574   20910480.921
        54.0004         50.0004
  -6194108.18947  -4797503.96647  23832318.7634   23832323.1164   23832318.038
        47.0004         42.0004
 -10363358.35849  -8033875.77548  22878472.8194   22878477.0324   22878472.898
        54.0004         49.0004
  -7501730.96747  -5833200.90947  23462189.3134   23462195.0574   23462189.026
        47.0004         42.0004
 -17347140.43748 -13471498.44948  21551730.1144   21551733.2974   21551729.229
        53.0004         48.0004
  -7671178.64147  -5931711.28447  23357634.8494   23357637.3624   23357635.680
        47.0004         42.0004
 20  9  1  0  8  0.0000000  0  7G09G07G27G30G08G04G16
 -24460275.15649 -19022931.00348  20551348.1574   20551351.8764   20551347.853
        57.0004         52.0004
 -20766038.30149 -16136461.56348  20905572.8664   20905574.0604   20905572.698
        54.0004         50.0004
  -6216507.69247  -4814958.11747  23828056.4284   23828060.4164   23828056.328
        47.0004         42.0004
 -10427633.42649  -8083960.21448  22866241.5494   22866246.1114   22866241.900
        54.0004         49.0004
  -7569215.23247  -5885786.02347  23449346.4884   23449353.4494   23449346.675
        47.0004         42.0004
 -17292446.81548 -13428880.06948  21562138.0604   21562140.4744   21562137.471
        53.0004         48.0004
  -7589231.83447  -5867856.64147  23373228.9574   23373231.0584   23373229.162
        47.0004         42.0004
 20  9  1  0  8 30.0000000  0  7G09G07G27G30G08G04G16
 -24471772.03449 -19031889.61548  20549160.4674   20549163.9424   20549160.116
        57.0004         52.0004
 -20791548.26949 -16156339.46148  20900718.7074   20900719.8174   20900718.221
        54.0004         50.0004
  -6238432.86147  -4832042.64647  23823884.4454   23823888.7614   23823884.021
        47.0004         42.0004
 -10491735.91849  -8133910.18648  22854043.3984   22854047.8964   22854043.323
        54.0004         49.0004
  -7636408.13447  -5938144.09547  23436561.5104   23436566.4634   23436561.460
        47.0004         42.0004
 -17237392.72548 -13385980.81048  21572614.4394   21572617.5534   21572613.905
        53.0004         48.0004
  -7507017.04047  -5803793.19247  23388873.6474   23388876.0504   23388874.568
        46.0004         42.0004
 20  9  1  0  9  0.0000000  0  7G09G07G27G30G08G04G16
 -24482856.42249 -19040526.80648  20547051.0594   20547054.7944   20547050.657
        57.0004         52.0004
 -20816775.14649 -16175996.76548  20895918.2314   20895919.6554   20895917.669
        54.0004         50.0004
  -6259881.99347  -4848756.24647  23819801.6994   23819807.6824   23819801.723
        47.0004         42.0004
 -10555665.66649  -8183725.55248  22841877.6064   22841882.2664   22841877.765
        54.0004         49.0004
  -7703306.81447  -5990272.89147  23423830.3644   23423836.3074   23423829.288
        47.0004         42.0004
 -17181978.20948 -13342800.69548  21583159.4244   21583162.2004   21583158.733
        52.0004         48.0004
  -7424536.40647  -5739522.59147  23404569.7214   23404571.3144   23404570.740
        46.0004         42.0004
 20  9  1  0  9 30.0000000  0  7G09G07G27G30G08G04G16
 -24493527.13249 -19048841.64848  20545020.6894   20545024.2614   20545020.248
        57.0004         52.0004
 -20841719.29349 -16195433.76348  20891171.7284   20891172.8424   20891170.909
        54.0004         50.0004
  -6280853.64647  -4865097.78947  23815812.1684   23815815.7584   23815811.935
        47.0004         42.0004
 -10619422.84049  -8233406.44448  22829745.0634   22829749.7484   22829745.090
        54.0004         49.0004
  -7769908.29947  -6042170.10947  23411156.2564   23411161.5354   23411157.014
        47.0004         42.0004
 -17126203.68248 -13299340.04248  21593772.8464   21593775.7364   21593772.493
        52.0004         48.0004
  -7341792.03747  -5675046.47447  23420314.9054   23420317.8574   23420315.118
        46.0004         42.0004
 20  9  1  0 10  0.0000000  0  7G09G07G27G30G08G04G16
 -24503782.64449 -19056832.96048  20543069.0604   20543072.6924   20543068.634
        57.0004         52.0004
 -20866380.92149 -16214650.61548  20886478.6014   20886479.8334   20886478.068
        54.0004         50.0004
  -6301346.22147  -4881066.01047  23811911.3444   23811916.8944   23811910.991
        47.0004         42.0004
 -10683007.25749  -8282952.72148  22817645.2084   22817650.0744   22817645.342
        54.0004         49.0004
  -7836209.38347  -6093833.25547  23398540.0984   23398544.7934   23398539.358
        47.0004         42.0004
 -17070069.21948 -13255598.92748  21604455.5684   21604457.9434   21604454.544
        52.0004         48.0004
  -7258786.86347  -5610367.14147  23436110.5584   23436112.1604   23436110.778
        46.0004         42.0004
 20  9  1  0 10 30.0000000  0  7G09G07G27G30G08G04G16
 -24513621.85449 -19064499.88148  20541196.7854   20541200.4774   20541196.360
        57.0004         52.0004
 -20890760.68149 -16233647.83248  20881839.2234   20881840.6044   20881838.784
        54.0004         50.0004
  -6321358.38647  -4896659.90047  23808103.9934   23808108.0584   23808103.995
        47.0004         42.0004
 -10746419.11749  -8332364.53448  22805578.4584   22805583.1114   22805578.767
        54.0004         49.0004
  -7902207.22147  -6145260.10547  23385981.1414   23385986.5874   23385981.182
        47.0004         42.0004
 -17013575.25248 -13211577.67848  21615205.7884   21615208.1844   21615205.143
        52.0004         48.0004
  -7175522.64747  -5545485.95946  23451955.4754   23451957.3704   23451955.763
        46.0004         41.0004
 20  9  1  0 11  0.0000000  0  7G09G07G27G30G08G04G16
 -24523043.36649 -19071841.32048  20539403.8364   20539407.5214   20539403.535
        57.0004         52.0004
 -20914858.50249 -16252425.35248  20877253.6004   20877254.8404   20877252.934
        54.0004         50.0004
  -6340888.57147  -4911878.21047  23804386.8494   23804391.5854   23804386.198
        47.0004         42.0004
 -10809658.33149  -8381641.82448  22793544.4414   22793548.8104   22793544.278
        54.0004         49.0004
  -7967899.33147  -6196448.72247  23373479.9624   23373485.3754   23373479.363
        47.0004         42.0004
 -16956721.98548 -13167276.45248  21626024.5184   21626027.4894   21626024.076
        52.0004         48.0004
  -7092002.24547  -5480405.13546  23467849.4464   23467851.2294   23467848.851
        46.0004         41.0004
 20  9  1  0 11 30.0000000  0  7G09G07G27G30G08G04G16
 -24532045.88549 -19078856.27248  20537690.7474   20537694.3424   20537690.465
        57.0004         52.0004
 -20938674.98949 -16270983.64948  20872721.6764   20872722.6044   20872721.029
        55.0004         50.0004
  -6359935.33147  -4926719.82747  23800762.7534   23800766.4674   23800762.459
        47.0004         43.0004
 -10872724.88149  -8430784.57248  22781543.1664   22781547.8584   22781543.011
        54.0004         49.0004
  -8033282.41747  -6247396.52547  23361038.3514   23361042.7564   23361038.141
        47.0004         42.0004
 -16899509.67948 -13122695.46348  21636911.4784   21636914.4734   21636910.933
        52.0004         48.0004
  -7008227.94747  -5415126.49247  23483791.0254   23483792.4074   23483790.518
        46.0004         42.0004
 20  9  1  0 12  0.0000000  0  7G09G07G27G30G08G04G16
 -24540628.29649 -19085543.87248  20536057.6844   20536061.0384   20536057.255
        57.0004         52.0004
 -20962210.65649 -16289323.12748  20868242.7664   20868244.1064   20868242.351
        54.0004         50.0004
  -6378497.45647  -4941183.79747  23797230.6434   23797235.5564   23797230.038
        47.0004         43.0004
 -10935618.96949  -8479792.92448  22769574.4264   22769579.3264   22769575.136
        54.0004         49.0004
  -8098353.89847  -6298101.54347  23348655.2764   23348660.3204   23348655.338
        47.0004         42.0004
 -16841938.83648 -13077835.09647  21647866.7334   21647869.7904   21647866.596
        52.0004         47.0004
  -6924202.28347  -5349651.97546  23499780.2554   23499781.3994   23499779.982
        46.0004         41.0004
 20  9  1  0 12 30.0000000  0  7G09G07G27G30G08G04G16
 -24548789.13449 -19091902.97148  20534504.7134   20534508.1704   20534504.326
        57.0004         52.0004
 -20985465.67249 -16307443.91448  20863817.3214   20863818.6714   20863816.749
        54.0004         50.0004
  -6396573.30947  -4955268.87447  23793790.5524   23793796.0334   23793790.178
        47.0004         43.0004
 -10998340.44549  -8528666.77848  22757639.1234   22757643.8794   22757638.641
        54.0004         49.0004
  -8163110.82747  -6348561.45147  23336332.0934   23336337.4524   23336331.415
        47.0004         42.0004
 -16784009.54148 -13032695.41247  21658890.6294   21658893.8254   21658890.033
        52.0004         47.0004
  -6839927.25047  -5283983.14546  23515817.5624   23515819.2184   23515818.382
        46.0004         41.0004
 20  9  1  0 13  0.0000000  0  8G09G07G27G30G08G05G04G16
 -24556527.28549 -19097932.70648  20533032.1674   20533035.6494   20533031.808
        56.0004         52.0004
 -21008440.31649 -16325346.23048  20859445.5674   20859446.7434   20859445.319
        54.0004         50.0004
  -6414161.67247  -4968974.08247  23790444.5634   23790447.8054   23790443.907
        47.0004         43.0004
 -11060889.46049  -8577406.24448  22745736.4374   22745741.3504   22745736.939
        54.0004         49.0004
  -8227550.34047  -6398774.01547  23324070.4774   23324075.8104   23324069.214
        47.0004         42.0004
   -164483.87848    -89415.65447  25244923.5284   25244924.7154   25244922.874
        52.0004         43.0004
 -16725722.31148 -12987276.81948  21669982.4224   21669985.4744   21669981.718
        52.0004         48.0004
  -6755405.25347  -5218121.86646  23531900.8554   23531904.0784   23531901.176
        46.0004         41.0004
 20  9  1  0 13 30.0000000  0  8G09G07G27G30G08G05G04G16
 -24563841.37949 -19103632.00248  20531640.1454   20531643.9194   20531639.779
        57.0004         52.0004
 -21031135.24649 -16343030.58748  20855126.7624   20855128.3254   20855126.427
        55.0004         50.0004
  -6431261.09648  -4982298.27347  23787189.8364   23787194.6564   23787189.947
        48.0004         43.0004
 -11123265.86049  -8626011.21548  22733866.7464   22733871.5314   22733866.828
        54.0004         49.0004
  -8291669.15947  -6448736.68147  23311868.2244   23311873.7704   23311866.899
        47.0004         42.0004
   -244428.09548   -151709.78347  25229710.8904   25229712.9294   25229709.857
        49.0004         42.0004
 -16667077.32948 -12941579.46347  21681142.3504   21681145.1764   21681141.572
        52.0004         47.0004
  -6670638.88247  -5152070.17746  23548031.0374   23548033.7044   23548031.286
        46.0004         41.0004
 20  9  1  0 14  0.0000000  0  8G09G07G27G30G08G05G04G16
 -24570730.38349 -19109000.06448  20530329.4364   20530333.0314   20530329.017
        57.0004         52.0004
 -21053550.72249 -16360497.19448  20850861.6324   20850862.7064   20850860.596
        55.0004         50.0004
  -6447870.38947  -4995240.57947  23784030.1524   23784033.5334   23784029.702
        47.0004         43.0004
 -11185469.93249  -8674481.90148  22722029.4724   22722034.3794   22722029.376
        54.0004         49.0004
  -8355464.58547  -6498447.37547  23299728.6134   23299734.2824   23299727.931
        47.0004         42.0004
   -324033.16747   -213739.69747  25214563.0194   25214564.2314   25214561.934
        47.0004         42.0004
 -16608075.12848 -12895603.75747  21692369.5234   21692373.0274   21692369.249
        52.0004         47.0004
  -6585630.67947  -5085830.03946  23564207.6114   23564210.7634   23564208.743
        46.0004         41.0004
 20  9  1  0 14 30.0000000  0  8G09G07G27G30G08G05G04G16
 -24577192.85049 -19114035.75948  20529099.7134   20529103.2284   20529099.335
        57.0004         52.0004
 -21075686.79649 -16377746.07148  20846648.8464   20846650.3114   20846648.398
        55.0004         50.0004
  -6463988.07148  -5007799.78347  23780963.1664   23780966.3394   23780963.305
        48.0004         43.0004
 -11247501.41449  -8722818.09148  22710225.4494   22710229.9174   22710225.235
        54.0004         50.0004
  -8418934.54047  -6547904.44247  23287650.4174   23287656.1074   23287650.559
        47.0004         42.0004
   -403296.37147   -275503.23247  25199478.4964   25199479.6964   25199477.591
        47.0004         42.0004
 -16548715.86648 -12849349.81747  21703665.5024   21703668.7174   21703664.840
        52.0004         47.0004
  -6500382.70547  -5019403.07546  23580430.8334   23580432.2184   23580431.243
        46.0004         41.0004
 20  9  1  0 15  0.0000000  0  8G09G07G27G30G08G05G04G16
 -24583227.72149 -19118738.26148  20527951.2214   20527954.8634   20527950.713
        57.0004         52.0004
 -21097544.34649 -16394777.92248  20842489.8404   20842490.9634   20842489.099
        55.0004         50.0004
  -6479612.94748  -5019974.99447  23777989.0634   23777991.7394   23777988.762
        48.0004         43.0004
 -11309360.48449  -8771019.93748  22698454.3534   22698458.4694   22698454.266
        54.0004         50.0004
  -8482074.96747  -6597104.74847  23275635.3164   23275640.2024   23275635.704
        47.0004         42.0004
   -482215.52347   -336998.66347  25184461.3934   25184463.1664   25184460.565
        47.0004         42.0004
 -16489000.09148 -12802818.07647  21715029.4124   21715032.6804   21715028.274
        52.0004         47.0004
  -6414897.40947  -4952791.18546  23596697.9944   23596699.4554   23596698.568
        46.0004         41.0004
 20  9  1  0 15 30.0000000  0  8G09G07G27G30G08G05G04G16
 -24588833.71649 -19123106.57448  20526884.3844   20526888.1664   20526884.122
        57.0004         52.0004
 -21119123.58449 -16411592.91048  20838383.2454   20838384.2824   20838382.665
        55.0004         50.0004
  -6494743.75348  -5031765.20247  23775110.1004   23775115.3844   23775109.678
        48.0004         43.0004
 -11371047.13549  -8819087.42848  22686715.5294   22686719.9324   22686715.375
        54.0004         50.0004
  -8544883.95447  -6646046.78047  23263682.5564   23263688.7474   23263682.954
        47.0004         42.0004
   -560788.32447   -398224.18147  25169509.6664   25169510.7294   25169509.929
        46.0004         42.0004
 -16428928.13548 -12756008.78947  21726460.2524   21726463.1824   21726459.796
        52.0004         47.0004
  -6329177.14447  -4885996.19446  23613009.9544   23613011.0344   23613009.365
        46.0004         41.0004
 20  9  1  0 16  0.0000000  0  8G09G07G27G30G08G05G04G16
 -24594009.69749 -19127139.81048  20525899.6264   20525903.0964   20525898.978
        57.0004         52.0004
 -21140424.87249 -16428191.31348  20834329.8464   20834331.0384   20834329.148
        55.0004         50.0004
  -6509379.23048  -5043169.45547  23772324.4364   23772327.9774   23772324.471
        48.0004         43.0004
 -11432561.45249  -8867020.63948  22675009.8554   22675014.0654   22675009.962
        54.0004         50.0004
  -8607358.13547  -6694727.93247  23251794.4714   23251799.5184   23251794.139
        47.0004         42.0004
   -639013.08847   -459178.53846  25154622.9444   25154624.8474   25154623.337
        46.0004         41.0004
 -16368500.40048 -12708922.26947  21737959.5304   21737962.9214   21737958.792
        52.0004         47.0004
  -6243224.41647  -4819020.05746  23629365.9674   23629368.0914   23629366.213
        45.0004         41.0004
 20  9  1  0 16 30.0000000  0  8G09G07G27G30G08G05G04G16
 -24598754.48749 -19130837.05048  20524996.6034   20525000.2984   20524996.170
        57.0004         52.0004
 -21161448.44549 -16444573.31248  20830329.0734   20830330.3524   20830328.619
        55.0004         50.0004
  -6523518.10748  -5054186.73647  23769634.2914   23769638.5094   23769633.976
        48.0004         43.0004
 -11493903.38849  -8914819.52448  22663337.0214   22663341.1164   22663336.843
        55.0004         50.0004
  -8669494.92147  -6743146.18547  23239970.6134   23239975.6894   23239970.293
        47.0004         43.0004
   -716887.49947   -519859.89247  25139803.7124   25139805.7294   25139802.925
        46.0004         42.0004
 -16307717.30748 -12661558.85347  21749526.2994   21749528.9134   21749525.636
        52.0004         47.0004
  -6157041.51147  -4751864.58446  23645766.7674   23645767.8074   23645766.937
        45.0004         41.0004
 20  9  1  0 17  0.0000000  0  8G09G07G27G30G08G05G04G16
 -24603066.82749 -19134197.32348  20524176.0774   20524179.4604   20524175.735
        57.0004         52.0004
 -21182194.66249 -16460739.19248  20826381.2274   20826382.3474   20826380.743
        55.0004         50.0004
  -6537159.17548  -5064816.11947  23767037.8724   23767042.7234   23767037.821
        48.0004         43.0004
 -11555072.94049  -8962484.08748  22651696.8684   22651700.9414   22651696.754
        55.0004         50.0004
  -8731291.67647  -6791299.46647  23228211.1494   23228216.8064   23228209.811
        47.0004         43.0004
   -794408.24847   -580265.63147  25125051.9844   25125052.9854   25125052.284
        46.0004         42.0004
 -16246579.18948 -12613918.78747  21761160.1234   21761163.2304   21761160.087
        52.0004         47.0004
  -6070630.69547  -4684531.50146  23662209.1494   23662210.9284   23662210.572
        45.0004         41.0004
 20  9  1  0 17 30.0000000  0  8G09G07G27G30G08G05G04G16
 -24606945.70149 -19137219.82548  20523437.7534   20523441.5444   20523437.329
        57.0004         52.0004
 -21202664.03849 -16476689.35048  20822485.9444   20822487.1774   20822485.393
        55.0004         50.0004
  -6550301.29947  -5075056.71247  23764537.3204   23764540.9974   23764536.629
        47.0004         43.0004
 -11616070.24949  -9010014.43248  22640089.3124   22640093.7634   22640089.064
        55.0004         50.0004
  -8792745.50647  -6839185.55047  23216516.8004   23216521.8024   23216516.161
        47.0004         43.0004
   -871573.48747   -640394.38747  25110369.2894   25110370.6194   25110368.640
        47.0004         42.0004
 -16185086.62148 -12566002.52947  21772862.2194   21772865.0064   21772861.537
        52.0004         47.0004
  -5983994.50147  -4617022.79146  23678696.9264   23678698.1774   23678695.458
        45.0004         41.0004
 20  9  1  0 18  0.0000000  0  8G09G07G27G30G08G05G04G16
 -24610389.85549 -19139903.58748  20522782.3824   20522786.1294   20522781.965
        57.0004         52.0004
 -21222856.83449 -16492423.99448  20818643.3944   20818644.9144   20818643.005
        55.0004         50.0004
  -6562943.30048  -5084907.59947  23762131.0254   23762136.2974   23762131.362
        48.0004         43.0004
 -11676895.21049  -9057410.48348  22628514.6654   22628519.0634   22628514.552
        55.0004         50.0004
  -8853853.35948  -6886802.03647  23204888.4374   23204894.0404   23204887.936
        48.0004         43.0004
   -948381.12347   -700244.46447  25095751.0104   25095753.6294   25095749.843
        47.0004         42.0004
 -16123239.96248 -12517810.35547  21784631.0094   21784634.6584   21784630.478
        52.0004         47.0004
  -5897135.36147  -4549340.36446  23695224.6724   23695227.2954   23695225.030
        45.0004         41.0004
 20  9  1  0 18 30.0000000  0  8G09G07G27G30G08G05G04G16
 -24613398.22449 -19142247.77948  20522209.8304   20522213.5334   20522209.732
        57.0004         52.0004
 -21242773.55049 -16507943.51448  20814853.3964   20814854.5824   20814852.992
        55.0004         50.0004
  -6575084.06647  -5094367.93547  23759821.4054   23759825.3454   23759820.407
        47.0004         43.0004
 -11737548.00149  -9104672.38548  22616972.7894   22616977.1254   22616973.188
        55.0004         50.0004
  -8914612.87748  -6934147.09247  23193326.1614   23193330.8364   23193326.172
        48.0004         43.0004
  -1024829.12547   -759814.34047  25081206.2224   25081207.8574   25081205.352
        47.0004         42.0004
 -16061039.72648 -12469342.66747  21796467.5744   21796470.6134   21796466.874
        52.0004         47.0004
  -5810055.19747  -4481485.71746  23711796.0074   23711797.1814   23711797.112
        45.0004         41.0004
 20  9  1  0 19  0.0000000  0  8G09G07G27G30G08G05G04G16
 -24615969.64349 -19144251.48648  20521720.6044   20521724.2404   20521720.219
        57.0004         52.0004
 -21262414.37449 -16523248.05048  20811115.9834   20811117.0064   20811115.361
        55.0004         50.0004
  -6586722.41747  -5103436.76147  23757606.7014   23757609.8554   23757606.734
        47.0004         43.0004
 -11798028.56449  -9151800.07348  22605463.3714   22605467.9804   22605463.681
        55.0004         50.0004
  -8975020.91948  -6981218.28047  23181830.8604   23181836.6154   23181830.949
        48.0004         43.0004
  -1100915.07947   -819102.05947  25066726.0934   25066728.5154   25066724.349
        46.0004         42.0004
 -15998486.33648 -12420599.79447  21808370.7944   21808374.2934   21808370.562
        52.0004         47.0004
  -5722756.74747  -4413460.97446  23728408.8494   23728410.1344   23728408.601
        45.0004         41.0004
 20  9  1  0 19 30.0000000  0  8G09G07G27G30G08G05G04G16
 -24618103.03149 -19145913.87248  20521314.5484   20521318.4184   20521314.350
        57.0004         52.0004
 -21281779.70849 -16538337.91648  20807430.7284   20807431.9164   20807430.252
        55.0004         50.0004
  -6597857.30147  -5112113.26247  23755488.5744   23755492.2474   23755488.657
        47.0004         43.0004
 -11858336.95849  -9198793.60248  22593987.1134   22593991.5774   22593986.964
        55.0004         50.0004
  -9035074.92948  -7028013.58747  23170402.8864   23170407.9324   23170402.499
        48.0004         43.0004
  -1176636.74247   -878105.94247  25052317.2684   25052319.1554   25052316.024
        47.0004         42.0004
 -15935580.32548 -12371582.14847  21820341.3624   21820344.3834   21820341.147
        52.0004         47.0004
  -5635242.40747  -4345267.99746  23745062.3014   23745064.3244   23745061.252
        45.0004         40.0004
 20  9  1  0 20  0.0000000  0  8G09G07G27G30G08G05G04G16
 -24619797.29849 -19147234.08548  20520992.2394   20520995.9534   20520991.809
        57.0004         52.0004
 -21300870.09149 -16553213.53848  20803798.2384   20803799.0944   20803797.610
        55.0004         50.0004
  -6608487.62847  -5120396.62847  23753464.4874   23753469.5974   23753464.871
        47.0004         43.0004
 -11918473.18749  -9245652.98148  22582543.6094   22582548.2324   22582543.756
        55.0004         51.0004
  -9094772.39248  -7074531.08047  23159042.6074   23159048.5504   23159042.879
        48.0004         44.0004
  -1251991.88547   -936824.19647  25037977.0694   25037978.3114   25037978.161
        46.0004         42.0004
 -15872322.13248 -12322290.07547  21832379.4044   21832382.2134   21832378.888
        52.0004         47.0004
  -5547514.37347  -4276908.50746  23761755.8224   23761757.7664   23761755.785
        45.0004         41.0004
 20  9  1  0 20 30.0000000  0  8G09G07G27G30G08G05G04G16
 -24621051.31949 -19148211.24848  20520753.7214   20520757.3824   20520753.127
        57.0004         52.0004
 -21319685.86049 -16567875.17448  20800217.6914   20800218.6344   20800216.867
        55.0004         50.0004
  -6618612.28747  -5128285.96747  23751538.2844   23751542.7484   23751537.853
        47.0004         42.0004
 -11978437.28049  -9292378.23748  22571132.9444   22571137.4694   22571132.995
        55.0004         51.0004
  -9154109.71248  -7120767.93447  23147751.1134   23147756.1954   23147751.033
        48.0004         44.0004
  -1326978.58247   -995255.37047  25023707.9394   25023709.5924   25023707.410
        46.0004         42.0004
 -15808712.26748 -12272723.97047  21844484.1584   21844486.7454   21844483.207
        52.0004         47.0004
  -5459574.94047  -4208384.30346  23778491.1914   23778492.3774   23778489.430
        45.0004         40.0004
 20  9  1  0 21  0.0000000  0  8G09G07G27G30G08G05G04G16
 -24621864.10749 -19148844.59448  20520598.8584   20520602.4924   20520598.528
        57.0004         52.0004
 -21338227.05649 -16582322.86048  20796689.4314   20796690.3614   20796688.767
        55.0004         50.0004
  -6628230.37647  -5135780.57047  23749708.2024   23749711.6154   23749707.675
        47.0004         43.0004
 -12038229.32949  -9338969.41948  22559754.7084   22559759.4294   22559754.499
        55.0004         51.0004
  -9213084.95448  -7166722.64747  23136528.3984   23136533.4284   23136528.216
        48.0004         44.0004
  -1401594.24047  -1053397.43747  25009508.5864   25009511.0434   25009506.437
        47.0004         42.0004
 -15744751.33648 -12222884.30747  21856655.4874   21856658.5344   21856654.792
        52.0004         47.0004
  -5371426.80847  -4139697.45546  23795264.5654   23795265.4584   23795263.830
        45.0004         41.0004
 20  9  1  0 21 30.0000000  0  8G09G07G27G30G08G05G04G16
 -24622234.47549 -19149133.19448  20520528.4214   20520532.0734   20520528.247
        57.0004         52.0004
 -21356494.24549 -16596557.03048  20793213.0824   20793214.2854   20793212.293
        55.0004         50.0004
  -6637340.72647  -5142879.53247  23747974.3394   23747977.7024   23747973.713
        47.0004         42.0004
 -12097849.25249  -9385426.47948  22548409.4194   22548414.3674   22548409.588
        55.0004         51.0004
  -9271695.27748  -7212393.02147  23125375.6024   23125380.5944   23125375.337
        48.0004         44.0004
  -1475836.81047  -1111248.77747  24995380.5184   24995382.5304   24995381.076
        47.0004         42.0004
 -15680439.73848 -12172771.39947  21868893.5364   21868895.9974   21868892.758
        52.0004         47.0004
  -5283071.82447  -4070849.43446  23812077.6684   23812079.8964   23812077.308
        45.0004         40.0004
 20  9  1  0 22  0.0000000  0  8G09G07G27G30G08G05G04G16
 -24622161.46049 -19149076.30848  20520542.2524   20520546.0974   20520542.082
        57.0004         52.0004
 -21374488.06949 -16610578.19048  20789789.0044   20789790.0924   20789788.400
        55.0004         50.0004
  -6645942.38847  -5149582.12347  23746337.1224   23746341.0074   23746336.740
        47.0004         42.0004
 -12157297.15249  -9431749.49948  22537096.7214   22537101.5474   22537097.029
        55.0004         51.0004
  -9329937.95148  -7257776.91147  23114292.6564   23114297.9074   23114291.885
        48.0004         44.0004
  -1549703.61547  -1168807.32347  24981324.1124   24981325.9774   24981324.156
        47.0004         42.0004
 -15615778.09548 -12122385.73347  21881198.2494   21881201.1214   21881197.787
        52.0004         47.0004
  -5194512.74547  -4001842.39646  23828929.2464   23828930.8194   23828929.428
        45.0004         40.0004
 20  9  1  0 22 30.0000000  0  8G09G07G27G30G08G05G04G16
 -24621644.09449 -19148673.17648  20520640.9404   20520644.5214   20520640.449
        57.0004         52.0004
 -21392208.71249 -16624386.48648  20786416.9554   20786418.0294   20786416.454
        55.0004         50.0004
  -6654034.49047  -5155887.64547  23744797.8254   23744801.8844   23744797.130
        47.0004         43.0004
 -12216573.12449  -9477938.54748  22525817.1274   22525821.6694   22525817.052
        55.0004         51.0004
  -9387810.28748  -7302872.23347  23103279.7724   23103284.6964   23103279.088
        48.0004         44.0004
  -1623192.93247  -1226071.70047  24967339.7294   24967341.7804   24967338.959
        47.0004         43.0004
 -15550767.00048 -12071727.76047  21893569.1034   21893572.1024   21893569.002
        52.0004         47.0004
  -5105751.56047  -3932677.83446  23845820.8274   23845822.5934   23845821.284
        45.0004         40.0004
 20  9  1  0 23  0.0000000  0  8G09G07G27G30G08G05G04G16
 -24620681.17949 -19147922.85848  20520824.2534   20520827.8534   20520823.571
        57.0004         52.0004
 -21409656.42149 -16637982.10048  20783096.8354   20783097.7664   20783096.119
        55.0004         50.0004
  -6661615.93047  -5161795.24747  23743355.1754   23743359.2274   23743354.382
        47.0004         43.0004
 -12275677.04449  -9523993.52348  22514570.1284   22514574.7274   22514569.837
        55.0004         51.0004
  -9445309.52848  -7347676.81047  23092338.1474   23092343.2674   23092337.066
        48.0004         44.0004
  -1696303.29947  -1283040.80147  24953427.5954   24953428.9364   24953426.287
        47.0004         42.0004
 -15485406.86548 -12020797.80847  21906007.2384   21906010.3774   21906006.436
        52.0004         47.0004
  -5016790.78547  -3863357.77846  23862749.1084   23862751.2684   23862749.164
        45.0004         40.0004
 20  9  1  0 23 30.0000000  0  8G09G07G27G30G08G05G04G16
 -24619271.83749 -19146824.67448  20521092.1984   20521095.9834   20521092.022
        57.0004         52.0004
 -21426831.65249 -16651365.39948  20779828.4534   20779829.1364   20779827.505
        55.0004         50.0004
  -6668685.88847  -5167304.28747  23742009.5354   23742013.4584   23742008.840
        47.0004         42.0004
 -12334609.06349  -9569914.55548  22503355.6744   22503360.0974   22503355.779
        56.0004         51.0004
  -9502432.72648  -7392188.38047  23081467.3394   23081473.3744   23081466.954
        48.0004         44.0004
  -1769031.49047  -1339712.13647  24939587.2264   24939590.0694   24939586.811
        47.0004         43.0004
 -15419698.45948 -11969596.48547  21918511.8874   21918513.9764   21918510.307
        51.0004         47.0004
  -4927632.74647  -3793884.02246  23879715.2854   23879717.7794   23879715.449
        45.0004         40.0004
 20  9  1  0 24  0.0000000  0  8G09G07G27G30G08G05G04G16
 -24617415.02949 -19145377.81848  20521445.5714   20521449.4344   20521445.429
        57.0004         52.0004
 -21443734.70549 -16664536.60848  20776611.6304   20776612.8374   20776611.371
        55.0004         50.0004
  -6675243.43847  -5172414.04647  23740761.8624   23740765.4134   23740761.115
        47.0004         43.0004
 -12393369.15549  -9615701.61348  22492173.8524   22492178.1484   22492174.087
        56.0004         51.0004
  -9559177.48648  -7436405.06147  23070669.8404   23070674.2024   23070669.326
        48.0004         44.0004
  -1841375.67247  -1396084.18847  24925821.4464   24925822.5584   24925820.343
        47.0004         42.0004
 -15353642.20148 -11918124.09847  21931080.8724   21931084.4554   21931080.320
        51.0004         47.0004
  -4838279.97947  -3724258.49646  23896718.8464   23896720.1164   23896718.529
        45.0004         40.0004
 20  9  1  0 24 30.0000000  0  8G09G07G27G30G08G05G04G16
 -24615109.83349 -19143581.57148  20521884.4424   20521888.0614   20521883.807
        57.0004         52.0004
 -21460366.01749 -16677496.07848  20773447.0624   20773448.0974   20773446.332
        55.0004         50.0004
  -6681287.75547  -5177123.88247  23739610.3414   23739614.3334   23739610.550
        47.0004         42.0004
 -12451957.44849  -9661354.79348  22481025.3364   22481029.1544   22481025.159
        54.0004         48.0004
  -9615541.13948  -7480324.78147  23059943.8444   23059948.9694   23059943.405
        48.0004         44.0004
  -1913334.23647  -1452155.80047  24912127.2764   24912129.3044   24912126.954
        47.0004         43.0004
 -15287238.78748 -11866381.20847  21943717.3844   21943720.8294   21943716.487
        51.0004         47.0004
  -4748734.60247  -3654482.89946  23913758.6784   23913761.3394   23913758.260
        45.0004         40.0004
 20  9  1  0 25  0.0000000  0  8G09G07G27G30G08G05G04G16
 -24612355.17649 -19141435.09148  20522408.2754   20522412.2414   20522408.086
        57.0004         52.0004
 -21476725.78649 -16690243.95148  20770333.6144   20770335.0204   20770333.075
        55.0004         50.0004
  -6686817.82347  -5181433.01147  23738558.3824   23738563.0574   23738558.473
        47.0004         42.0004
 -12510373.81548  -9706874.01448  22469908.8674   22469913.2074   22469908.521
        53.0004         48.0004
  -9671520.96448  -7523945.41847  23049290.5454   23049296.6214   23049290.956
        48.0004         44.0004
  -1984904.37348  -1507924.73847  24898507.7614   24898510.8084   24898507.065
        48.0004         43.0004
 -15220488.77448 -11814368.24847  21956419.1324   21956422.2994   21956418.600
        51.0004         47.0004
  -4658999.11747  -3584559.17246  23930834.5104   23930836.3414   23930834.281
        45.0004         40.0004
 20  9  1  0 25 30.0000000  0  8G09G07G27G30G08G05G04G16
 -24609150.24649 -19138937.75548  20523018.4194   20523022.1914   20523018.217
        57.0004         52.0004
 -21492814.75549 -16702780.81748  20767271.9964   20767273.3484   20767271.708
        55.0004         50.0004
  -6691833.02547  -5185340.93047  23737604.5994   23737608.8074   23737604.596
        47.0004         43.0004
 -12568618.46748  -9752259.43747  22458824.6274   22458828.6734   22458825.260
        52.0004         46.0004
  -9727114.71448  -7567265.20947  23038711.6054   23038717.5074   23038712.007
        48.0004         44.0004
  -2056084.15347  -1563389.47147  24884963.4204   24884964.9654   24884963.264
        47.0004         43.0004
 -15153392.90948 -11762085.78347  21969186.8434   21969190.0584   21969186.776
        51.0004         47.0004
  -4569075.54547  -3514488.88846  23947947.2634   23947948.0124   23947946.388
        45.0004         40.0004
 20  9  1  0 26  0.0000000  0  8G09G07G27G30G08G05G04G16
 -24605493.88849 -19136088.64948  20523714.0624   20523717.8494   20523713.434
        57.0004         52.0004
 -21508632.89749 -16715106.63848  20764261.8154   20764263.2364   20764261.461
        55.0004         50.0004
  -6696332.29347  -5188846.81747  23736748.0074   23736752.7554   23736747.580
        47.0004         43.0004
 -12626691.19148  -9797510.88347  22447774.4224   22447778.6624   22447774.526
        51.0004         46.0004
  -9782318.99448  -7610281.51147  23028207.7134   23028212.0054   23028206.909
        48.0004         44.0004
  -2126871.98348  -1618548.83047  24871492.1464   24871494.9494   24871491.179
        48.0004         43.0004
 -15085951.53448 -11709534.09147  21982020.5104   21982023.8934   21982020.442
        51.0004         47.0004
  -4478965.98347  -3444273.65946  23965093.3654   23965095.6694   23965094.016
        44.0004         40.0004
 20  9  1  0 26 30.0000000  0  8G09G07G27G30G08G05G04G16
 -24601385.31749 -19132887.17148  20524495.8814   20524499.6924   20524495.701
        57.0004         52.0004
 -21524180.77549 -16727221.86748  20761303.4474   20761304.4164   20761302.758
        55.0004         50.0004
  -6700315.00247  -5191950.20847  23735990.0444   23735995.2704   23735990.250
        47.0004         43.0004
 -12684592.18848  -9842628.52347  22436756.8014   22436760.2024   22436756.281
        50.0004         46.0004
  -9837131.94848  -7652992.89247  23017777.0144   23017781.1674   23017776.157
        49.0004         44.0004
  -2197264.77448  -1673400.34547  24858096.8814   24858099.1774   24858096.126
        48.0004         43.0004
 -15018165.55348 -11656713.87347  21994920.1314   21994923.6484   21994919.297
        51.0004         47.0004
  -4388673.48447  -3373915.90546  23982276.1044   23982277.1634   23982276.260
        44.0004         40.0004
 20  9  1  0 27  0.0000000  0  8G09G07G27G30G08G05G04G16
 -24596823.59749 -19129332.59448  20525364.2084   20525367.6974   20525363.788
        57.0004         52.0004
 -21539458.87049 -16739126.87248  20758395.8764   20758397.0854   20758395.378
        55.0004         50.0004
  -6703780.39147  -5194650.48947  23735330.8334   23735334.4974   23735329.956
        47.0004         42.0004
 -12742321.52348  -9887612.39947  22425771.0084   22425774.3904   22425770.572
        50.0004         46.0004
  -9891550.59548  -7695397.01047  23007421.1574   23007426.8164   23007420.535
        48.0004         44.0004
  -2267261.01748  -1727942.88147  24844776.7614   24844779.3914   24844776.162
        48.0004         43.0004
 -14950035.58648 -11603625.61847  22007884.8644   22007888.1374   22007884.101
        51.0004         47.0004
  -4298200.02547  -3303417.12246  23999492.4394   23999495.7574   23999491.256
        44.0004         40.0004
 20  9  1  0 27 30.0000000  0  8G09G07G27G30G08G05G04G16
 -24591807.80149 -19125424.19048  20526318.3924   20526322.2904   20526318.128
        57.0004         52.0004
 -21554467.17649 -16750821.65748  20755540.2164   20755541.2674   20755539.607
        55.0004         50.0004
  -6706727.64447  -5196947.01247  23734770.4084   23734774.5504   23734769.947
        47.0004         42.0004
 -12799879.10748  -9932462.44047  22414817.4524   22414821.6964   22414817.711
        50.0004         46.0004
  -9945572.22348  -7737491.76547  22997141.1494   22997145.8084   22997141.169
        48.0004         44.0004
  -2336858.54948  -1782174.70547  24831533.9064   24831535.9764   24831532.973
        48.0004         43.0004
 -14881562.23348 -11550269.78747  22020914.9164   22020918.6794   22020914.366
        51.0004         47.0004
  -4207547.75047  -3232779.01846  24016742.8924   24016744.8044   24016742.658
        44.0004         39.0004
 20  9  1  0 28  0.0000000  0  8G09G07G27G30G08G05G04G16
 -24586337.09749 -19121161.31148  20527359.6654   20527363.3484   20527359.206
        57.0004         52.0004
 -21569206.37849 -16762306.74848  20752735.1124   20752736.4744   20752734.879
        55.0004         50.0004
  -6709156.11047  -5198839.30247  23734307.5204   23734311.8844   23734307.016
        47.0004         42.0004
 -12857265.07248  -9977178.76347  22403897.6474   22403901.1114   22403897.140
        50.0004         46.0004
  -9999194.96648  -7779275.69547  22986936.6514   22986941.7524   22986936.590
        48.0004         44.0004
  -2406055.44448  -1836094.36247  24818365.8114   24818368.8374   24818364.868
        48.0004         43.0004
 -14812746.27448 -11496646.99847  22034009.7504   22034013.2714   22034009.661
        51.0004         47.0004
  -4116719.22747  -3162003.57446  24034027.3394   24034028.7844   24034026.978
        44.0004         40.0004
 20  9  1  0 28 30.0000000  0  8G09G07G27G30G08G05G04G16
 -24580410.59449 -19116543.26448  20528487.3884   20528491.0464   20528487.002
        57.0004         52.0004
 -21583676.80649 -16773582.40648  20749981.8924   20749982.9134   20749981.221
        55.0004         50.0004
  -6711065.09247  -5200326.79347  23733944.6824   23733948.5654   23733943.348
        47.0004         42.0004
 -12914479.41548 -10021761.34947  22393010.6864   22393013.9724   22393010.229
        50.0004         46.0004
 -10052415.79748  -7820746.45147  22976809.6614   22976814.2264   22976809.247
        48.0004         44.0004
  -2474850.04148  -1889700.51047  24805274.7254   24805276.6704   24805273.961
        48.0004         44.0004
 -14743588.31048 -11442757.70747  22047170.4114   22047174.1444   22047169.754
        51.0004         47.0004
  -4025716.62247  -3091092.47946  24051345.2104   24051345.1324   24051345.051
        44.0004         39.0004
 20  9  1  0 29  0.0000000  0  8G09G07G27G30G08G05G04G16
 -24574027.36949 -19111569.33248  20529702.1934   20529705.7984   20529701.750
        57.0004         52.0004
 -21597878.61149 -16784648.74848  20747279.2974   20747280.3104   20747278.835
        55.0004         50.0004
  -6712453.83247  -5201408.91847  23733679.9164   23733684.3934   23733679.612
        47.0004         42.0004
 -12971522.11648 -10066210.18647  22382155.4294   22382159.2204   22382155.272
        50.0004         46.0004
 -10105231.90248  -7861901.83747  22966758.6794   22966763.6114   22966758.419
        48.0004         44.0004
  -2543239.74248  -1942991.19747  24792260.3324   24792263.2214   24792259.888
        48.0004         43.0004
 -14674089.05548 -11388602.48447  22060395.5594   22060398.8754   22060395.263
        51.0004         47.0004
  -3934542.05547  -3020047.38346  24068693.6844   24068695.7914   24068694.827
        44.0004         39.0004
 20  9  1  0 29 30.0000000  0  8G09G07G27G30G08G05G04G16
 -24567186.58149 -19106238.85748  20531004.0794   20531007.5374   20531003.450
        57.0004         52.0004
 -21611812.30549 -16795506.16748  20744627.8924   20744628.7974   20744627.156
        55.0004         50.0004
  -6713321.64247  -5202085.10947  23733515.9894   23733519.2724   23733516.100
        47.0004         43.0004
 -13028393.18248 -10110525.28347  22371332.7304   22371337.1194   22371332.711
        50.0004         46.0004
 -10157641.28548  -7902740.28247  22956786.2924   22956790.8824   22956785.413
        48.0004         43.0004
  -2611222.35548  -1995964.64147  24779324.7324   24779325.6954   24779324.368
        48.0004         44.0004
 -14604249.17248 -11334181.82447  22073685.7874   22073689.1494   22073685.173
        51.0004         47.0004
  -3843198.04447  -2948870.25246  24086076.1244   24086078.8764   24086076.256
        44.0004         39.0004
 20  9  1  0 30  0.0000000  0  8G09G07G27G30G08G05G04G16
 -24559887.52149 -19100551.28548  20532392.8614   20532396.4514   20532392.406
        57.0004         52.0004
 -21625478.45149 -16806155.11448  20742026.9584   20742028.3394   20742026.756
        55.0004         50.0004
  -6713668.09047  -5202355.05747  23733449.8774   23733452.7204   23733448.768
        47.0004         42.0004
 -13085092.76848 -10154706.76547  22360543.4004   22360547.7344   22360543.344
        51.0004         46.0004
 -10209641.00748  -7943259.51647  22946889.4844   22946895.3734   22946890.022
        48.0004         43.0004
  -2678796.23648  -2048619.60647  24766465.7994   24766467.4394   24766465.113
        49.0004         44.0004
 -14534069.56448 -11279496.44847  22087040.9964   22087044.1124   22087039.926
        51.0004         47.0004
  -3751687.06747  -2877563.03846  24103490.5814   24103492.7884   24103490.484
        44.0004         39.0004
 20  9  1  0 30 30.0000000  0  8G09G07G27G30G08G05G04G16
 -24552129.19149 -19094505.84548  20533869.2164   20533872.8224   20533868.874
        57.0004         52.0004
 -21638876.90549 -16816595.46848  20739477.4554   20739478.3984   20739477.244
        55.0004         50.0004
  -6713492.34147  -5202218.10147  23733482.3374   23733486.4984   23733482.600
        47.0004         42.0004
 -13141620.77048 -10198754.54747  22349786.5504   22349789.9254   22349785.761
        51.0004         46.0004
 -10261228.45348  -7983457.49247  22937073.6704   22937078.6294   22937073.497
        48.0004         43.0004
  -2745959.36948  -2100954.49647  24753684.3424   24753686.6334   24753684.350
        49.0004         44.0004
 -14463550.75348 -11224546.75947  22100459.9414   22100463.5444   22100459.451
        51.0004         46.0004
  -3660011.04047  -2806127.18646  24120936.4764   24120937.9414   24120936.796
        43.0004         39.0004
 20  9  1  0 31  0.0000000  0  8G09G07G27G30G08G05G04G16
 -24543910.88749 -19088101.97648  20535433.1444   20535436.8224   20535432.826
        57.0004         52.0004
 -21652008.20049 -16826827.64348  20736978.6804   20736979.8154   20736978.095
        55.0004         50.0004
  -6712793.90347  -5201673.86047  23733615.2294   23733619.3744   23733614.797
        47.0004         42.0004
 -13197977.25348 -10242668.67347  22339061.8164   22339066.0754   22339061.823
        51.0004         46.0004
 -10312401.68548  -8023332.69747  22927335.4854   22927340.3414   22927334.204
        48.0004         43.0004
  -2812710.21948  -2152968.13947  24740982.4554   24740984.6724   24740981.298
        49.0004         44.0004
 -14392693.56648 -11169333.39047  22113943.6174   22113946.9334   22113943.278
        51.0004         46.0004
  -3568172.19247  -2734564.48346  24138411.7394   24138414.1614   24138411.596
        43.0004         39.0004
 20  9  1  0 31 30.0000000  0  8G09G07G27G30G08G05G04G16
 -24535231.86349 -19081339.10848  20537084.6994   20537088.3994   20537084.404
        57.0004         52.0004
 -21664872.87049 -16836852.06248  20734530.7264   20734531.6934   20734530.284
        55.0004         50.0004
  -6711572.25347  -5200721.92747  23733847.4994   23733851.2654   23733847.636
        47.0004         42.0004
 -13254162.32348 -10286449.23847  22328370.2244   22328374.6804   22328370.238
        51.0004         46.0004
 -10363157.95648  -8062883.00347  22917676.1654   22917681.7024   22917676.208
        48.0004         43.0004
  -2879045.99548  -2204658.35447  24728358.4364   24728360.3404   24728358.317
        49.0004         44.0004
 -14321498.84548 -11113857.02047  22127492.1174   22127495.1294   22127491.031
        51.0004         46.0004
  -3476172.97947  -2662876.82146  24155919.6514   24155920.5804   24155919.860
        43.0004         39.0004
 20  9  1  0 32  0.0000000  0  8G09G07G27G30G08G05G04G16
 -24526091.32249 -19074216.61848  20538824.1444   20538827.8464   20538823.550
        57.0004         52.0004
 -21677471.15349 -16846668.90748  20732133.2044   20732134.1554   20732132.837
        55.0004         50.0004
  -6709826.85847  -5199361.88147  23734180.2224   23734183.8354   23734179.899
        47.0004         42.0004
 -13310175.96348 -10330096.22147  22317711.5334   22317715.1984   22317711.357
        51.0004         46.0004
