% program   : RTKPOST ver.2.4.3 b33
% inp file  : D:\GNSS-DATA\2\tid10610.20o
% inp file  : D:\GNSS-DATA\2\brdc0610.20n
% inp file  : D:\GNSS-DATA\2\igs20950.sp3
% inp file  : D:\GNSS-DATA\2\igs20950.clk
% obs start : 2020/03/01 00:00:00.0 GPST (week2095      0.0s)
% obs end   : 2020/03/01 23:59:30.0 GPST (week2095  86370.0s)
% pos mode  : ppp-static
% solution  : forward
% elev mask : 15.0 deg
% dynamics  : off
% tidecorr  : off
% tropo opt : saastamoinen
% ephemeris : precise
% antenna1  :                       ( 0.0000  0.0000  0.0000)
%
% (lat/lon/height=WGS84/ellipsoidal,Q=1:fix,2:float,3:sbas,4:dgps,5:single,6:ppp,ns=# of satellites)
%  GPST                  latitude(deg) longitude(deg)  height(m)   Q  ns   sdn(m)   sde(m)   sdu(m)  sdne(m)  sdeu(m)  sdun(m) age(s)  ratio
2020/03/01 00:00:00.000  -35.399199906  148.979993928   664.6784   6   8   1.4418   1.5198   3.4879   0.5221  -0.5400   1.4173   0.00    0.0
2020/03/01 00:00:30.000  -35.399198653  148.979995828   664.3935   6   8   1.0193   1.0742   2.4660   0.3688  -0.3818   1.0019   0.00    0.0
2020/03/01 00:01:00.000  -35.399195230  148.979994730   664.9909   6   8   0.8316   0.8764   2.0106   0.3004  -0.3115   0.8167   0.00    0.0
2020/03/01 00:01:30.000  -35.399196731  148.979997415   664.7421   6   8   0.7196   0.7584   1.7377   0.2594  -0.2694   0.7057   0.00    0.0
2020/03/01 00:02:00.000  -35.399195933  148.979997377   664.7309   6   8   0.6430   0.6778   1.5505   0.2313  -0.2407   0.6296   0.00    0.0
2020/03/01 00:02:30.000  -35.399197288  148.979996865   664.4142   6   8   0.5865   0.6182   1.4115   0.2105  -0.2194   0.5731   0.00    0.0
2020/03/01 00:03:00.000  -35.399197526  148.979997190   664.4214   6   8   0.5422   0.5718   1.3018   0.1943  -0.2025   0.5286   0.00    0.0
2020/03/01 00:03:30.000  -35.399197789  148.979997009   664.3188   6   8   0.5064   0.5342   1.2119   0.1812  -0.1886   0.4922   0.00    0.0
2020/03/01 00:04:00.000  -35.399197765  148.979996682   664.2950   6   8   0.4765   0.5029   1.1363   0.1703  -0.1770   0.4616   0.00    0.0
2020/03/01 00:04:30.000  -35.399198364  148.979996017   664.2759   6   8   0.4511   0.4764   1.0714   0.1610  -0.1670   0.4354   0.00    0.0
2020/03/01 00:05:00.000  -35.399197691  148.979996180   664.4420   6   8   0.4292   0.4536   1.0149   0.1530  -0.1583   0.4127   0.00    0.0
2020/03/01 00:05:30.000  -35.399197799  148.979996542   664.3345   6   8   0.4101   0.4337   0.9653   0.1460  -0.1506   0.3927   0.00    0.0
2020/03/01 00:06:00.000  -35.399197759  148.979995766   664.4475   6   8   0.3932   0.4161   0.9212   0.1397  -0.1439   0.3749   0.00    0.0
2020/03/01 00:06:30.000  -35.399197723  148.979995826   664.3978   6   8   0.3781   0.4004   0.8818   0.1341  -0.1378   0.3591   0.00    0.0
2020/03/01 00:07:00.000  -35.399197387  148.979995652   664.5428   6   8   0.3646   0.3863   0.8464   0.1291  -0.1324   0.3448   0.00    0.0
2020/03/01 00:07:30.000  -35.399196979  148.979995736   664.5725   6   8   0.3523   0.3736   0.8144   0.1245  -0.1275   0.3319   0.00    0.0
2020/03/01 00:08:00.000  -35.399196822  148.979995891   664.6634   6   8   0.3411   0.3619   0.7842   0.1203  -0.1229   0.3198   0.00    0.0
2020/03/01 00:08:30.000  -35.399196562  148.979995810   664.7430   6   8   0.3306   0.3512   0.7555   0.1164  -0.1184   0.3084   0.00    0.0
2020/03/01 00:09:00.000  -35.399196422  148.979995528   664.7930   6   8   0.3210   0.3413   0.7283   0.1128  -0.1142   0.2976   0.00    0.0
2020/03/01 00:09:30.000  -35.399196360  148.979995726   664.7913   6   8   0.3120   0.3321   0.7027   0.1095  -0.1103   0.2875   0.00    0.0
2020/03/01 00:10:00.000  -35.399196349  148.979995845   664.8233   6   8   0.3036   0.3236   0.6786   0.1064  -0.1065   0.2780   0.00    0.0
2020/03/01 00:10:30.000  -35.399196360  148.979995980   664.7941   6   8   0.2957   0.3156   0.6562   0.1035  -0.1030   0.2691   0.00    0.0
2020/03/01 00:11:00.000  -35.399196665  148.979996022   664.8130   6   8   0.2884   0.3081   0.6353   0.1007  -0.0998   0.2609   0.00    0.0
2020/03/01 00:11:30.000  -35.399197120  148.979995906   664.8105   6   8   0.2816   0.3012   0.6160   0.0981  -0.0968   0.2533   0.00    0.0
2020/03/01 00:12:00.000  -35.399197006  148.979996046   664.7874   6   8   0.2752   0.2946   0.5982   0.0957  -0.0941   0.2462   0.00    0.0
2020/03/01 00:12:30.000  -35.399197024  148.979996219   664.8336   6   8   0.2693   0.2885   0.5817   0.0934  -0.0915   0.2396   0.00    0.0
2020/03/01 00:13:00.000  -35.399197087  148.979996413   664.8285   6   8   0.2636   0.2826   0.5654   0.0912  -0.0890   0.2332   0.00    0.0
2020/03/01 00:13:30.000  -35.399196866  148.979996694   664.8639   6   8   0.2580   0.2771   0.5492   0.0891  -0.0864   0.2268   0.00    0.0
2020/03/01 00:14:00.000  -35.399196891  148.979996488   664.8712   6   8   0.2528   0.2718   0.5333   0.0870  -0.0839   0.2206   0.00    0.0
2020/03/01 00:14:30.000  -35.399196821  148.979996483   664.9223   6   8   0.2477   0.2667   0.5179   0.0851  -0.0815   0.2147   0.00    0.0
2020/03/01 00:15:00.000  -35.399196810  148.979996421   664.9082   6   8   0.2428   0.2619   0.5032   0.0832  -0.0791   0.2090   0.00    0.0
2020/03/01 00:15:30.000  -35.399196727  148.979996515   664.9316   6   8   0.2382   0.2573   0.4893   0.0814  -0.0769   0.2036   0.00    0.0
2020/03/01 00:16:00.000  -35.399196462  148.979996481   664.9406   6   7   0.2341   0.2530   0.4788   0.0801  -0.0756   0.1987   0.00    0.0
2020/03/01 00:16:30.000  -35.399196377  148.979996448   664.9445   6   7   0.2302   0.2489   0.4689   0.0788  -0.0742   0.1941   0.00    0.0
2020/03/01 00:17:00.000  -35.399196244  148.979996382   664.9478   6   7   0.2264   0.2449   0.4597   0.0776  -0.0730   0.1898   0.00    0.0
2020/03/01 00:17:30.000  -35.399196153  148.979996304   664.9434   6   7   0.2229   0.2412   0.4510   0.0763  -0.0718   0.1858   0.00    0.0
2020/03/01 00:18:00.000  -35.399196080  148.979996106   664.9487   6   7   0.2194   0.2375   0.4421   0.0751  -0.0705   0.1818   0.00    0.0
2020/03/01 00:18:30.000  -35.399196156  148.979995979   664.9182   6   7   0.2159   0.2340   0.4331   0.0739  -0.0691   0.1779   0.00    0.0
2020/03/01 00:19:00.000  -35.399196102  148.979995916   664.9044   6   7   0.2125   0.2306   0.4241   0.0727  -0.0676   0.1740   0.00    0.0
2020/03/01 00:19:30.000  -35.399196090  148.979996018   664.9049   6   7   0.2092   0.2272   0.4152   0.0715  -0.0661   0.1702   0.00    0.0
2020/03/01 00:20:00.000  -35.399195943  148.979995918   664.9443   6   8   0.2060   0.2236   0.4060   0.0704  -0.0623   0.1665   0.00    0.0
2020/03/01 00:20:30.000  -35.399195857  148.979996225   664.9335   6   8   0.2029   0.2200   0.3972   0.0693  -0.0588   0.1630   0.00    0.0
2020/03/01 00:21:00.000  -35.399195814  148.979996329   664.9432   6   8   0.2000   0.2166   0.3889   0.0682  -0.0554   0.1596   0.00    0.0
2020/03/01 00:21:30.000  -35.399195933  148.979996405   664.9402   6   8   0.1971   0.2134   0.3811   0.0671  -0.0522   0.1565   0.00    0.0
2020/03/01 00:22:00.000  -35.399195934  148.979996570   664.9406   6   8   0.1944   0.2103   0.3739   0.0661  -0.0492   0.1535   0.00    0.0
2020/03/01 00:22:30.000  -35.399196058  148.979996344   664.9545   6   8   0.1919   0.2073   0.3671   0.0651  -0.0463   0.1508   0.00    0.0
2020/03/01 00:23:00.000  -35.399196028  148.979996230   664.9708   6   8   0.1893   0.2044   0.3602   0.0641  -0.0435   0.1480   0.00    0.0
2020/03/01 00:23:30.000  -35.399196004  148.979996269   664.9823   6   8   0.1867   0.2016   0.3531   0.0631  -0.0406   0.1453   0.00    0.0
2020/03/01 00:24:00.000  -35.399196029  148.979996079   664.9960   6   8   0.1842   0.1988   0.3461   0.0620  -0.0376   0.1425   0.00    0.0
2020/03/01 00:24:30.000  -35.399196105  148.979996152   664.9920   6   8   0.1817   0.1961   0.3391   0.0610  -0.0347   0.1398   0.00    0.0
2020/03/01 00:25:00.000  -35.399196158  148.979996036   665.0015   6   8   0.1792   0.1935   0.3322   0.0600  -0.0318   0.1372   0.00    0.0
2020/03/01 00:25:30.000  -35.399196242  148.979996032   664.9931   6   8   0.1769   0.1910   0.3257   0.0591  -0.0289   0.1347   0.00    0.0
2020/03/01 00:26:00.000  -35.399196257  148.979996045   664.9904   6   8   0.1746   0.1886   0.3195   0.0581  -0.0260   0.1323   0.00    0.0
2020/03/01 00:26:30.000  -35.399196187  148.979996259   665.0125   6   8   0.1724   0.1862   0.3137   0.0572  -0.0231   0.1301   0.00    0.0
2020/03/01 00:27:00.000  -35.399196368  148.979996035   665.0000   6   8   0.1703   0.1840   0.3083   0.0563  -0.0202   0.1280   0.00    0.0
2020/03/01 00:27:30.000  -35.399196347  148.979996025   665.0231   6   8   0.1683   0.1818   0.3033   0.0554  -0.0173   0.1260   0.00    0.0
2020/03/01 00:28:00.000  -35.399196402  148.979996037   665.0416   6   8   0.1663   0.1797   0.2981   0.0546  -0.0138   0.1240   0.00    0.0
2020/03/01 00:28:30.000  -35.399196439  148.979995935   665.0305   6   8   0.1643   0.1776   0.2928   0.0537  -0.0095   0.1220   0.00    0.0
2020/03/01 00:29:00.000  -35.399196383  148.979996226   665.0325   6   8   0.1623   0.1755   0.2874   0.0528   0.0027   0.1200   0.00    0.0
2020/03/01 00:29:30.000  -35.399196442  148.979996220   665.0227   6   8   0.1603   0.1735   0.2821   0.0520   0.0099   0.1181   0.00    0.0
2020/03/01 00:30:00.000  -35.399196403  148.979996277   665.0384   6   8   0.1583   0.1716   0.2769   0.0511   0.0135   0.1161   0.00    0.0
2020/03/01 00:30:30.000  -35.399196462  148.979996180   665.0484   6   8   0.1564   0.1696   0.2719   0.0503   0.0160   0.1143   0.00    0.0
2020/03/01 00:31:00.000  -35.399196431  148.979996123   665.0568   6   8   0.1546   0.1678   0.2671   0.0495   0.0180   0.1125   0.00    0.0
2020/03/01 00:31:30.000  -35.399196348  148.979996154   665.0702   6   8   0.1528   0.1660   0.2627   0.0487   0.0196   0.1109   0.00    0.0
2020/03/01 00:32:00.000  -35.399196446  148.979996143   665.0589   6   8   0.1511   0.1643   0.2586   0.0480   0.0208   0.1093   0.00    0.0
2020/03/01 00:32:30.000  -35.399196418  148.979996216   665.0724   6   8   0.1495   0.1626   0.2548   0.0472   0.0219   0.1079   0.00    0.0
2020/03/01 00:33:00.000  -35.399196480  148.979996094   665.0662   6   8   0.1479   0.1609   0.2508   0.0465   0.0229   0.1064   0.00    0.0
2020/03/01 00:33:30.000  -35.399196433  148.979996052   665.0786   6   8   0.1463   0.1593   0.2467   0.0458   0.0238   0.1049   0.00    0.0
2020/03/01 00:34:00.000  -35.399196370  148.979996063   665.0794   6   8   0.1446   0.1577   0.2426   0.0450   0.0247   0.1034   0.00    0.0
2020/03/01 00:34:30.000  -35.399196318  148.979996045   665.0891   6   8   0.1430   0.1561   0.2384   0.0443   0.0254   0.1019   0.00    0.0
2020/03/01 00:35:00.000  -35.399196328  148.979996188   665.0886   6   8   0.1413   0.1545   0.2344   0.0436   0.0261   0.1004   0.00    0.0
2020/03/01 00:35:30.000  -35.399196335  148.979996131   665.0881   6   8   0.1397   0.1530   0.2305   0.0429   0.0267   0.0990   0.00    0.0
2020/03/01 00:36:00.000  -35.399196316  148.979996113   665.0909   6   8   0.1382   0.1515   0.2268   0.0422   0.0272   0.0977   0.00    0.0
2020/03/01 00:36:30.000  -35.399196298  148.979996053   665.0932   6   8   0.1367   0.1501   0.2234   0.0416   0.0276   0.0964   0.00    0.0
2020/03/01 00:37:00.000  -35.399196319  148.979996177   665.0942   6   8   0.1354   0.1487   0.2202   0.0410   0.0280   0.0952   0.00    0.0
2020/03/01 00:37:30.000  -35.399196268  148.979996100   665.1108   6   8   0.1341   0.1474   0.2172   0.0404   0.0283   0.0941   0.00    0.0
2020/03/01 00:38:00.000  -35.399196254  148.979996169   665.1171   6   8   0.1327   0.1460   0.2141   0.0397   0.0286   0.0930   0.00    0.0
2020/03/01 00:38:30.000  -35.399196230  148.979996138   665.1303   6   8   0.1313   0.1447   0.2109   0.0391   0.0289   0.0918   0.00    0.0
2020/03/01 00:39:00.000  -35.399196160  148.979996187   665.1369   6   8   0.1299   0.1434   0.2077   0.0385   0.0291   0.0907   0.00    0.0
2020/03/01 00:39:30.000  -35.399196144  148.979996137   665.1435   6   8   0.1285   0.1421   0.2045   0.0379   0.0294   0.0895   0.00    0.0
2020/03/01 00:40:00.000  -35.399196147  148.979996191   665.1446   6   8   0.1272   0.1408   0.2013   0.0373   0.0296   0.0884   0.00    0.0
2020/03/01 00:40:30.000  -35.399196141  148.979996116   665.1523   6   8   0.1258   0.1396   0.1982   0.0367   0.0298   0.0873   0.00    0.0
2020/03/01 00:41:00.000  -35.399196132  148.979996152   665.1543   6   8   0.1245   0.1383   0.1953   0.0362   0.0299   0.0862   0.00    0.0
2020/03/01 00:41:30.000  -35.399196189  148.979996033   665.1514   6   8   0.1233   0.1372   0.1926   0.0356   0.0300   0.0852   0.00    0.0
2020/03/01 00:42:00.000  -35.399196231  148.979995968   665.1511   6   8   0.1221   0.1360   0.1901   0.0351   0.0301   0.0843   0.00    0.0
2020/03/01 00:42:30.000  -35.399196288  148.979995931   665.1435   6   8   0.1210   0.1349   0.1877   0.0346   0.0302   0.0834   0.00    0.0
2020/03/01 00:43:00.000  -35.399196279  148.979995889   665.1501   6   8   0.1199   0.1338   0.1853   0.0341   0.0303   0.0825   0.00    0.0
2020/03/01 00:43:30.000  -35.399196258  148.979995885   665.1570   6   8   0.1187   0.1327   0.1828   0.0336   0.0303   0.0816   0.00    0.0
2020/03/01 00:44:00.000  -35.399196252  148.979995931   665.1617   6   8   0.1175   0.1316   0.1802   0.0331   0.0304   0.0807   0.00    0.0
2020/03/01 00:44:30.000  -35.399196230  148.979995959   665.1677   6   8   0.1163   0.1305   0.1776   0.0326   0.0304   0.0798   0.00    0.0
2020/03/01 00:45:00.000  -35.399196238  148.979995992   665.1719   6   8   0.1151   0.1294   0.1751   0.0321   0.0305   0.0789   0.00    0.0
2020/03/01 00:45:30.000  -35.399196267  148.979996011   665.1729   6   8   0.1140   0.1284   0.1726   0.0316   0.0305   0.0780   0.00    0.0
2020/03/01 00:46:00.000  -35.399196287  148.979996032   665.1741   6   8   0.1129   0.1274   0.1703   0.0311   0.0305   0.0771   0.00    0.0
2020/03/01 00:46:30.000  -35.399196311  148.979996092   665.1725   6   8   0.1118   0.1264   0.1681   0.0307   0.0305   0.0764   0.00    0.0
2020/03/01 00:47:00.000  -35.399196347  148.979996056   665.1744   6   8   0.1108   0.1254   0.1661   0.0302   0.0305   0.0756   0.00    0.0
2020/03/01 00:47:30.000  -35.399196364  148.979996051   665.1740   6   8   0.1099   0.1245   0.1642   0.0298   0.0304   0.0749   0.00    0.0
2020/03/01 00:48:00.000  -35.399196402  148.979996051   665.1734   6   8   0.1089   0.1235   0.1623   0.0294   0.0304   0.0742   0.00    0.0
2020/03/01 00:48:30.000  -35.399196454  148.979996077   665.1736   6   8   0.1079   0.1226   0.1602   0.0290   0.0304   0.0734   0.00    0.0
2020/03/01 00:49:00.000  -35.399196458  148.979996112   665.1761   6   8   0.1068   0.1217   0.1582   0.0285   0.0303   0.0727   0.00    0.0
2020/03/01 00:49:30.000  -35.399196460  148.979996127   665.1813   6   8   0.1058   0.1207   0.1561   0.0281   0.0303   0.0719   0.00    0.0
2020/03/01 00:50:00.000  -35.399196495  148.979996155   665.1820   6   8   0.1048   0.1198   0.1540   0.0277   0.0302   0.0712   0.00    0.0
2020/03/01 00:50:30.000  -35.399196522  148.979996141   665.1840   6   8   0.1038   0.1189   0.1521   0.0273   0.0302   0.0705   0.00    0.0
2020/03/01 00:51:00.000  -35.399196497  148.979996180   665.1890   6   8   0.1028   0.1180   0.1502   0.0269   0.0301   0.0698   0.00    0.0
2020/03/01 00:51:30.000  -35.399196520  148.979996186   665.1895   6   8   0.1019   0.1172   0.1484   0.0265   0.0300   0.0691   0.00    0.0
2020/03/01 00:52:00.000  -35.399196525  148.979996208   665.1955   6   8   0.1010   0.1163   0.1468   0.0262   0.0300   0.0685   0.00    0.0
2020/03/01 00:52:30.000  -35.399196524  148.979996263   665.1995   6   8   0.1002   0.1156   0.1453   0.0258   0.0299   0.0679   0.00    0.0
2020/03/01 00:53:00.000  -35.399196544  148.979996387   665.2003   6   8   0.0993   0.1147   0.1437   0.0255   0.0298   0.0674   0.00    0.0
2020/03/01 00:53:30.000  -35.399196545  148.979996390   665.2071   6   8   0.0985   0.1139   0.1420   0.0251   0.0297   0.0667   0.00    0.0
2020/03/01 00:54:00.000  -35.399196553  148.979996413   665.2119   6   8   0.0976   0.1131   0.1403   0.0248   0.0296   0.0661   0.00    0.0
2020/03/01 00:54:30.000  -35.399196556  148.979996406   665.2178   6   8   0.0966   0.1123   0.1386   0.0244   0.0296   0.0655   0.00    0.0
2020/03/01 00:55:00.000  -35.399196573  148.979996424   665.2188   6   8   0.0957   0.1115   0.1369   0.0241   0.0295   0.0649   0.00    0.0
2020/03/01 00:55:30.000  -35.399196583  148.979996466   665.2177   6   8   0.0949   0.1107   0.1353   0.0238   0.0294   0.0643   0.00    0.0
2020/03/01 00:56:00.000  -35.399196604  148.979996458   665.2187   6   8   0.0940   0.1100   0.1338   0.0234   0.0293   0.0637   0.00    0.0
2020/03/01 00:56:30.000  -35.399196622  148.979996510   665.2165   6   8   0.0932   0.1092   0.1323   0.0231   0.0292   0.0632   0.00    0.0
2020/03/01 00:57:00.000  -35.399196619  148.979996558   665.2181   6   8   0.0924   0.1085   0.1310   0.0228   0.0291   0.0627   0.00    0.0
2020/03/01 00:57:30.000  -35.399196607  148.979996620   665.2178   6   8   0.0917   0.1078   0.1298   0.0225   0.0290   0.0622   0.00    0.0
2020/03/01 00:58:00.000  -35.399196601  148.979996654   665.2204   6   8   0.0910   0.1071   0.1284   0.0222   0.0289   0.0617   0.00    0.0
2020/03/01 00:58:30.000  -35.399196611  148.979996702   665.2195   6   8   0.0902   0.1064   0.1271   0.0220   0.0288   0.0612   0.00    0.0
2020/03/01 00:59:00.000  -35.399196620  148.979996772   665.2213   6   8   0.0894   0.1057   0.1257   0.0217   0.0287   0.0606   0.00    0.0
2020/03/01 00:59:30.000  -35.399196619  148.979996745   665.2261   6   8   0.0886   0.1050   0.1243   0.0214   0.0286   0.0601   0.00    0.0
2020/03/01 01:00:00.000  -35.399196625  148.979996777   665.2279   6   8   0.0878   0.1043   0.1229   0.0211   0.0285   0.0596   0.00    0.0
2020/03/01 01:00:30.000  -35.399196617  148.979996791   665.2277   6   8   0.0870   0.1036   0.1216   0.0208   0.0284   0.0591   0.00    0.0
2020/03/01 01:01:00.000  -35.399196640  148.979996783   665.2236   6   8   0.0863   0.1029   0.1203   0.0206   0.0282   0.0586   0.00    0.0
2020/03/01 01:01:30.000  -35.399196636  148.979996762   665.2231   6   8   0.0856   0.1022   0.1191   0.0203   0.0281   0.0582   0.00    0.0
2020/03/01 01:02:00.000  -35.399196659  148.979996764   665.2198   6   8   0.0849   0.1016   0.1180   0.0201   0.0280   0.0577   0.00    0.0
2020/03/01 01:02:30.000  -35.399196676  148.979996785   665.2187   6   8   0.0843   0.1010   0.1169   0.0198   0.0279   0.0573   0.00    0.0
2020/03/01 01:03:00.000  -35.399196669  148.979996814   665.2211   6   8   0.0836   0.1004   0.1159   0.0196   0.0278   0.0569   0.00    0.0
2020/03/01 01:03:30.000  -35.399196666  148.979996767   665.2228   6   8   0.0830   0.0998   0.1147   0.0194   0.0277   0.0565   0.00    0.0
2020/03/01 01:04:00.000  -35.399196678  148.979996799   665.2242   6   8   0.0823   0.0991   0.1136   0.0191   0.0276   0.0560   0.00    0.0
2020/03/01 01:04:30.000  -35.399196712  148.979996759   665.2251   6   8   0.0816   0.0985   0.1124   0.0189   0.0275   0.0556   0.00    0.0
2020/03/01 01:05:00.000  -35.399196733  148.979996733   665.2262   6   9   0.0808   0.0978   0.1112   0.0186   0.0273   0.0551   0.00    0.0
2020/03/01 01:05:30.000  -35.399196722  148.979996719   665.2307   6   9   0.0801   0.0972   0.1101   0.0183   0.0271   0.0546   0.00    0.0
2020/03/01 01:06:00.000  -35.399196749  148.979996744   665.2317   6   9   0.0794   0.0966   0.1090   0.0180   0.0269   0.0542   0.00    0.0
2020/03/01 01:06:30.000  -35.399196764  148.979996787   665.2338   6   9   0.0788   0.0960   0.1080   0.0177   0.0267   0.0537   0.00    0.0
2020/03/01 01:07:00.000  -35.399196777  148.979996812   665.2375   6   9   0.0782   0.0954   0.1070   0.0174   0.0265   0.0533   0.00    0.0
2020/03/01 01:07:30.000  -35.399196801  148.979996826   665.2390   6  10   0.0776   0.0948   0.1061   0.0172   0.0263   0.0530   0.00    0.0
2020/03/01 01:08:00.000  -35.399196821  148.979996851   665.2400   6  10   0.0770   0.0943   0.1052   0.0169   0.0261   0.0526   0.00    0.0
2020/03/01 01:08:30.000  -35.399196844  148.979996825   665.2394   6   9   0.0765   0.0937   0.1046   0.0167   0.0260   0.0525   0.00    0.0
2020/03/01 01:09:00.000  -35.399196864  148.979996864   665.2414   6   9   0.0759   0.0931   0.1040   0.0165   0.0259   0.0524   0.00    0.0
2020/03/01 01:09:30.000  -35.399196899  148.979996898   665.2426   6   9   0.0753   0.0925   0.1034   0.0163   0.0257   0.0523   0.00    0.0
2020/03/01 01:10:00.000  -35.399196902  148.979996917   665.2445   6   9   0.0748   0.0919   0.1028   0.0160   0.0256   0.0522   0.00    0.0
2020/03/01 01:10:30.000  -35.399196926  148.979996937   665.2428   6   9   0.0742   0.0914   0.1022   0.0158   0.0255   0.0520   0.00    0.0
2020/03/01 01:11:00.000  -35.399196935  148.979996966   665.2445   6   9   0.0737   0.0908   0.1016   0.0156   0.0254   0.0519   0.00    0.0
2020/03/01 01:11:30.000  -35.399196952  148.979996977   665.2440   6   9   0.0732   0.0903   0.1011   0.0155   0.0253   0.0518   0.00    0.0
2020/03/01 01:12:00.000  -35.399196953  148.979996956   665.2448   6   9   0.0727   0.0897   0.1006   0.0153   0.0251   0.0517   0.00    0.0
2020/03/01 01:12:30.000  -35.399196969  148.979996980   665.2449   6   9   0.0722   0.0892   0.1001   0.0151   0.0250   0.0515   0.00    0.0
2020/03/01 01:13:00.000  -35.399196984  148.979996983   665.2436   6   9   0.0718   0.0887   0.0996   0.0149   0.0249   0.0514   0.00    0.0
2020/03/01 01:13:30.000  -35.399197005  148.979996962   665.2416   6   9   0.0713   0.0882   0.0990   0.0147   0.0247   0.0513   0.00    0.0
2020/03/01 01:14:00.000  -35.399197033  148.979996984   665.2420   6   9   0.0708   0.0877   0.0985   0.0146   0.0246   0.0511   0.00    0.0
2020/03/01 01:14:30.000  -35.399197051  148.979996989   665.2414   6   9   0.0702   0.0871   0.0979   0.0144   0.0245   0.0510   0.00    0.0
2020/03/01 01:15:00.000  -35.399197049  148.979997012   665.2418   6   8   0.0697   0.0866   0.0978   0.0143   0.0244   0.0508   0.00    0.0
2020/03/01 01:15:30.000  -35.399197061  148.979997038   665.2390   6   8   0.0692   0.0861   0.0976   0.0141   0.0243   0.0507   0.00    0.0
2020/03/01 01:16:00.000  -35.399197066  148.979997106   665.2390   6   8   0.0687   0.0856   0.0974   0.0140   0.0242   0.0505   0.00    0.0
2020/03/01 01:16:30.000  -35.399197073  148.979997108   665.2395   6   8   0.0683   0.0851   0.0973   0.0138   0.0242   0.0504   0.00    0.0
2020/03/01 01:17:00.000  -35.399197076  148.979997128   665.2401   6   8   0.0678   0.0846   0.0971   0.0137   0.0241   0.0502   0.00    0.0
2020/03/01 01:17:30.000  -35.399197087  148.979997157   665.2395   6   8   0.0674   0.0841   0.0970   0.0135   0.0240   0.0501   0.00    0.0
2020/03/01 01:18:00.000  -35.399197089  148.979997168   665.2379   6   8   0.0670   0.0837   0.0968   0.0134   0.0239   0.0499   0.00    0.0
2020/03/01 01:18:30.000  -35.399197093  148.979997203   665.2354   6   8   0.0666   0.0832   0.0967   0.0133   0.0238   0.0498   0.00    0.0
2020/03/01 01:19:00.000  -35.399197080  148.979997227   665.2352   6   8   0.0661   0.0827   0.0965   0.0132   0.0237   0.0496   0.00    0.0
2020/03/01 01:19:30.000  -35.399197062  148.979997222   665.2387   6   8   0.0656   0.0822   0.0963   0.0130   0.0236   0.0495   0.00    0.0
2020/03/01 01:20:00.000  -35.399197053  148.979997218   665.2416   6   8   0.0652   0.0817   0.0962   0.0129   0.0235   0.0494   0.00    0.0
2020/03/01 01:20:30.000  -35.399197062  148.979997220   665.2406   6   8   0.0647   0.0813   0.0960   0.0128   0.0234   0.0492   0.00    0.0
2020/03/01 01:21:00.000  -35.399197067  148.979997238   665.2405   6   8   0.0642   0.0808   0.0958   0.0127   0.0233   0.0491   0.00    0.0
2020/03/01 01:21:30.000  -35.399197071  148.979997253   665.2400   6   8   0.0638   0.0803   0.0957   0.0126   0.0232   0.0489   0.00    0.0
2020/03/01 01:22:00.000  -35.399197075  148.979997266   665.2391   6   8   0.0634   0.0799   0.0955   0.0125   0.0232   0.0488   0.00    0.0
2020/03/01 01:22:30.000  -35.399197071  148.979997285   665.2391   6   8   0.0631   0.0795   0.0954   0.0124   0.0231   0.0487   0.00    0.0
2020/03/01 01:23:00.000  -35.399197067  148.979997279   665.2398   6   8   0.0627   0.0791   0.0952   0.0124   0.0230   0.0486   0.00    0.0
2020/03/01 01:23:30.000  -35.399197061  148.979997275   665.2390   6   8   0.0623   0.0786   0.0951   0.0123   0.0229   0.0484   0.00    0.0
2020/03/01 01:24:00.000  -35.399197059  148.979997316   665.2375   6   8   0.0618   0.0782   0.0949   0.0122   0.0228   0.0483   0.00    0.0
2020/03/01 01:24:30.000  -35.399197073  148.979997350   665.2353   6   8   0.0614   0.0777   0.0947   0.0121   0.0227   0.0482   0.00    0.0
2020/03/01 01:25:00.000  -35.399197079  148.979997369   665.2354   6   8   0.0610   0.0773   0.0946   0.0120   0.0226   0.0480   0.00    0.0
2020/03/01 01:25:30.000  -35.399197084  148.979997373   665.2363   6   8   0.0605   0.0768   0.0944   0.0120   0.0225   0.0479   0.00    0.0
2020/03/01 01:26:00.000  -35.399197092  148.979997371   665.2372   6   8   0.0601   0.0764   0.0942   0.0119   0.0224   0.0478   0.00    0.0
2020/03/01 01:26:30.000  -35.399197100  148.979997367   665.2364   6   8   0.0597   0.0760   0.0941   0.0118   0.0223   0.0477   0.00    0.0
2020/03/01 01:27:00.000  -35.399197104  148.979997372   665.2370   6   8   0.0594   0.0756   0.0939   0.0118   0.0222   0.0476   0.00    0.0
2020/03/01 01:27:30.000  -35.399197120  148.979997405   665.2362   6   8   0.0590   0.0752   0.0937   0.0117   0.0221   0.0474   0.00    0.0
2020/03/01 01:28:00.000  -35.399197136  148.979997448   665.2360   6   8   0.0587   0.0748   0.0936   0.0116   0.0220   0.0473   0.00    0.0
2020/03/01 01:28:30.000  -35.399197154  148.979997480   665.2350   6   8   0.0583   0.0744   0.0934   0.0116   0.0219   0.0472   0.00    0.0
2020/03/01 01:29:00.000  -35.399197159  148.979997494   665.2365   6   8   0.0579   0.0740   0.0932   0.0115   0.0218   0.0471   0.00    0.0
2020/03/01 01:29:30.000  -35.399197167  148.979997520   665.2376   6   8   0.0575   0.0736   0.0931   0.0115   0.0217   0.0470   0.00    0.0
2020/03/01 01:30:00.000  -35.399197166  148.979997503   665.2383   6   8   0.0571   0.0731   0.0929   0.0114   0.0216   0.0468   0.00    0.0
2020/03/01 01:30:30.000  -35.399197168  148.979997486   665.2396   6   8   0.0567   0.0727   0.0927   0.0114   0.0215   0.0467   0.00    0.0
2020/03/01 01:31:00.000  -35.399197167  148.979997462   665.2396   6   8   0.0564   0.0723   0.0925   0.0113   0.0214   0.0466   0.00    0.0
2020/03/01 01:31:30.000  -35.399197166  148.979997454   665.2400   6   8   0.0560   0.0720   0.0924   0.0113   0.0213   0.0465   0.00    0.0
2020/03/01 01:32:00.000  -35.399197164  148.979997456   665.2407   6   8   0.0557   0.0716   0.0922   0.0112   0.0212   0.0464   0.00    0.0
2020/03/01 01:32:30.000  -35.399197173  148.979997462   665.2386   6   8   0.0554   0.0712   0.0920   0.0112   0.0211   0.0463   0.00    0.0
2020/03/01 01:33:00.000  -35.399197177  148.979997492   665.2401   6   8   0.0551   0.0709   0.0919   0.0111   0.0210   0.0462   0.00    0.0
2020/03/01 01:33:30.000  -35.399197185  148.979997542   665.2405   6   8   0.0547   0.0705   0.0917   0.0111   0.0209   0.0460   0.00    0.0
2020/03/01 01:34:00.000  -35.399197195  148.979997585   665.2390   6   8   0.0544   0.0701   0.0915   0.0110   0.0208   0.0459   0.00    0.0
2020/03/01 01:34:30.000  -35.399197205  148.979997624   665.2384   6   8   0.0540   0.0697   0.0913   0.0110   0.0207   0.0458   0.00    0.0
2020/03/01 01:35:00.000  -35.399197201  148.979997683   665.2412   6   8   0.0537   0.0693   0.0911   0.0109   0.0205   0.0457   0.00    0.0
2020/03/01 01:35:30.000  -35.399197192  148.979997725   665.2437   6   8   0.0533   0.0690   0.0909   0.0109   0.0204   0.0456   0.00    0.0
2020/03/01 01:36:00.000  -35.399197203  148.979997752   665.2426   6   8   0.0530   0.0686   0.0907   0.0109   0.0203   0.0455   0.00    0.0
2020/03/01 01:36:30.000  -35.399197219  148.979997756   665.2406   6   8   0.0526   0.0682   0.0905   0.0108   0.0202   0.0453   0.00    0.0
2020/03/01 01:37:00.000  -35.399197227  148.979997747   665.2390   6   8   0.0523   0.0679   0.0904   0.0108   0.0201   0.0452   0.00    0.0
2020/03/01 01:37:30.000  -35.399197224  148.979997751   665.2409   6   8   0.0521   0.0676   0.0902   0.0107   0.0200   0.0451   0.00    0.0
2020/03/01 01:38:00.000  -35.399197218  148.979997755   665.2429   6   8   0.0518   0.0672   0.0900   0.0107   0.0198   0.0450   0.00    0.0
2020/03/01 01:38:30.000  -35.399197230  148.979997769   665.2420   6   8   0.0515   0.0669   0.0898   0.0106   0.0197   0.0449   0.00    0.0
2020/03/01 01:39:00.000  -35.399197236  148.979997759   665.2416   6   8   0.0511   0.0665   0.0896   0.0106   0.0196   0.0448   0.00    0.0
2020/03/01 01:39:30.000  -35.399197246  148.979997774   665.2411   6   8   0.0508   0.0662   0.0894   0.0106   0.0195   0.0447   0.00    0.0
2020/03/01 01:40:00.000  -35.399197256  148.979997798   665.2403   6   8   0.0505   0.0658   0.0892   0.0105   0.0193   0.0446   0.00    0.0
2020/03/01 01:40:30.000  -35.399197261  148.979997842   665.2399   6   8   0.0502   0.0655   0.0890   0.0105   0.0192   0.0445   0.00    0.0
2020/03/01 01:41:00.000  -35.399197261  148.979997879   665.2400   6   8   0.0499   0.0651   0.0888   0.0104   0.0191   0.0443   0.00    0.0
2020/03/01 01:41:30.000  -35.399197262  148.979997912   665.2399   6   8   0.0496   0.0648   0.0886   0.0104   0.0189   0.0442   0.00    0.0
2020/03/01 01:42:00.000  -35.399197266  148.979997933   665.2394   6   8   0.0493   0.0645   0.0885   0.0104   0.0188   0.0441   0.00    0.0
2020/03/01 01:42:30.000  -35.399197270  148.979997940   665.2390   6   8   0.0490   0.0642   0.0883   0.0103   0.0187   0.0440   0.00    0.0
2020/03/01 01:43:00.000  -35.399197272  148.979997970   665.2407   6   8   0.0488   0.0639   0.0881   0.0103   0.0186   0.0439   0.00    0.0
2020/03/01 01:43:30.000  -35.399197277  148.979997978   665.2418   6   8   0.0485   0.0635   0.0879   0.0102   0.0184   0.0438   0.00    0.0
2020/03/01 01:44:00.000  -35.399197287  148.979998001   665.2421   6   8   0.0482   0.0632   0.0877   0.0102   0.0183   0.0437   0.00    0.0
2020/03/01 01:44:30.000  -35.399197289  148.979998027   665.2431   6   8   0.0479   0.0629   0.0875   0.0101   0.0181   0.0436   0.00    0.0
2020/03/01 01:45:00.000  -35.399197292  148.979998050   665.2437   6   8   0.0476   0.0625   0.0873   0.0101   0.0180   0.0435   0.00    0.0
2020/03/01 01:45:30.000  -35.399197291  148.979998070   665.2449   6   8   0.0473   0.0622   0.0870   0.0100   0.0178   0.0434   0.00    0.0
2020/03/01 01:46:00.000  -35.399197293  148.979998100   665.2459   6   8   0.0470   0.0619   0.0868   0.0100   0.0177   0.0432   0.00    0.0
2020/03/01 01:46:30.000  -35.399197297  148.979998119   665.2476   6   8   0.0468   0.0616   0.0866   0.0100   0.0175   0.0431   0.00    0.0
2020/03/01 01:47:00.000  -35.399197300  148.979998122   665.2490   6   8   0.0465   0.0613   0.0864   0.0099   0.0174   0.0430   0.00    0.0
2020/03/01 01:47:30.000  -35.399197300  148.979998131   665.2507   6   8   0.0463   0.0610   0.0862   0.0099   0.0173   0.0429   0.00    0.0
2020/03/01 01:48:00.000  -35.399197302  148.979998164   665.2517   6   8   0.0460   0.0607   0.0860   0.0098   0.0171   0.0428   0.00    0.0
2020/03/01 01:48:30.000  -35.399197301  148.979998187   665.2535   6   8   0.0458   0.0604   0.0858   0.0098   0.0169   0.0427   0.00    0.0
2020/03/01 01:49:00.000  -35.399197302  148.979998206   665.2552   6   8   0.0455   0.0601   0.0856   0.0097   0.0168   0.0426   0.00    0.0
2020/03/01 01:49:30.000  -35.399197308  148.979998210   665.2558   6   8   0.0452   0.0598   0.0854   0.0097   0.0166   0.0425   0.00    0.0
2020/03/01 01:50:00.000  -35.399197310  148.979998227   665.2568   6   8   0.0450   0.0595   0.0852   0.0096   0.0164   0.0424   0.00    0.0
2020/03/01 01:50:30.000  -35.399197311  148.979998251   665.2569   6   8   0.0447   0.0592   0.0849   0.0096   0.0163   0.0422   0.00    0.0
2020/03/01 01:51:00.000  -35.399197314  148.979998277   665.2565   6   8   0.0444   0.0589   0.0847   0.0095   0.0161   0.0421   0.00    0.0
2020/03/01 01:51:30.000  -35.399197313  148.979998289   665.2561   6   8   0.0442   0.0586   0.0845   0.0094   0.0159   0.0420   0.00    0.0
2020/03/01 01:52:00.000  -35.399197312  148.979998298   665.2572   6   8   0.0440   0.0583   0.0843   0.0094   0.0158   0.0419   0.00    0.0
2020/03/01 01:52:30.000  -35.399197315  148.979998313   665.2582   6   8   0.0438   0.0581   0.0841   0.0093   0.0156   0.0418   0.00    0.0
2020/03/01 01:53:00.000  -35.399197316  148.979998333   665.2591   6   8   0.0435   0.0578   0.0839   0.0093   0.0154   0.0417   0.00    0.0
2020/03/01 01:53:30.000  -35.399197322  148.979998334   665.2587   6   8   0.0433   0.0575   0.0837   0.0092   0.0153   0.0416   0.00    0.0
2020/03/01 01:54:00.000  -35.399197328  148.979998347   665.2591   6   8   0.0431   0.0573   0.0834   0.0092   0.0151   0.0415   0.00    0.0
2020/03/01 01:54:30.000  -35.399197328  148.979998372   665.2598   6   8   0.0428   0.0570   0.0832   0.0091   0.0149   0.0414   0.00    0.0
2020/03/01 01:55:00.000  -35.399197328  148.979998391   665.2613   6   8   0.0426   0.0567   0.0830   0.0090   0.0147   0.0412   0.00    0.0
2020/03/01 01:55:30.000  -35.399197332  148.979998395   665.2613   6   8   0.0423   0.0564   0.0827   0.0090   0.0145   0.0411   0.00    0.0
2020/03/01 01:56:00.000  -35.399197335  148.979998425   665.2631   6   8   0.0421   0.0561   0.0825   0.0089   0.0143   0.0410   0.00    0.0
2020/03/01 01:56:30.000  -35.399197347  148.979998423   665.2614   6   8   0.0419   0.0558   0.0823   0.0089   0.0141   0.0409   0.00    0.0
2020/03/01 01:57:00.000  -35.399197351  148.979998414   665.2607   6   8   0.0417   0.0556   0.0821   0.0088   0.0139   0.0408   0.00    0.0
2020/03/01 01:57:30.000  -35.399197354  148.979998416   665.2610   6   8   0.0415   0.0554   0.0819   0.0087   0.0137   0.0407   0.00    0.0
2020/03/01 01:58:00.000  -35.399197348  148.979998420   665.2628   6   8   0.0413   0.0551   0.0817   0.0087   0.0135   0.0406   0.00    0.0
2020/03/01 01:58:30.000  -35.399197350  148.979998429   665.2629   6   8   0.0410   0.0548   0.0814   0.0086   0.0133   0.0405   0.00    0.0
2020/03/01 01:59:00.000  -35.399197349  148.979998435   665.2638   6   8   0.0408   0.0546   0.0812   0.0085   0.0131   0.0403   0.00    0.0
2020/03/01 01:59:30.000  -35.399197346  148.979998448   665.2654   6   8   0.0406   0.0543   0.0810   0.0085   0.0129   0.0402   0.00    0.0
2020/03/01 02:00:00.000  -35.399197345  148.979998469   665.2669   6   8   0.0404   0.0540   0.0807   0.0084   0.0126   0.0401   0.00    0.0
2020/03/01 02:00:30.000  -35.399197343  148.979998493   665.2678   6   8   0.0401   0.0538   0.0805   0.0083   0.0124   0.0400   0.00    0.0
2020/03/01 02:01:00.000  -35.399197343  148.979998498   665.2689   6   8   0.0399   0.0535   0.0802   0.0082   0.0122   0.0398   0.00    0.0
2020/03/01 02:01:30.000  -35.399197342  148.979998505   665.2703   6   8   0.0397   0.0533   0.0800   0.0082   0.0119   0.0397   0.00    0.0
2020/03/01 02:02:00.000  -35.399197336  148.979998514   665.2724   6   8   0.0395   0.0530   0.0798   0.0081   0.0117   0.0396   0.00    0.0
2020/03/01 02:02:30.000  -35.399197335  148.979998520   665.2732   6   8   0.0393   0.0528   0.0796   0.0080   0.0115   0.0395   0.00    0.0
2020/03/01 02:03:00.000  -35.399197335  148.979998530   665.2744   6   8   0.0392   0.0526   0.0793   0.0080   0.0113   0.0394   0.00    0.0
2020/03/01 02:03:30.000  -35.399197336  148.979998553   665.2758   6   8   0.0390   0.0523   0.0791   0.0079   0.0110   0.0393   0.00    0.0
2020/03/01 02:04:00.000  -35.399197337  148.979998551   665.2759   6   8   0.0388   0.0521   0.0789   0.0078   0.0108   0.0392   0.00    0.0
2020/03/01 02:04:30.000  -35.399197339  148.979998539   665.2759   6   8   0.0385   0.0518   0.0786   0.0077   0.0105   0.0391   0.00    0.0
2020/03/01 02:05:00.000  -35.399197342  148.979998542   665.2760   6   8   0.0383   0.0516   0.0784   0.0076   0.0102   0.0389   0.00    0.0
2020/03/01 02:05:30.000  -35.399197338  148.979998547   665.2776   6   8   0.0381   0.0513   0.0781   0.0075   0.0099   0.0388   0.00    0.0
2020/03/01 02:06:00.000  -35.399197338  148.979998548   665.2779   6   8   0.0379   0.0511   0.0779   0.0074   0.0096   0.0387   0.00    0.0
2020/03/01 02:06:30.000  -35.399197331  148.979998557   665.2802   6   8   0.0377   0.0509   0.0776   0.0074   0.0094   0.0386   0.00    0.0
2020/03/01 02:07:00.000  -35.399197327  148.979998552   665.2809   6   8   0.0376   0.0507   0.0774   0.0073   0.0091   0.0385   0.00    0.0
2020/03/01 02:07:30.000  -35.399197318  148.979998553   665.2833   6   8   0.0374   0.0504   0.0772   0.0072   0.0088   0.0383   0.00    0.0
2020/03/01 02:08:00.000  -35.399197314  148.979998544   665.2851   6   8   0.0372   0.0502   0.0770   0.0071   0.0085   0.0382   0.00    0.0
2020/03/01 02:08:30.000  -35.399197312  148.979998565   665.2872   6   8   0.0370   0.0500   0.0767   0.0070   0.0082   0.0381   0.00    0.0
2020/03/01 02:09:00.000  -35.399197317  148.979998576   665.2877   6   8   0.0369   0.0498   0.0765   0.0069   0.0079   0.0380   0.00    0.0
2020/03/01 02:09:30.000  -35.399197316  148.979998601   665.2890   6   8   0.0367   0.0495   0.0762   0.0068   0.0075   0.0379   0.00    0.0
2020/03/01 02:10:00.000  -35.399197314  148.979998624   665.2908   6   8   0.0365   0.0493   0.0760   0.0067   0.0071   0.0377   0.00    0.0
2020/03/01 02:10:30.000  -35.399197308  148.979998641   665.2934   6   8   0.0363   0.0491   0.0757   0.0066   0.0067   0.0376   0.00    0.0
2020/03/01 02:11:00.000  -35.399197302  148.979998674   665.2960   6   8   0.0361   0.0489   0.0755   0.0065   0.0062   0.0375   0.00    0.0
2020/03/01 02:11:30.000  -35.399197299  148.979998693   665.2975   6   8   0.0359   0.0486   0.0752   0.0064   0.0058   0.0374   0.00    0.0
2020/03/01 02:12:00.000  -35.399197298  148.979998699   665.2986   6   8   0.0358   0.0484   0.0750   0.0064   0.0054   0.0373   0.00    0.0
2020/03/01 02:12:30.000  -35.399197299  148.979998696   665.2989   6   8   0.0356   0.0482   0.0748   0.0063   0.0049   0.0372   0.00    0.0
2020/03/01 02:13:00.000  -35.399197292  148.979998709   665.3007   6   8   0.0354   0.0480   0.0746   0.0062   0.0044   0.0370   0.00    0.0
2020/03/01 02:13:30.000  -35.399197285  148.979998727   665.3031   6   8   0.0353   0.0478   0.0743   0.0061   0.0038   0.0369   0.00    0.0
2020/03/01 02:14:00.000  -35.399197280  148.979998739   665.3053   6   8   0.0351   0.0476   0.0741   0.0060   0.0030   0.0368   0.00    0.0
2020/03/01 02:14:30.000  -35.399197279  148.979998760   665.3069   6   8   0.0349   0.0474   0.0738   0.0058   0.0018   0.0367   0.00    0.0
2020/03/01 02:15:00.000  -35.399197276  148.979998777   665.3089   6   8   0.0347   0.0472   0.0736   0.0057  -0.0015   0.0365   0.00    0.0
2020/03/01 02:15:30.000  -35.399197273  148.979998797   665.3109   6   9   0.0346   0.0470   0.0733   0.0056  -0.0029   0.0364   0.00    0.0
2020/03/01 02:16:00.000  -35.399197274  148.979998810   665.3115   6   9   0.0344   0.0468   0.0730   0.0054  -0.0037   0.0363   0.00    0.0
2020/03/01 02:16:30.000  -35.399197277  148.979998816   665.3123   6   9   0.0342   0.0466   0.0728   0.0053  -0.0044   0.0362   0.00    0.0
2020/03/01 02:17:00.000  -35.399197275  148.979998822   665.3139   6   9   0.0341   0.0464   0.0726   0.0052  -0.0049   0.0360   0.00    0.0
2020/03/01 02:17:30.000  -35.399197274  148.979998823   665.3156   6   9   0.0339   0.0462   0.0723   0.0051  -0.0054   0.0359   0.00    0.0
2020/03/01 02:18:00.000  -35.399197272  148.979998829   665.3167   6   9   0.0338   0.0460   0.0721   0.0049  -0.0058   0.0358   0.00    0.0
2020/03/01 02:18:30.000  -35.399197271  148.979998834   665.3174   6   9   0.0336   0.0458   0.0719   0.0048  -0.0062   0.0357   0.00    0.0
2020/03/01 02:19:00.000  -35.399197272  148.979998846   665.3178   6   9   0.0335   0.0456   0.0716   0.0046  -0.0067   0.0356   0.00    0.0
2020/03/01 02:19:30.000  -35.399197272  148.979998860   665.3185   6   9   0.0333   0.0454   0.0713   0.0045  -0.0071   0.0354   0.00    0.0
2020/03/01 02:20:00.000  -35.399197270  148.979998865   665.3200   6   9   0.0331   0.0452   0.0711   0.0043  -0.0074   0.0353   0.00    0.0
2020/03/01 02:20:30.000  -35.399197271  148.979998867   665.3203   6   9   0.0329   0.0450   0.0708   0.0041  -0.0078   0.0352   0.00    0.0
2020/03/01 02:21:00.000  -35.399197272  148.979998879   665.3213   6   9   0.0328   0.0448   0.0706   0.0040  -0.0081   0.0350   0.00    0.0
2020/03/01 02:21:30.000  -35.399197270  148.979998887   665.3230   6   9   0.0326   0.0446   0.0703   0.0038  -0.0084   0.0349   0.00    0.0
2020/03/01 02:22:00.000  -35.399197268  148.979998888   665.3243   6   9   0.0325   0.0444   0.0701   0.0036  -0.0087   0.0348   0.00    0.0
2020/03/01 02:22:30.000  -35.399197267  148.979998878   665.3250   6   9   0.0324   0.0443   0.0699   0.0035  -0.0089   0.0347   0.00    0.0
2020/03/01 02:23:00.000  -35.399197260  148.979998882   665.3276   6   9   0.0322   0.0441   0.0696   0.0033  -0.0092   0.0346   0.00    0.0
2020/03/01 02:23:30.000  -35.399197252  148.979998882   665.3299   6   9   0.0321   0.0439   0.0694   0.0031  -0.0094   0.0345   0.00    0.0
2020/03/01 02:24:00.000  -35.399197254  148.979998881   665.3304   6   9   0.0319   0.0437   0.0691   0.0029  -0.0097   0.0343   0.00    0.0
2020/03/01 02:24:30.000  -35.399197249  148.979998902   665.3329   6   9   0.0318   0.0435   0.0689   0.0026  -0.0100   0.0342   0.00    0.0
2020/03/01 02:25:00.000  -35.399197250  148.979998908   665.3343   6   9   0.0316   0.0434   0.0686   0.0023  -0.0102   0.0341   0.00    0.0
2020/03/01 02:25:30.000  -35.399197248  148.979998926   665.3358   6   9   0.0314   0.0432   0.0683   0.0020  -0.0104   0.0339   0.00    0.0
2020/03/01 02:26:00.000  -35.399197248  148.979998920   665.3367   6   9   0.0313   0.0430   0.0681   0.0017  -0.0107   0.0338   0.00    0.0
2020/03/01 02:26:30.000  -35.399197240  148.979998931   665.3403   6   9   0.0312   0.0428   0.0678   0.0012  -0.0109   0.0337   0.00    0.0
2020/03/01 02:27:00.000  -35.399197236  148.979998934   665.3428   6   9   0.0310   0.0427   0.0676   0.0006  -0.0111   0.0336   0.00    0.0
2020/03/01 02:27:30.000  -35.399197234  148.979998932   665.3443   6   9   0.0309   0.0425   0.0674  -0.0008  -0.0112   0.0335   0.00    0.0
2020/03/01 02:28:00.000  -35.399197234  148.979998941   665.3452   6   9   0.0308   0.0423   0.0672  -0.0013  -0.0114   0.0333   0.00    0.0
2020/03/01 02:28:30.000  -35.399197232  148.979998954   665.3464   6   9   0.0306   0.0422   0.0669  -0.0017  -0.0116   0.0332   0.00    0.0
2020/03/01 02:29:00.000  -35.399197225  148.979998974   665.3488   6   9   0.0305   0.0420   0.0667  -0.0021  -0.0118   0.0331   0.00    0.0
2020/03/01 02:29:30.000  -35.399197220  148.979998994   665.3513   6   8   0.0304   0.0419   0.0665  -0.0019  -0.0118   0.0330   0.00    0.0
2020/03/01 02:30:00.000  -35.399197217  148.979999007   665.3532   6   8   0.0303   0.0417   0.0663  -0.0016  -0.0118   0.0330   0.00    0.0
2020/03/01 02:30:30.000  -35.399197217  148.979999019   665.3540   6   8   0.0302   0.0416   0.0661  -0.0014  -0.0119   0.0329   0.00    0.0
2020/03/01 02:31:00.000  -35.399197217  148.979999025   665.3544   6   8   0.0301   0.0414   0.0660  -0.0011  -0.0119   0.0329   0.00    0.0
2020/03/01 02:31:30.000  -35.399197217  148.979999036   665.3551   6   8   0.0300   0.0413   0.0658  -0.0008  -0.0119   0.0328   0.00    0.0
2020/03/01 02:32:00.000  -35.399197218  148.979999048   665.3557   6   8   0.0299   0.0411   0.0656  -0.0003  -0.0119   0.0328   0.00    0.0
2020/03/01 02:32:30.000  -35.399197217  148.979999054   665.3562   6   8   0.0298   0.0410   0.0655   0.0006  -0.0120   0.0327   0.00    0.0
2020/03/01 02:33:00.000  -35.399197214  148.979999062   665.3571   6   8   0.0297   0.0409   0.0653   0.0009  -0.0120   0.0327   0.00    0.0
2020/03/01 02:33:30.000  -35.399197213  148.979999068   665.3572   6   8   0.0296   0.0408   0.0651   0.0012  -0.0120   0.0326   0.00    0.0
2020/03/01 02:34:00.000  -35.399197212  148.979999073   665.3575   6   8   0.0295   0.0406   0.0649   0.0014  -0.0120   0.0325   0.00    0.0
2020/03/01 02:34:30.000  -35.399197213  148.979999079   665.3572   6   8   0.0294   0.0405   0.0648   0.0015  -0.0121   0.0325   0.00    0.0
2020/03/01 02:35:00.000  -35.399197216  148.979999082   665.3578   6   8   0.0293   0.0403   0.0646   0.0017  -0.0121   0.0324   0.00    0.0
2020/03/01 02:35:30.000  -35.399197215  148.979999098   665.3584   6   8   0.0292   0.0402   0.0644   0.0018  -0.0121   0.0324   0.00    0.0
2020/03/01 02:36:00.000  -35.399197214  148.979999115   665.3597   6   8   0.0291   0.0400   0.0642   0.0019  -0.0122   0.0323   0.00    0.0
2020/03/01 02:36:30.000  -35.399197212  148.979999130   665.3615   6   8   0.0290   0.0399   0.0640   0.0020  -0.0122   0.0322   0.00    0.0
2020/03/01 02:37:00.000  -35.399197213  148.979999147   665.3632   6   8   0.0290   0.0398   0.0639   0.0021  -0.0122   0.0322   0.00    0.0
2020/03/01 02:37:30.000  -35.399197217  148.979999154   665.3636   6   8   0.0289   0.0397   0.0637   0.0021  -0.0123   0.0321   0.00    0.0
2020/03/01 02:38:00.000  -35.399197217  148.979999162   665.3650   6   8   0.0288   0.0396   0.0635   0.0022  -0.0123   0.0320   0.00    0.0
2020/03/01 02:38:30.000  -35.399197215  148.979999178   665.3664   6   8   0.0287   0.0394   0.0633   0.0023  -0.0123   0.0320   0.00    0.0
2020/03/01 02:39:00.000  -35.399197212  148.979999186   665.3678   6   8   0.0286   0.0393   0.0632   0.0023  -0.0124   0.0319   0.00    0.0
2020/03/01 02:39:30.000  -35.399197213  148.979999201   665.3682   6   8   0.0285   0.0392   0.0630   0.0024  -0.0124   0.0318   0.00    0.0
2020/03/01 02:40:00.000  -35.399197213  148.979999207   665.3688   6   8   0.0284   0.0390   0.0628   0.0024  -0.0125   0.0318   0.00    0.0
2020/03/01 02:40:30.000  -35.399197211  148.979999214   665.3706   6   8   0.0283   0.0389   0.0626   0.0025  -0.0125   0.0317   0.00    0.0
2020/03/01 02:41:00.000  -35.399197212  148.979999214   665.3716   6   8   0.0282   0.0388   0.0624   0.0025  -0.0125   0.0316   0.00    0.0
2020/03/01 02:41:30.000  -35.399197210  148.979999224   665.3734   6   8   0.0281   0.0386   0.0622   0.0025  -0.0126   0.0316   0.00    0.0
2020/03/01 02:42:00.000  -35.399197206  148.979999237   665.3752   6   8   0.0280   0.0385   0.0620   0.0026  -0.0126   0.0315   0.00    0.0
2020/03/01 02:42:30.000  -35.399197205  148.979999250   665.3763   6   8   0.0280   0.0384   0.0619   0.0026  -0.0126   0.0314   0.00    0.0
2020/03/01 02:43:00.000  -35.399197201  148.979999264   665.3780   6   8   0.0279   0.0383   0.0617   0.0026  -0.0127   0.0314   0.00    0.0
2020/03/01 02:43:30.000  -35.399197196  148.979999268   665.3798   6   8   0.0278   0.0382   0.0615   0.0026  -0.0127   0.0313   0.00    0.0
2020/03/01 02:44:00.000  -35.399197190  148.979999283   665.3820   6   8   0.0277   0.0381   0.0613   0.0026  -0.0127   0.0312   0.00    0.0
2020/03/01 02:44:30.000  -35.399197185  148.979999300   665.3837   6   8   0.0276   0.0379   0.0611   0.0027  -0.0128   0.0311   0.00    0.0
2020/03/01 02:45:00.000  -35.399197184  148.979999315   665.3847   6   8   0.0275   0.0378   0.0609   0.0027  -0.0128   0.0310   0.00    0.0
2020/03/01 02:45:30.000  -35.399197182  148.979999329   665.3859   6   8   0.0274   0.0377   0.0607   0.0027  -0.0129   0.0310   0.00    0.0
2020/03/01 02:46:00.000  -35.399197180  148.979999346   665.3873   6   8   0.0273   0.0376   0.0606   0.0027  -0.0129   0.0309   0.00    0.0
2020/03/01 02:46:30.000  -35.399197180  148.979999344   665.3879   6   8   0.0272   0.0375   0.0604   0.0027  -0.0129   0.0308   0.00    0.0
2020/03/01 02:47:00.000  -35.399197181  148.979999344   665.3887   6   8   0.0271   0.0374   0.0602   0.0027  -0.0130   0.0307   0.00    0.0
2020/03/01 02:47:30.000  -35.399197179  148.979999341   665.3896   6   8   0.0271   0.0373   0.0600   0.0027  -0.0130   0.0307   0.00    0.0
2020/03/01 02:48:00.000  -35.399197179  148.979999344   665.3904   6   8   0.0270   0.0371   0.0599   0.0027  -0.0130   0.0306   0.00    0.0
2020/03/01 02:48:30.000  -35.399197178  148.979999341   665.3913   6   8   0.0269   0.0370   0.0597   0.0027  -0.0131   0.0305   0.00    0.0
2020/03/01 02:49:00.000  -35.399197176  148.979999340   665.3918   6   8   0.0268   0.0369   0.0595   0.0027  -0.0131   0.0304   0.00    0.0
2020/03/01 02:49:30.000  -35.399197175  148.979999347   665.3925   6   8   0.0267   0.0368   0.0593   0.0027  -0.0132   0.0303   0.00    0.0
2020/03/01 02:50:00.000  -35.399197171  148.979999355   665.3936   6   8   0.0266   0.0367   0.0591   0.0026  -0.0132   0.0303   0.00    0.0
2020/03/01 02:50:30.000  -35.399197167  148.979999367   665.3951   6   8   0.0265   0.0366   0.0589   0.0026  -0.0132   0.0302   0.00    0.0
2020/03/01 02:51:00.000  -35.399197165  148.979999371   665.3959   6   8   0.0264   0.0364   0.0587   0.0026  -0.0133   0.0301   0.00    0.0
2020/03/01 02:51:30.000  -35.399197163  148.979999385   665.3968   6   8   0.0264   0.0363   0.0585   0.0026  -0.0133   0.0300   0.00    0.0
2020/03/01 02:52:00.000  -35.399197161  148.979999399   665.3971   6   8   0.0263   0.0362   0.0583   0.0026  -0.0134   0.0299   0.00    0.0
2020/03/01 02:52:30.000  -35.399197159  148.979999407   665.3979   6   8   0.0262   0.0361   0.0582   0.0025  -0.0134   0.0298   0.00    0.0
2020/03/01 02:53:00.000  -35.399197156  148.979999422   665.3984   6   8   0.0261   0.0360   0.0580   0.0025  -0.0134   0.0298   0.00    0.0
2020/03/01 02:53:30.000  -35.399197154  148.979999439   665.3995   6   9   0.0260   0.0359   0.0578   0.0025  -0.0135   0.0297   0.00    0.0
2020/03/01 02:54:00.000  -35.399197151  148.979999448   665.3998   6   9   0.0259   0.0358   0.0576   0.0025  -0.0135   0.0296   0.00    0.0
2020/03/01 02:54:30.000  -35.399197149  148.979999459   665.4004   6   9   0.0259   0.0357   0.0574   0.0024  -0.0135   0.0295   0.00    0.0
2020/03/01 02:55:00.000  -35.399197144  148.979999468   665.4013   6   9   0.0258   0.0356   0.0572   0.0024  -0.0136   0.0294   0.00    0.0
2020/03/01 02:55:30.000  -35.399197141  148.979999477   665.4018   6   9   0.0257   0.0355   0.0570   0.0024  -0.0136   0.0293   0.00    0.0
2020/03/01 02:56:00.000  -35.399197139  148.979999483   665.4026   6   9   0.0256   0.0354   0.0568   0.0023  -0.0136   0.0292   0.00    0.0
2020/03/01 02:56:30.000  -35.399197137  148.979999493   665.4035   6   9   0.0255   0.0353   0.0566   0.0023  -0.0137   0.0291   0.00    0.0
2020/03/01 02:57:00.000  -35.399197132  148.979999501   665.4049   6   9   0.0254   0.0352   0.0564   0.0023  -0.0137   0.0291   0.00    0.0
2020/03/01 02:57:30.000  -35.399197128  148.979999513   665.4066   6   8   0.0254   0.0351   0.0563   0.0022  -0.0137   0.0290   0.00    0.0
2020/03/01 02:58:00.000  -35.399197123  148.979999520   665.4079   6   8   0.0253   0.0350   0.0561   0.0020  -0.0138   0.0289   0.00    0.0
2020/03/01 02:58:30.000  -35.399197118  148.979999523   665.4093   6   8   0.0252   0.0349   0.0559   0.0019  -0.0138   0.0288   0.00    0.0
2020/03/01 02:59:00.000  -35.399197113  148.979999533   665.4103   6   8   0.0252   0.0348   0.0557   0.0017  -0.0138   0.0287   0.00    0.0
2020/03/01 02:59:30.000  -35.399197106  148.979999540   665.4117   6   8   0.0251   0.0347   0.0555   0.0015  -0.0139   0.0286   0.00    0.0
2020/03/01 03:00:00.000  -35.399197105  148.979999545   665.4122   6   8   0.0250   0.0346   0.0553   0.0012  -0.0139   0.0285   0.00    0.0
2020/03/01 03:00:30.000  -35.399197105  148.979999552   665.4121   6   8   0.0249   0.0345   0.0551   0.0010  -0.0139   0.0284   0.00    0.0
2020/03/01 03:01:00.000  -35.399197104  148.979999556   665.4123   6   8   0.0249   0.0345   0.0549   0.0006  -0.0139   0.0283   0.00    0.0
2020/03/01 03:01:30.000  -35.399197101  148.979999564   665.4126   6   8   0.0248   0.0344   0.0547  -0.0005  -0.0140   0.0282   0.00    0.0
2020/03/01 03:02:00.000  -35.399197100  148.979999568   665.4132   6   8   0.0247   0.0343   0.0546  -0.0009  -0.0140   0.0282   0.00    0.0
2020/03/01 03:02:30.000  -35.399197100  148.979999573   665.4133   6   8   0.0247   0.0342   0.0544  -0.0011  -0.0140   0.0281   0.00    0.0
2020/03/01 03:03:00.000  -35.399197100  148.979999574   665.4133   6   8   0.0246   0.0341   0.0542  -0.0013  -0.0140   0.0280   0.00    0.0
2020/03/01 03:03:30.000  -35.399197098  148.979999581   665.4136   6   8   0.0245   0.0340   0.0541  -0.0015  -0.0141   0.0279   0.00    0.0
2020/03/01 03:04:00.000  -35.399197098  148.979999586   665.4138   6   8   0.0244   0.0339   0.0539  -0.0017  -0.0141   0.0278   0.00    0.0
2020/03/01 03:04:30.000  -35.399197098  148.979999592   665.4142   6   8   0.0244   0.0338   0.0537  -0.0018  -0.0141   0.0277   0.00    0.0
2020/03/01 03:05:00.000  -35.399197095  148.979999600   665.4149   6   8   0.0243   0.0337   0.0535  -0.0020  -0.0141   0.0276   0.00    0.0
2020/03/01 03:05:30.000  -35.399197090  148.979999607   665.4155   6   8   0.0242   0.0337   0.0533  -0.0021  -0.0142   0.0275   0.00    0.0
2020/03/01 03:06:00.000  -35.399197084  148.979999614   665.4169   6   8   0.0241   0.0336   0.0531  -0.0022  -0.0142   0.0274   0.00    0.0
2020/03/01 03:06:30.000  -35.399197081  148.979999623   665.4178   6   8   0.0241   0.0335   0.0529  -0.0023  -0.0142   0.0273   0.00    0.0
2020/03/01 03:07:00.000  -35.399197079  148.979999632   665.4184   6   8   0.0240   0.0334   0.0527  -0.0024  -0.0142   0.0272   0.00    0.0
2020/03/01 03:07:30.000  -35.399197075  148.979999640   665.4193   6   8   0.0239   0.0333   0.0525  -0.0025  -0.0143   0.0271   0.00    0.0
2020/03/01 03:08:00.000  -35.399197075  148.979999648   665.4195   6   8   0.0239   0.0332   0.0524  -0.0026  -0.0143   0.0271   0.00    0.0
2020/03/01 03:08:30.000  -35.399197073  148.979999659   665.4202   6   8   0.0238   0.0332   0.0522  -0.0027  -0.0143   0.0270   0.00    0.0
2020/03/01 03:09:00.000  -35.399197072  148.979999670   665.4205   6   8   0.0237   0.0331   0.0520  -0.0027  -0.0143   0.0269   0.00    0.0
2020/03/01 03:09:30.000  -35.399197070  148.979999681   665.4210   6   8   0.0237   0.0330   0.0518  -0.0028  -0.0143   0.0268   0.00    0.0
2020/03/01 03:10:00.000  -35.399197067  148.979999691   665.4215   6   8   0.0236   0.0329   0.0516  -0.0029  -0.0144   0.0267   0.00    0.0
2020/03/01 03:10:30.000  -35.399197069  148.979999701   665.4216   6   8   0.0235   0.0328   0.0514  -0.0030  -0.0144   0.0266   0.00    0.0
2020/03/01 03:11:00.000  -35.399197070  148.979999712   665.4220   6   8   0.0234   0.0327   0.0512  -0.0031  -0.0144   0.0265   0.00    0.0
2020/03/01 03:11:30.000  -35.399197071  148.979999716   665.4222   6   7   0.0234   0.0326   0.0511  -0.0031  -0.0144   0.0264   0.00    0.0
2020/03/01 03:12:00.000  -35.399197072  148.979999725   665.4221   6   7   0.0233   0.0326   0.0510  -0.0032  -0.0144   0.0263   0.00    0.0
2020/03/01 03:12:30.000  -35.399197074  148.979999731   665.4218   6   7   0.0233   0.0325   0.0509  -0.0032  -0.0144   0.0262   0.00    0.0
2020/03/01 03:13:00.000  -35.399197075  148.979999739   665.4214   6   7   0.0232   0.0324   0.0508  -0.0033  -0.0144   0.0261   0.00    0.0
2020/03/01 03:13:30.000  -35.399197074  148.979999742   665.4217   6   7   0.0231   0.0323   0.0507  -0.0033  -0.0145   0.0260   0.00    0.0
2020/03/01 03:14:00.000  -35.399197074  148.979999744   665.4215   6   7   0.0230   0.0323   0.0506  -0.0034  -0.0145   0.0259   0.00    0.0
2020/03/01 03:14:30.000  -35.399197075  148.979999749   665.4214   6   7   0.0230   0.0322   0.0505  -0.0034  -0.0145   0.0258   0.00    0.0
2020/03/01 03:15:00.000  -35.399197071  148.979999757   665.4224   6   7   0.0229   0.0321   0.0504  -0.0035  -0.0145   0.0257   0.00    0.0
2020/03/01 03:15:30.000  -35.399197066  148.979999765   665.4233   6   7   0.0228   0.0320   0.0503  -0.0035  -0.0145   0.0256   0.00    0.0
2020/03/01 03:16:00.000  -35.399197064  148.979999774   665.4233   6   7   0.0228   0.0319   0.0502  -0.0036  -0.0145   0.0256   0.00    0.0
2020/03/01 03:16:30.000  -35.399197063  148.979999781   665.4233   6   7   0.0227   0.0319   0.0501  -0.0036  -0.0145   0.0255   0.00    0.0
2020/03/01 03:17:00.000  -35.399197060  148.979999785   665.4236   6   7   0.0226   0.0318   0.0500  -0.0037  -0.0145   0.0254   0.00    0.0
2020/03/01 03:17:30.000  -35.399197059  148.979999791   665.4237   6   7   0.0226   0.0317   0.0499  -0.0037  -0.0145   0.0253   0.00    0.0
2020/03/01 03:18:00.000  -35.399197055  148.979999801   665.4245   6   7   0.0225   0.0317   0.0498  -0.0037  -0.0145   0.0252   0.00    0.0
2020/03/01 03:18:30.000  -35.399197052  148.979999807   665.4251   6   7   0.0224   0.0316   0.0497  -0.0038  -0.0145   0.0251   0.00    0.0
2020/03/01 03:19:00.000  -35.399197049  148.979999817   665.4258   6   7   0.0224   0.0315   0.0496  -0.0038  -0.0145   0.0250   0.00    0.0
2020/03/01 03:19:30.000  -35.399197047  148.979999827   665.4262   6   7   0.0223   0.0314   0.0495  -0.0038  -0.0145   0.0249   0.00    0.0
2020/03/01 03:20:00.000  -35.399197044  148.979999835   665.4268   6   7   0.0222   0.0313   0.0494  -0.0039  -0.0145   0.0248   0.00    0.0
2020/03/01 03:20:30.000  -35.399197042  148.979999844   665.4273   6   7   0.0222   0.0313   0.0493  -0.0039  -0.0145   0.0247   0.00    0.0
2020/03/01 03:21:00.000  -35.399197041  148.979999852   665.4276   6   7   0.0221   0.0312   0.0491  -0.0039  -0.0145   0.0246   0.00    0.0
2020/03/01 03:21:30.000  -35.399197038  148.979999856   665.4278   6   7   0.0220   0.0311   0.0490  -0.0040  -0.0145   0.0245   0.00    0.0
2020/03/01 03:22:00.000  -35.399197035  148.979999860   665.4280   6   7   0.0220   0.0310   0.0489  -0.0040  -0.0145   0.0245   0.00    0.0
2020/03/01 03:22:30.000  -35.399197033  148.979999864   665.4279   6   7   0.0219   0.0310   0.0488  -0.0040  -0.0145   0.0244   0.00    0.0
2020/03/01 03:23:00.000  -35.399197031  148.979999868   665.4280   6   7   0.0218   0.0309   0.0487  -0.0040  -0.0145   0.0243   0.00    0.0
2020/03/01 03:23:30.000  -35.399197028  148.979999875   665.4282   6   7   0.0218   0.0308   0.0486  -0.0040  -0.0145   0.0242   0.00    0.0
2020/03/01 03:24:00.000  -35.399197025  148.979999883   665.4287   6   7   0.0217   0.0308   0.0485  -0.0041  -0.0145   0.0241   0.00    0.0
2020/03/01 03:24:30.000  -35.399197022  148.979999891   665.4295   6   7   0.0216   0.0307   0.0484  -0.0041  -0.0145   0.0240   0.00    0.0
2020/03/01 03:25:00.000  -35.399197019  148.979999898   665.4299   6   7   0.0216   0.0306   0.0483  -0.0041  -0.0145   0.0239   0.00    0.0
2020/03/01 03:25:30.000  -35.399197015  148.979999907   665.4305   6   7   0.0215   0.0305   0.0482  -0.0041  -0.0145   0.0238   0.00    0.0
2020/03/01 03:26:00.000  -35.399197011  148.979999913   665.4312   6   7   0.0214   0.0305   0.0481  -0.0042  -0.0145   0.0237   0.00    0.0
2020/03/01 03:26:30.000  -35.399197006  148.979999916   665.4319   6   7   0.0214   0.0304   0.0480  -0.0042  -0.0145   0.0236   0.00    0.0
2020/03/01 03:27:00.000  -35.399197003  148.979999920   665.4325   6   7   0.0213   0.0303   0.0478  -0.0042  -0.0145   0.0235   0.00    0.0
2020/03/01 03:27:30.000  -35.399196998  148.979999922   665.4332   6   7   0.0212   0.0303   0.0478  -0.0042  -0.0145   0.0235   0.00    0.0
2020/03/01 03:28:00.000  -35.399196995  148.979999926   665.4339   6   7   0.0212   0.0302   0.0477  -0.0042  -0.0145   0.0234   0.00    0.0
2020/03/01 03:28:30.000  -35.399196993  148.979999930   665.4343   6   7   0.0211   0.0302   0.0475  -0.0042  -0.0145   0.0233   0.00    0.0
2020/03/01 03:29:00.000  -35.399196990  148.979999933   665.4347   6   7   0.0211   0.0301   0.0474  -0.0042  -0.0145   0.0232   0.00    0.0
