% program   : RTKPOST ver.2.4.3 b33
% inp file  : D:\GNSS-DATA\2\tid10610.20o
% inp file  : D:\GNSS-DATA\2\brdc0610.20n
% inp file  : D:\GNSS-DATA\2\igs20950.sp3
% inp file  : D:\GNSS-DATA\2\igs20950.clk
% obs start : 2020/03/01 00:00:00.0 GPST (week2095      0.0s)
% obs end   : 2020/03/01 23:59:30.0 GPST (week2095  86370.0s)
% pos mode  : ppp-static
% solution  : forward
% elev mask : 15.0 deg
% dynamics  : off
% tidecorr  : off
% tropo opt : saastamoinen
% ephemeris : precise
% antenna1  :                       ( 0.0000  0.0000  0.0000)
%
% (lat/lon/height=WGS84/ellipsoidal,Q=1:fix,2:float,3:sbas,4:dgps,5:single,6:ppp,ns=# of satellites)
%  GPST                  latitude(deg) longitude(deg)  height(m)   Q  ns   sdn(m)   sde(m)   sdu(m)  sdne(m)  sdeu(m)  sdun(m) age(s)  ratio
2020/03/01 00:00:00.000  -35.399200304  148.979994415   664.6355   6   8   1.5513   1.6305   3.7712   0.4473  -0.6537   1.5238   0.00    0.0
2020/03/01 00:00:30.000  -35.399199021  148.979995801   664.2906   6   8   1.0998   1.1560   2.6708   0.3197  -0.4593   1.0802   0.00    0.0
2020/03/01 00:01:00.000  -35.399195556  148.979994431   664.8828   6   8   0.8979   0.9446   2.1744   0.2609  -0.3724   0.8805   0.00    0.0
2020/03/01 00:01:30.000  -35.399197157  148.979997205   664.5618   6   8   0.7772   0.8186   1.8744   0.2249  -0.3201   0.7602   0.00    0.0
2020/03/01 00:02:00.000  -35.399196306  148.979997256   664.5236   6   8   0.6947   0.7328   1.6675   0.1998  -0.2842   0.6776   0.00    0.0
2020/03/01 00:02:30.000  -35.399197597  148.979996730   664.2036   6   8   0.6339   0.6698   1.5136   0.1809  -0.2578   0.6163   0.00    0.0
2020/03/01 00:03:00.000  -35.399197907  148.979997103   664.1230   6   8   0.5851   0.6196   1.3880   0.1665  -0.2357   0.5667   0.00    0.0
2020/03/01 00:03:30.000  -35.399198167  148.979996962   663.9628   6   8   0.5450   0.5785   1.2832   0.1551  -0.2173   0.5255   0.00    0.0
2020/03/01 00:04:00.000  -35.399198131  148.979996608   663.8873   6   8   0.5111   0.5440   1.1943   0.1458  -0.2017   0.4906   0.00    0.0
2020/03/01 00:04:30.000  -35.399198709  148.979996074   663.8024   6   8   0.4822   0.5147   1.1180   0.1378  -0.1885   0.4606   0.00    0.0
2020/03/01 00:05:00.000  -35.399197977  148.979996348   663.9087   6   8   0.4572   0.4894   1.0520   0.1309  -0.1772   0.4346   0.00    0.0
2020/03/01 00:05:30.000  -35.399197982  148.979996812   663.8044   6   8   0.4354   0.4674   0.9945   0.1249  -0.1676   0.4117   0.00    0.0
2020/03/01 00:06:00.000  -35.399197883  148.979996086   663.8882   6   8   0.4163   0.4480   0.9441   0.1194  -0.1593   0.3916   0.00    0.0
2020/03/01 00:06:30.000  -35.399197772  148.979996243   663.8559   6   8   0.3993   0.4309   0.8997   0.1145  -0.1521   0.3738   0.00    0.0
2020/03/01 00:07:00.000  -35.399197406  148.979996164   663.9731   6   8   0.3842   0.4156   0.8603   0.1099  -0.1458   0.3578   0.00    0.0
2020/03/01 00:07:30.000  -35.399196934  148.979996299   664.0202   6   8   0.3706   0.4020   0.8251   0.1057  -0.1403   0.3435   0.00    0.0
2020/03/01 00:08:00.000  -35.399196770  148.979996512   664.0888   6   8   0.3579   0.3893   0.7913   0.1020  -0.1349   0.3299   0.00    0.0
2020/03/01 00:08:30.000  -35.399196477  148.979996502   664.1605   6   8   0.3459   0.3774   0.7591   0.0986  -0.1299   0.3169   0.00    0.0
2020/03/01 00:09:00.000  -35.399196391  148.979996182   664.1931   6   8   0.3346   0.3664   0.7288   0.0954  -0.1253   0.3047   0.00    0.0
2020/03/01 00:09:30.000  -35.399196362  148.979996444   664.1628   6   8   0.3241   0.3561   0.7006   0.0925  -0.1211   0.2932   0.00    0.0
2020/03/01 00:10:00.000  -35.399196425  148.979996604   664.1483   6   8   0.3143   0.3466   0.6743   0.0897  -0.1172   0.2825   0.00    0.0
2020/03/01 00:10:30.000  -35.399196464  148.979996661   664.1107   6   8   0.3052   0.3377   0.6501   0.0872  -0.1136   0.2726   0.00    0.0
2020/03/01 00:11:00.000  -35.399196802  148.979996728   664.1234   6   8   0.2968   0.3294   0.6278   0.0847  -0.1103   0.2634   0.00    0.0
2020/03/01 00:11:30.000  -35.399197243  148.979996568   664.1223   6   8   0.2890   0.3217   0.6073   0.0823  -0.1073   0.2550   0.00    0.0
2020/03/01 00:12:00.000  -35.399197160  148.979996699   664.0887   6   8   0.2818   0.3146   0.5885   0.0801  -0.1046   0.2472   0.00    0.0
2020/03/01 00:12:30.000  -35.399197184  148.979996899   664.1276   6   8   0.2752   0.3080   0.5711   0.0779  -0.1020   0.2401   0.00    0.0
2020/03/01 00:13:00.000  -35.399197248  148.979997094   664.1255   6   8   0.2687   0.3016   0.5539   0.0759  -0.0994   0.2330   0.00    0.0
2020/03/01 00:13:30.000  -35.399197127  148.979997467   664.1281   6   8   0.2623   0.2954   0.5369   0.0739  -0.0969   0.2260   0.00    0.0
2020/03/01 00:14:00.000  -35.399197203  148.979997262   664.1180   6   8   0.2562   0.2894   0.5205   0.0720  -0.0945   0.2193   0.00    0.0
2020/03/01 00:14:30.000  -35.399197178  148.979997245   664.1466   6   8   0.2503   0.2837   0.5047   0.0702  -0.0922   0.2129   0.00    0.0
2020/03/01 00:15:00.000  -35.399197190  148.979997138   664.1462   6   8   0.2447   0.2783   0.4898   0.0685  -0.0900   0.2068   0.00    0.0
2020/03/01 00:15:30.000  -35.399197120  148.979997239   664.1750   6   8   0.2394   0.2731   0.4757   0.0668  -0.0880   0.2011   0.00    0.0
2020/03/01 00:16:00.000  -35.399196841  148.979997163   664.2170   6   7   0.2346   0.2683   0.4642   0.0656  -0.0863   0.1957   0.00    0.0
2020/03/01 00:16:30.000  -35.399196749  148.979997127   664.2402   6   7   0.2301   0.2638   0.4533   0.0645  -0.0847   0.1907   0.00    0.0
2020/03/01 00:17:00.000  -35.399196639  148.979997063   664.2431   6   7   0.2259   0.2595   0.4431   0.0634  -0.0831   0.1860   0.00    0.0
2020/03/01 00:17:30.000  -35.399196557  148.979996982   664.2579   6   7   0.2219   0.2554   0.4335   0.0622  -0.0815   0.1817   0.00    0.0
2020/03/01 00:18:00.000  -35.399196478  148.979996803   664.2804   6   7   0.2180   0.2514   0.4238   0.0611  -0.0799   0.1774   0.00    0.0
2020/03/01 00:18:30.000  -35.399196570  148.979996659   664.2532   6   7   0.2140   0.2475   0.4140   0.0599  -0.0783   0.1731   0.00    0.0
2020/03/01 00:19:00.000  -35.399196533  148.979996598   664.2396   6   7   0.2102   0.2436   0.4043   0.0588  -0.0767   0.1689   0.00    0.0
2020/03/01 00:19:30.000  -35.399196570  148.979996743   664.2362   6   7   0.2064   0.2399   0.3948   0.0576  -0.0751   0.1649   0.00    0.0
2020/03/01 00:20:00.000  -35.399196437  148.979996617   664.2691   6   8   0.2027   0.2357   0.3853   0.0566  -0.0718   0.1610   0.00    0.0
2020/03/01 00:20:30.000  -35.399196433  148.979996899   664.2590   6   8   0.1992   0.2318   0.3763   0.0555  -0.0688   0.1574   0.00    0.0
2020/03/01 00:21:00.000  -35.399196432  148.979997004   664.2729   6   8   0.1959   0.2280   0.3678   0.0545  -0.0660   0.1539   0.00    0.0
2020/03/01 00:21:30.000  -35.399196559  148.979997063   664.2740   6   8   0.1927   0.2244   0.3597   0.0534  -0.0633   0.1507   0.00    0.0
2020/03/01 00:22:00.000  -35.399196583  148.979997250   664.2794   6   8   0.1897   0.2210   0.3522   0.0524  -0.0608   0.1476   0.00    0.0
2020/03/01 00:22:30.000  -35.399196681  148.979997031   664.2989   6   8   0.1869   0.2177   0.3452   0.0514  -0.0584   0.1448   0.00    0.0
2020/03/01 00:23:00.000  -35.399196634  148.979996940   664.3201   6   8   0.1841   0.2145   0.3380   0.0504  -0.0561   0.1419   0.00    0.0
2020/03/01 00:23:30.000  -35.399196622  148.979997045   664.3223   6   8   0.1813   0.2114   0.3308   0.0493  -0.0538   0.1391   0.00    0.0
2020/03/01 00:24:00.000  -35.399196585  148.979996902   664.3566   6   8   0.1784   0.2083   0.3237   0.0483  -0.0517   0.1364   0.00    0.0
2020/03/01 00:24:30.000  -35.399196630  148.979996997   664.3531   6   8   0.1756   0.2053   0.3168   0.0472  -0.0496   0.1337   0.00    0.0
2020/03/01 00:25:00.000  -35.399196631  148.979996925   664.3698   6   8   0.1729   0.2024   0.3101   0.0461  -0.0476   0.1311   0.00    0.0
2020/03/01 00:25:30.000  -35.399196681  148.979996909   664.3789   6   8   0.1703   0.1996   0.3036   0.0451  -0.0458   0.1286   0.00    0.0
2020/03/01 00:26:00.000  -35.399196608  148.979996916   664.4010   6   8   0.1679   0.1969   0.2975   0.0441  -0.0440   0.1263   0.00    0.0
2020/03/01 00:26:30.000  -35.399196515  148.979997191   664.4256   6   8   0.1655   0.1943   0.2918   0.0431  -0.0423   0.1241   0.00    0.0
2020/03/01 00:27:00.000  -35.399196586  148.979996917   664.4490   6   8   0.1633   0.1918   0.2863   0.0421  -0.0407   0.1220   0.00    0.0
2020/03/01 00:27:30.000  -35.399196542  148.979996923   664.4788   6   8   0.1611   0.1895   0.2812   0.0412  -0.0392   0.1200   0.00    0.0
2020/03/01 00:28:00.000  -35.399196558  148.979996938   664.5083   6   8   0.1590   0.1871   0.2760   0.0403  -0.0377   0.1181   0.00    0.0
2020/03/01 00:28:30.000  -35.399196544  148.979996786   664.5327   6   8   0.1568   0.1848   0.2708   0.0393  -0.0362   0.1161   0.00    0.0
2020/03/01 00:29:00.000  -35.399196542  148.979997071   664.5414   6   8   0.1546   0.1825   0.2657   0.0383  -0.0348   0.1142   0.00    0.0
2020/03/01 00:29:30.000  -35.399196560  148.979997038   664.5659   6   8   0.1525   0.1803   0.2606   0.0374  -0.0334   0.1123   0.00    0.0
2020/03/01 00:30:00.000  -35.399196519  148.979997111   664.5930   6   8   0.1504   0.1781   0.2557   0.0364  -0.0321   0.1105   0.00    0.0
2020/03/01 00:30:30.000  -35.399196521  148.979997002   664.6180   6   8   0.1484   0.1760   0.2510   0.0355  -0.0308   0.1087   0.00    0.0
2020/03/01 00:31:00.000  -35.399196460  148.979996937   664.6410   6   8   0.1464   0.1739   0.2465   0.0346  -0.0296   0.1071   0.00    0.0
2020/03/01 00:31:30.000  -35.399196396  148.979996984   664.6603   6   8   0.1446   0.1720   0.2422   0.0337  -0.0284   0.1055   0.00    0.0
2020/03/01 00:32:00.000  -35.399196431  148.979996961   664.6711   6   8   0.1428   0.1701   0.2382   0.0329  -0.0273   0.1040   0.00    0.0
2020/03/01 00:32:30.000  -35.399196410  148.979997071   664.6871   6   8   0.1412   0.1683   0.2344   0.0321  -0.0262   0.1025   0.00    0.0
2020/03/01 00:33:00.000  -35.399196398  148.979996969   664.7033   6   8   0.1395   0.1665   0.2305   0.0313  -0.0250   0.1011   0.00    0.0
2020/03/01 00:33:30.000  -35.399196342  148.979996971   664.7093   6   8   0.1377   0.1647   0.2266   0.0304  -0.0240   0.0997   0.00    0.0
2020/03/01 00:34:00.000  -35.399196284  148.979996987   664.7197   6   8   0.1360   0.1629   0.2228   0.0296  -0.0229   0.0983   0.00    0.0
2020/03/01 00:34:30.000  -35.399196228  148.979996963   664.7428   6   8   0.1343   0.1611   0.2190   0.0287  -0.0218   0.0969   0.00    0.0
2020/03/01 00:35:00.000  -35.399196257  148.979997114   664.7392   6   8   0.1326   0.1594   0.2153   0.0279  -0.0208   0.0955   0.00    0.0
2020/03/01 00:35:30.000  -35.399196255  148.979997084   664.7435   6   8   0.1310   0.1577   0.2118   0.0271  -0.0198   0.0942   0.00    0.0
2020/03/01 00:36:00.000  -35.399196232  148.979997054   664.7580   6   8   0.1294   0.1561   0.2084   0.0263  -0.0189   0.0930   0.00    0.0
2020/03/01 00:36:30.000  -35.399196221  148.979996987   664.7673   6   8   0.1279   0.1545   0.2051   0.0255  -0.0179   0.0918   0.00    0.0
2020/03/01 00:37:00.000  -35.399196252  148.979997116   664.7766   6   8   0.1265   0.1530   0.2021   0.0248  -0.0170   0.0907   0.00    0.0
2020/03/01 00:37:30.000  -35.399196199  148.979997051   664.7989   6   8   0.1252   0.1516   0.1992   0.0241  -0.0160   0.0896   0.00    0.0
2020/03/01 00:38:00.000  -35.399196203  148.979997106   664.8086   6   8   0.1238   0.1501   0.1962   0.0234  -0.0150   0.0885   0.00    0.0
2020/03/01 00:38:30.000  -35.399196165  148.979997080   664.8246   6   8   0.1224   0.1486   0.1933   0.0227  -0.0141   0.0874   0.00    0.0
2020/03/01 00:39:00.000  -35.399196090  148.979997143   664.8378   6   8   0.1209   0.1472   0.1903   0.0219  -0.0131   0.0863   0.00    0.0
2020/03/01 00:39:30.000  -35.399196072  148.979997081   664.8518   6   8   0.1195   0.1458   0.1874   0.0212  -0.0120   0.0853   0.00    0.0
2020/03/01 00:40:00.000  -35.399196092  148.979997139   664.8633   6   8   0.1182   0.1444   0.1846   0.0205  -0.0110   0.0843   0.00    0.0
2020/03/01 00:40:30.000  -35.399196076  148.979997063   664.8755   6   8   0.1168   0.1430   0.1819   0.0197  -0.0100   0.0833   0.00    0.0
2020/03/01 00:41:00.000  -35.399196082  148.979997089   664.8784   6   8   0.1155   0.1417   0.1793   0.0190  -0.0089   0.0823   0.00    0.0
2020/03/01 00:41:30.000  -35.399196095  148.979996970   664.8851   6   8   0.1143   0.1404   0.1768   0.0183  -0.0077   0.0814   0.00    0.0
2020/03/01 00:42:00.000  -35.399196125  148.979996913   664.8846   6   8   0.1131   0.1391   0.1744   0.0177  -0.0064   0.0805   0.00    0.0
2020/03/01 00:42:30.000  -35.399196167  148.979996879   664.8851   6   8   0.1120   0.1379   0.1722   0.0171  -0.0048   0.0797   0.00    0.0
2020/03/01 00:43:00.000  -35.399196133  148.979996862   664.8969   6   8   0.1108   0.1367   0.1699   0.0165  -0.0025   0.0788   0.00    0.0
2020/03/01 00:43:30.000  -35.399196097  148.979996874   664.9062   6   8   0.1097   0.1355   0.1676   0.0158   0.0032   0.0780   0.00    0.0
2020/03/01 00:44:00.000  -35.399196091  148.979996927   664.9182   6   8   0.1085   0.1343   0.1653   0.0152   0.0051   0.0771   0.00    0.0
2020/03/01 00:44:30.000  -35.399196088  148.979996960   664.9311   6   8   0.1073   0.1331   0.1631   0.0145   0.0063   0.0763   0.00    0.0
2020/03/01 00:45:00.000  -35.399196064  148.979997001   664.9425   6   8   0.1061   0.1319   0.1609   0.0138   0.0073   0.0755   0.00    0.0
2020/03/01 00:45:30.000  -35.399196072  148.979997018   664.9522   6   8   0.1050   0.1308   0.1588   0.0131   0.0082   0.0747   0.00    0.0
2020/03/01 00:46:00.000  -35.399196062  148.979997041   664.9672   6   8   0.1039   0.1297   0.1567   0.0124   0.0089   0.0740   0.00    0.0
2020/03/01 00:46:30.000  -35.399196062  148.979997108   664.9674   6   8   0.1029   0.1286   0.1548   0.0118   0.0095   0.0732   0.00    0.0
2020/03/01 00:47:00.000  -35.399196072  148.979997070   664.9779   6   8   0.1019   0.1276   0.1529   0.0112   0.0100   0.0725   0.00    0.0
2020/03/01 00:47:30.000  -35.399196088  148.979997070   664.9892   6   8   0.1009   0.1266   0.1511   0.0106   0.0105   0.0719   0.00    0.0
2020/03/01 00:48:00.000  -35.399196114  148.979997076   664.9960   6   8   0.0999   0.1255   0.1494   0.0100   0.0110   0.0712   0.00    0.0
2020/03/01 00:48:30.000  -35.399196124  148.979997126   665.0051   6   8   0.0990   0.1245   0.1476   0.0094   0.0114   0.0705   0.00    0.0
2020/03/01 00:49:00.000  -35.399196116  148.979997145   665.0136   6   8   0.0980   0.1235   0.1458   0.0087   0.0118   0.0698   0.00    0.0
2020/03/01 00:49:30.000  -35.399196083  148.979997200   665.0299   6   8   0.0970   0.1225   0.1440   0.0080   0.0122   0.0692   0.00    0.0
2020/03/01 00:50:00.000  -35.399196126  148.979997208   665.0352   6   8   0.0960   0.1215   0.1423   0.0072   0.0125   0.0685   0.00    0.0
2020/03/01 00:50:30.000  -35.399196146  148.979997191   665.0451   6   8   0.0950   0.1205   0.1406   0.0064   0.0128   0.0679   0.00    0.0
2020/03/01 00:51:00.000  -35.399196110  148.979997241   665.0525   6   8   0.0941   0.1195   0.1390   0.0056   0.0131   0.0673   0.00    0.0
2020/03/01 00:51:30.000  -35.399196131  148.979997246   665.0555   6   8   0.0932   0.1186   0.1374   0.0047   0.0134   0.0667   0.00    0.0
2020/03/01 00:52:00.000  -35.399196144  148.979997301   665.0651   6   8   0.0923   0.1177   0.1359   0.0038   0.0136   0.0661   0.00    0.0
2020/03/01 00:52:30.000  -35.399196157  148.979997366   665.0693   6   8   0.0915   0.1168   0.1345   0.0028   0.0139   0.0656   0.00    0.0
2020/03/01 00:53:00.000  -35.399196184  148.979997493   665.0673   6   8   0.0907   0.1160   0.1331   0.0010   0.0141   0.0650   0.00    0.0
2020/03/01 00:53:30.000  -35.399196174  148.979997503   665.0726   6   8   0.0898   0.1151   0.1317  -0.0024   0.0143   0.0645   0.00    0.0
2020/03/01 00:54:00.000  -35.399196177  148.979997529   665.0828   6   8   0.0890   0.1142   0.1303  -0.0036   0.0145   0.0640   0.00    0.0
2020/03/01 00:54:30.000  -35.399196195  148.979997504   665.0896   6   8   0.0881   0.1133   0.1289  -0.0044   0.0147   0.0634   0.00    0.0
2020/03/01 00:55:00.000  -35.399196201  148.979997523   665.0922   6   8   0.0873   0.1124   0.1275  -0.0051   0.0148   0.0629   0.00    0.0
2020/03/01 00:55:30.000  -35.399196227  148.979997536   665.0850   6   8   0.0864   0.1116   0.1261  -0.0056   0.0150   0.0624   0.00    0.0
2020/03/01 00:56:00.000  -35.399196236  148.979997543   665.0877   6   8   0.0856   0.1108   0.1248  -0.0061   0.0151   0.0619   0.00    0.0
2020/03/01 00:56:30.000  -35.399196251  148.979997615   665.0858   6   8   0.0849   0.1099   0.1236  -0.0064   0.0153   0.0614   0.00    0.0
2020/03/01 00:57:00.000  -35.399196251  148.979997657   665.0929   6   8   0.0841   0.1092   0.1224  -0.0067   0.0154   0.0609   0.00    0.0
2020/03/01 00:57:30.000  -35.399196249  148.979997695   665.0887   6   8   0.0834   0.1084   0.1213  -0.0069   0.0155   0.0605   0.00    0.0
2020/03/01 00:58:00.000  -35.399196251  148.979997726   665.0917   6   8   0.0827   0.1077   0.1201  -0.0072   0.0157   0.0600   0.00    0.0
2020/03/01 00:58:30.000  -35.399196260  148.979997761   665.0919   6   8   0.0820   0.1069   0.1190  -0.0074   0.0158   0.0596   0.00    0.0
2020/03/01 00:59:00.000  -35.399196245  148.979997846   665.0965   6   8   0.0812   0.1061   0.1178  -0.0076   0.0159   0.0591   0.00    0.0
2020/03/01 00:59:30.000  -35.399196240  148.979997804   665.1027   6   8   0.0805   0.1053   0.1167  -0.0078   0.0160   0.0587   0.00    0.0
2020/03/01 01:00:00.000  -35.399196254  148.979997833   665.1017   6   8   0.0798   0.1046   0.1156  -0.0080   0.0161   0.0583   0.00    0.0
2020/03/01 01:00:30.000  -35.399196236  148.979997834   665.0984   6   8   0.0790   0.1038   0.1145  -0.0082   0.0162   0.0578   0.00    0.0
2020/03/01 01:01:00.000  -35.399196215  148.979997812   665.0973   6   8   0.0783   0.1031   0.1135  -0.0083   0.0163   0.0574   0.00    0.0
2020/03/01 01:01:30.000  -35.399196177  148.979997778   665.0962   6   8   0.0777   0.1024   0.1125  -0.0084   0.0163   0.0570   0.00    0.0
2020/03/01 01:02:00.000  -35.399196182  148.979997766   665.0947   6   8   0.0770   0.1017   0.1115  -0.0085   0.0164   0.0566   0.00    0.0
2020/03/01 01:02:30.000  -35.399196199  148.979997764   665.0971   6   8   0.0764   0.1010   0.1106  -0.0085   0.0165   0.0563   0.00    0.0
2020/03/01 01:03:00.000  -35.399196190  148.979997799   665.1017   6   8   0.0758   0.1003   0.1097  -0.0086   0.0165   0.0559   0.00    0.0
2020/03/01 01:03:30.000  -35.399196163  148.979997743   665.1053   6   8   0.0752   0.0997   0.1087  -0.0086   0.0166   0.0555   0.00    0.0
2020/03/01 01:04:00.000  -35.399196178  148.979997745   665.1082   6   8   0.0745   0.0990   0.1078  -0.0087   0.0167   0.0551   0.00    0.0
2020/03/01 01:04:30.000  -35.399196186  148.979997689   665.1101   6   8   0.0739   0.0983   0.1069  -0.0087   0.0167   0.0548   0.00    0.0
2020/03/01 01:05:00.000  -35.399196166  148.979997631   665.1185   6   9   0.0732   0.0976   0.1060  -0.0089   0.0167   0.0544   0.00    0.0
2020/03/01 01:05:30.000  -35.399196132  148.979997619   665.1262   6   9   0.0726   0.0969   0.1051  -0.0091   0.0166   0.0540   0.00    0.0
2020/03/01 01:06:00.000  -35.399196148  148.979997650   665.1304   6   9   0.0719   0.0962   0.1042  -0.0092   0.0166   0.0537   0.00    0.0
2020/03/01 01:06:30.000  -35.399196168  148.979997683   665.1330   6   9   0.0713   0.0956   0.1034  -0.0093   0.0165   0.0533   0.00    0.0
2020/03/01 01:07:00.000  -35.399196188  148.979997703   665.1409   6   9   0.0708   0.0950   0.1026  -0.0095   0.0165   0.0530   0.00    0.0
2020/03/01 01:07:30.000  -35.399196214  148.979997702   665.1473   6  10   0.0702   0.0943   0.1019  -0.0095   0.0164   0.0526   0.00    0.0
2020/03/01 01:08:00.000  -35.399196234  148.979997723   665.1493   6  10   0.0697   0.0937   0.1011  -0.0095   0.0163   0.0523   0.00    0.0
2020/03/01 01:08:30.000  -35.399196248  148.979997689   665.1513   6   9   0.0691   0.0931   0.1006  -0.0095   0.0164   0.0522   0.00    0.0
2020/03/01 01:09:00.000  -35.399196266  148.979997742   665.1541   6   9   0.0686   0.0925   0.1002  -0.0095   0.0164   0.0521   0.00    0.0
2020/03/01 01:09:30.000  -35.399196300  148.979997763   665.1582   6   9   0.0681   0.0918   0.0997  -0.0095   0.0165   0.0520   0.00    0.0
2020/03/01 01:10:00.000  -35.399196295  148.979997778   665.1622   6   9   0.0676   0.0912   0.0992  -0.0095   0.0165   0.0519   0.00    0.0
2020/03/01 01:10:30.000  -35.399196291  148.979997793   665.1639   6   9   0.0671   0.0906   0.0988  -0.0095   0.0166   0.0518   0.00    0.0
2020/03/01 01:11:00.000  -35.399196294  148.979997825   665.1669   6   9   0.0666   0.0900   0.0983  -0.0094   0.0166   0.0517   0.00    0.0
2020/03/01 01:11:30.000  -35.399196304  148.979997816   665.1667   6   9   0.0662   0.0894   0.0979  -0.0094   0.0166   0.0516   0.00    0.0
2020/03/01 01:12:00.000  -35.399196305  148.979997794   665.1680   6   9   0.0657   0.0888   0.0975  -0.0093   0.0166   0.0514   0.00    0.0
2020/03/01 01:12:30.000  -35.399196328  148.979997803   665.1694   6   9   0.0653   0.0883   0.0971  -0.0093   0.0167   0.0513   0.00    0.0
2020/03/01 01:13:00.000  -35.399196340  148.979997809   665.1711   6   9   0.0648   0.0877   0.0967  -0.0092   0.0167   0.0512   0.00    0.0
2020/03/01 01:13:30.000  -35.399196348  148.979997788   665.1701   6   9   0.0644   0.0872   0.0963  -0.0091   0.0167   0.0511   0.00    0.0
2020/03/01 01:14:00.000  -35.399196368  148.979997810   665.1704   6   9   0.0639   0.0866   0.0959  -0.0090   0.0167   0.0510   0.00    0.0
2020/03/01 01:14:30.000  -35.399196374  148.979997796   665.1709   6   9   0.0635   0.0860   0.0954  -0.0090   0.0167   0.0508   0.00    0.0
2020/03/01 01:15:00.000  -35.399196364  148.979997796   665.1716   6   8   0.0630   0.0855   0.0953  -0.0089   0.0169   0.0507   0.00    0.0
2020/03/01 01:15:30.000  -35.399196360  148.979997826   665.1712   6   8   0.0626   0.0849   0.0951  -0.0088   0.0170   0.0506   0.00    0.0
2020/03/01 01:16:00.000  -35.399196375  148.979997901   665.1715   6   8   0.0621   0.0843   0.0950  -0.0087   0.0172   0.0505   0.00    0.0
2020/03/01 01:16:30.000  -35.399196375  148.979997916   665.1735   6   8   0.0617   0.0838   0.0949  -0.0085   0.0173   0.0505   0.00    0.0
2020/03/01 01:17:00.000  -35.399196389  148.979997959   665.1736   6   8   0.0613   0.0833   0.0947  -0.0084   0.0174   0.0504   0.00    0.0
2020/03/01 01:17:30.000  -35.399196412  148.979997988   665.1732   6   8   0.0609   0.0828   0.0946  -0.0083   0.0175   0.0503   0.00    0.0
2020/03/01 01:18:00.000  -35.399196415  148.979998010   665.1728   6   8   0.0605   0.0823   0.0944  -0.0082   0.0176   0.0502   0.00    0.0
2020/03/01 01:18:30.000  -35.399196401  148.979998047   665.1709   6   8   0.0601   0.0818   0.0943  -0.0081   0.0177   0.0501   0.00    0.0
2020/03/01 01:19:00.000  -35.399196390  148.979998070   665.1702   6   8   0.0597   0.0813   0.0942  -0.0079   0.0178   0.0500   0.00    0.0
2020/03/01 01:19:30.000  -35.399196377  148.979998079   665.1723   6   8   0.0593   0.0807   0.0940  -0.0078   0.0179   0.0499   0.00    0.0
2020/03/01 01:20:00.000  -35.399196385  148.979998069   665.1725   6   8   0.0589   0.0802   0.0939  -0.0076   0.0180   0.0498   0.00    0.0
2020/03/01 01:20:30.000  -35.399196412  148.979998051   665.1695   6   8   0.0585   0.0797   0.0937  -0.0075   0.0180   0.0497   0.00    0.0
2020/03/01 01:21:00.000  -35.399196426  148.979998038   665.1682   6   8   0.0581   0.0792   0.0936  -0.0073   0.0181   0.0496   0.00    0.0
2020/03/01 01:21:30.000  -35.399196416  148.979998031   665.1680   6   8   0.0577   0.0787   0.0934  -0.0071   0.0182   0.0496   0.00    0.0
2020/03/01 01:22:00.000  -35.399196398  148.979998040   665.1686   6   8   0.0574   0.0782   0.0933  -0.0070   0.0182   0.0495   0.00    0.0
2020/03/01 01:22:30.000  -35.399196396  148.979998050   665.1697   6   8   0.0570   0.0778   0.0931  -0.0068   0.0183   0.0494   0.00    0.0
2020/03/01 01:23:00.000  -35.399196370  148.979998034   665.1724   6   8   0.0567   0.0773   0.0930  -0.0066   0.0183   0.0493   0.00    0.0
2020/03/01 01:23:30.000  -35.399196343  148.979998018   665.1734   6   8   0.0563   0.0769   0.0928  -0.0065   0.0183   0.0492   0.00    0.0
2020/03/01 01:24:00.000  -35.399196342  148.979998036   665.1713   6   8   0.0559   0.0764   0.0927  -0.0063   0.0184   0.0491   0.00    0.0
2020/03/01 01:24:30.000  -35.399196357  148.979998036   665.1687   6   8   0.0555   0.0759   0.0925  -0.0061   0.0184   0.0491   0.00    0.0
2020/03/01 01:25:00.000  -35.399196362  148.979998044   665.1677   6   8   0.0552   0.0754   0.0923  -0.0059   0.0184   0.0490   0.00    0.0
2020/03/01 01:25:30.000  -35.399196364  148.979998046   665.1684   6   8   0.0548   0.0749   0.0922  -0.0057   0.0185   0.0489   0.00    0.0
2020/03/01 01:26:00.000  -35.399196358  148.979998051   665.1706   6   8   0.0545   0.0745   0.0920  -0.0055   0.0185   0.0488   0.00    0.0
2020/03/01 01:26:30.000  -35.399196343  148.979998041   665.1721   6   8   0.0541   0.0740   0.0919  -0.0053   0.0185   0.0487   0.00    0.0
2020/03/01 01:27:00.000  -35.399196329  148.979998068   665.1757   6   8   0.0538   0.0736   0.0917  -0.0051   0.0185   0.0486   0.00    0.0
2020/03/01 01:27:30.000  -35.399196336  148.979998114   665.1770   6   8   0.0535   0.0732   0.0916  -0.0048   0.0185   0.0486   0.00    0.0
2020/03/01 01:28:00.000  -35.399196356  148.979998159   665.1773   6   8   0.0532   0.0727   0.0914  -0.0046   0.0185   0.0485   0.00    0.0
2020/03/01 01:28:30.000  -35.399196370  148.979998172   665.1769   6   8   0.0529   0.0723   0.0912  -0.0044   0.0184   0.0484   0.00    0.0
2020/03/01 01:29:00.000  -35.399196382  148.979998172   665.1783   6   8   0.0525   0.0719   0.0911  -0.0041   0.0184   0.0483   0.00    0.0
2020/03/01 01:29:30.000  -35.399196402  148.979998171   665.1782   6   8   0.0522   0.0714   0.0909  -0.0039   0.0184   0.0482   0.00    0.0
2020/03/01 01:30:00.000  -35.399196419  148.979998118   665.1773   6   8   0.0519   0.0710   0.0907  -0.0036   0.0184   0.0481   0.00    0.0
2020/03/01 01:30:30.000  -35.399196425  148.979998076   665.1776   6   8   0.0515   0.0705   0.0905  -0.0033   0.0184   0.0480   0.00    0.0
2020/03/01 01:31:00.000  -35.399196426  148.979998021   665.1785   6   8   0.0512   0.0701   0.0904  -0.0030   0.0183   0.0480   0.00    0.0
2020/03/01 01:31:30.000  -35.399196423  148.979997990   665.1789   6   8   0.0509   0.0697   0.0902  -0.0027   0.0183   0.0479   0.00    0.0
2020/03/01 01:32:00.000  -35.399196427  148.979997982   665.1802   6   8   0.0506   0.0693   0.0900  -0.0023   0.0183   0.0478   0.00    0.0
2020/03/01 01:32:30.000  -35.399196436  148.979997972   665.1808   6   8   0.0504   0.0689   0.0899  -0.0020   0.0182   0.0477   0.00    0.0
2020/03/01 01:33:00.000  -35.399196437  148.979998008   665.1837   6   8   0.0501   0.0685   0.0897  -0.0015   0.0182   0.0476   0.00    0.0
2020/03/01 01:33:30.000  -35.399196437  148.979998058   665.1849   6   8   0.0498   0.0681   0.0895  -0.0007   0.0181   0.0475   0.00    0.0
2020/03/01 01:34:00.000  -35.399196429  148.979998104   665.1867   6   8   0.0495   0.0677   0.0893   0.0010   0.0180   0.0475   0.00    0.0
2020/03/01 01:34:30.000  -35.399196425  148.979998138   665.1872   6   8   0.0492   0.0673   0.0892   0.0016   0.0180   0.0474   0.00    0.0
2020/03/01 01:35:00.000  -35.399196417  148.979998196   665.1898   6   8   0.0489   0.0669   0.0890   0.0021   0.0179   0.0473   0.00    0.0
2020/03/01 01:35:30.000  -35.399196401  148.979998242   665.1928   6   8   0.0486   0.0665   0.0888   0.0024   0.0178   0.0472   0.00    0.0
2020/03/01 01:36:00.000  -35.399196401  148.979998273   665.1929   6   8   0.0483   0.0661   0.0886   0.0027   0.0178   0.0471   0.00    0.0
2020/03/01 01:36:30.000  -35.399196410  148.979998274   665.1916   6   8   0.0481   0.0657   0.0884   0.0029   0.0177   0.0470   0.00    0.0
2020/03/01 01:37:00.000  -35.399196411  148.979998258   665.1912   6   8   0.0478   0.0653   0.0882   0.0031   0.0176   0.0469   0.00    0.0
2020/03/01 01:37:30.000  -35.399196408  148.979998262   665.1935   6   8   0.0475   0.0650   0.0881   0.0033   0.0175   0.0468   0.00    0.0
2020/03/01 01:38:00.000  -35.399196408  148.979998272   665.1966   6   8   0.0473   0.0646   0.0879   0.0035   0.0174   0.0468   0.00    0.0
2020/03/01 01:38:30.000  -35.399196415  148.979998290   665.1972   6   8   0.0470   0.0642   0.0877   0.0036   0.0173   0.0467   0.00    0.0
2020/03/01 01:39:00.000  -35.399196407  148.979998290   665.2002   6   8   0.0468   0.0638   0.0875   0.0038   0.0172   0.0466   0.00    0.0
2020/03/01 01:39:30.000  -35.399196415  148.979998314   665.2020   6   8   0.0465   0.0635   0.0873   0.0039   0.0171   0.0465   0.00    0.0
2020/03/01 01:40:00.000  -35.399196420  148.979998341   665.2026   6   8   0.0462   0.0631   0.0871   0.0040   0.0170   0.0464   0.00    0.0
2020/03/01 01:40:30.000  -35.399196425  148.979998384   665.2033   6   8   0.0460   0.0627   0.0869   0.0041   0.0169   0.0463   0.00    0.0
2020/03/01 01:41:00.000  -35.399196426  148.979998430   665.2049   6   8   0.0457   0.0623   0.0867   0.0042   0.0168   0.0462   0.00    0.0
2020/03/01 01:41:30.000  -35.399196436  148.979998458   665.2054   6   8   0.0455   0.0620   0.0865   0.0043   0.0167   0.0461   0.00    0.0
2020/03/01 01:42:00.000  -35.399196447  148.979998486   665.2060   6   8   0.0452   0.0616   0.0863   0.0044   0.0166   0.0460   0.00    0.0
2020/03/01 01:42:30.000  -35.399196452  148.979998494   665.2076   6   8   0.0450   0.0613   0.0861   0.0045   0.0165   0.0459   0.00    0.0
2020/03/01 01:43:00.000  -35.399196464  148.979998513   665.2092   6   8   0.0448   0.0610   0.0859   0.0045   0.0163   0.0458   0.00    0.0
2020/03/01 01:43:30.000  -35.399196473  148.979998522   665.2117   6   8   0.0445   0.0606   0.0857   0.0046   0.0162   0.0457   0.00    0.0
2020/03/01 01:44:00.000  -35.399196481  148.979998539   665.2134   6   8   0.0443   0.0603   0.0855   0.0047   0.0161   0.0456   0.00    0.0
2020/03/01 01:44:30.000  -35.399196493  148.979998562   665.2141   6   8   0.0441   0.0599   0.0853   0.0047   0.0159   0.0455   0.00    0.0
2020/03/01 01:45:00.000  -35.399196502  148.979998578   665.2144   6   8   0.0438   0.0596   0.0851   0.0048   0.0158   0.0455   0.00    0.0
2020/03/01 01:45:30.000  -35.399196506  148.979998594   665.2159   6   8   0.0436   0.0592   0.0849   0.0048   0.0156   0.0454   0.00    0.0
2020/03/01 01:46:00.000  -35.399196507  148.979998619   665.2168   6   8   0.0433   0.0589   0.0847   0.0048   0.0155   0.0453   0.00    0.0
2020/03/01 01:46:30.000  -35.399196507  148.979998654   665.2205   6   8   0.0431   0.0585   0.0845   0.0048   0.0153   0.0452   0.00    0.0
2020/03/01 01:47:00.000  -35.399196500  148.979998664   665.2248   6   8   0.0429   0.0582   0.0843   0.0049   0.0152   0.0451   0.00    0.0
2020/03/01 01:47:30.000  -35.399196499  148.979998683   665.2278   6   8   0.0427   0.0579   0.0841   0.0049   0.0150   0.0450   0.00    0.0
2020/03/01 01:48:00.000  -35.399196504  148.979998719   665.2292   6   8   0.0425   0.0576   0.0839   0.0049   0.0149   0.0449   0.00    0.0
2020/03/01 01:48:30.000  -35.399196505  148.979998747   665.2322   6   8   0.0423   0.0573   0.0836   0.0049   0.0147   0.0448   0.00    0.0
2020/03/01 01:49:00.000  -35.399196513  148.979998762   665.2335   6   8   0.0421   0.0570   0.0834   0.0049   0.0145   0.0447   0.00    0.0
2020/03/01 01:49:30.000  -35.399196520  148.979998759   665.2350   6   8   0.0418   0.0566   0.0832   0.0049   0.0143   0.0445   0.00    0.0
2020/03/01 01:50:00.000  -35.399196526  148.979998774   665.2363   6   8   0.0416   0.0563   0.0830   0.0049   0.0141   0.0444   0.00    0.0
2020/03/01 01:50:30.000  -35.399196533  148.979998793   665.2362   6   8   0.0414   0.0560   0.0827   0.0049   0.0140   0.0443   0.00    0.0
2020/03/01 01:51:00.000  -35.399196540  148.979998821   665.2358   6   8   0.0412   0.0557   0.0825   0.0049   0.0138   0.0442   0.00    0.0
2020/03/01 01:51:30.000  -35.399196544  148.979998823   665.2355   6   8   0.0410   0.0554   0.0823   0.0048   0.0136   0.0441   0.00    0.0
2020/03/01 01:52:00.000  -35.399196542  148.979998841   665.2380   6   8   0.0408   0.0551   0.0821   0.0048   0.0134   0.0440   0.00    0.0
2020/03/01 01:52:30.000  -35.399196552  148.979998868   665.2407   6   8   0.0406   0.0548   0.0819   0.0048   0.0132   0.0439   0.00    0.0
2020/03/01 01:53:00.000  -35.399196554  148.979998896   665.2430   6   8   0.0404   0.0545   0.0817   0.0048   0.0130   0.0438   0.00    0.0
2020/03/01 01:53:30.000  -35.399196559  148.979998895   665.2432   6   8   0.0402   0.0542   0.0814   0.0047   0.0128   0.0437   0.00    0.0
2020/03/01 01:54:00.000  -35.399196567  148.979998907   665.2440   6   8   0.0400   0.0539   0.0812   0.0047   0.0126   0.0436   0.00    0.0
2020/03/01 01:54:30.000  -35.399196564  148.979998944   665.2450   6   8   0.0398   0.0536   0.0810   0.0046   0.0123   0.0435   0.00    0.0
2020/03/01 01:55:00.000  -35.399196563  148.979998973   665.2464   6   8   0.0396   0.0533   0.0807   0.0046   0.0121   0.0434   0.00    0.0
2020/03/01 01:55:30.000  -35.399196567  148.979998972   665.2470   6   8   0.0394   0.0530   0.0805   0.0045   0.0118   0.0433   0.00    0.0
2020/03/01 01:56:00.000  -35.399196579  148.979999008   665.2470   6   8   0.0392   0.0527   0.0803   0.0045   0.0116   0.0431   0.00    0.0
2020/03/01 01:56:30.000  -35.399196586  148.979999000   665.2465   6   8   0.0390   0.0524   0.0800   0.0044   0.0114   0.0430   0.00    0.0
2020/03/01 01:57:00.000  -35.399196586  148.979998980   665.2477   6   8   0.0389   0.0522   0.0798   0.0043   0.0111   0.0429   0.00    0.0
2020/03/01 01:57:30.000  -35.399196599  148.979998980   665.2469   6   8   0.0387   0.0519   0.0796   0.0043   0.0109   0.0428   0.00    0.0
2020/03/01 01:58:00.000  -35.399196593  148.979998993   665.2502   6   8   0.0385   0.0516   0.0794   0.0042   0.0106   0.0427   0.00    0.0
2020/03/01 01:58:30.000  -35.399196592  148.979999012   665.2524   6   8   0.0383   0.0514   0.0791   0.0041   0.0104   0.0426   0.00    0.0
2020/03/01 01:59:00.000  -35.399196590  148.979999017   665.2552   6   8   0.0381   0.0511   0.0789   0.0040   0.0101   0.0425   0.00    0.0
2020/03/01 01:59:30.000  -35.399196594  148.979999028   665.2571   6   8   0.0380   0.0508   0.0786   0.0039   0.0098   0.0424   0.00    0.0
2020/03/01 02:00:00.000  -35.399196605  148.979999041   665.2575   6   8   0.0378   0.0505   0.0784   0.0038   0.0095   0.0422   0.00    0.0
2020/03/01 02:00:30.000  -35.399196614  148.979999058   665.2571   6   8   0.0376   0.0503   0.0782   0.0037   0.0091   0.0421   0.00    0.0
2020/03/01 02:01:00.000  -35.399196609  148.979999069   665.2599   6   8   0.0374   0.0500   0.0779   0.0036   0.0088   0.0420   0.00    0.0
2020/03/01 02:01:30.000  -35.399196616  148.979999074   665.2609   6   8   0.0373   0.0497   0.0777   0.0035   0.0085   0.0419   0.00    0.0
2020/03/01 02:02:00.000  -35.399196618  148.979999079   665.2629   6   8   0.0371   0.0495   0.0774   0.0034   0.0082   0.0418   0.00    0.0
2020/03/01 02:02:30.000  -35.399196622  148.979999084   665.2639   6   8   0.0369   0.0492   0.0772   0.0033   0.0078   0.0417   0.00    0.0
2020/03/01 02:03:00.000  -35.399196625  148.979999101   665.2653   6   8   0.0368   0.0490   0.0770   0.0031   0.0075   0.0415   0.00    0.0
2020/03/01 02:03:30.000  -35.399196632  148.979999133   665.2667   6   8   0.0366   0.0487   0.0767   0.0030   0.0071   0.0414   0.00    0.0
2020/03/01 02:04:00.000  -35.399196631  148.979999126   665.2664   6   8   0.0364   0.0485   0.0765   0.0028   0.0067   0.0413   0.00    0.0
2020/03/01 02:04:30.000  -35.399196631  148.979999113   665.2667   6   8   0.0363   0.0482   0.0762   0.0026   0.0062   0.0412   0.00    0.0
2020/03/01 02:05:00.000  -35.399196635  148.979999109   665.2679   6   8   0.0361   0.0480   0.0760   0.0025   0.0057   0.0411   0.00    0.0
2020/03/01 02:05:30.000  -35.399196633  148.979999109   665.2683   6   8   0.0359   0.0477   0.0757   0.0022   0.0052   0.0409   0.00    0.0
2020/03/01 02:06:00.000  -35.399196638  148.979999098   665.2678   6   8   0.0357   0.0475   0.0755   0.0020   0.0046   0.0408   0.00    0.0
2020/03/01 02:06:30.000  -35.399196633  148.979999114   665.2709   6   8   0.0356   0.0472   0.0753   0.0017   0.0040   0.0407   0.00    0.0
2020/03/01 02:07:00.000  -35.399196629  148.979999103   665.2727   6   8   0.0354   0.0470   0.0750   0.0015   0.0033   0.0406   0.00    0.0
2020/03/01 02:07:30.000  -35.399196618  148.979999110   665.2765   6   8   0.0353   0.0468   0.0748   0.0011   0.0023   0.0405   0.00    0.0
2020/03/01 02:08:00.000  -35.399196613  148.979999107   665.2805   6   8   0.0351   0.0465   0.0746   0.0005   0.0004   0.0403   0.00    0.0
2020/03/01 02:08:30.000  -35.399196612  148.979999138   665.2834   6   8   0.0350   0.0463   0.0743  -0.0009  -0.0023   0.0402   0.00    0.0
2020/03/01 02:09:00.000  -35.399196615  148.979999156   665.2854   6   8   0.0348   0.0461   0.0741  -0.0014  -0.0033   0.0401   0.00    0.0
2020/03/01 02:09:30.000  -35.399196618  148.979999185   665.2866   6   8   0.0347   0.0458   0.0738  -0.0017  -0.0041   0.0400   0.00    0.0
2020/03/01 02:10:00.000  -35.399196622  148.979999211   665.2880   6   8   0.0345   0.0456   0.0736  -0.0020  -0.0047   0.0398   0.00    0.0
2020/03/01 02:10:30.000  -35.399196621  148.979999231   665.2907   6   8   0.0343   0.0454   0.0733  -0.0023  -0.0053   0.0397   0.00    0.0
2020/03/01 02:11:00.000  -35.399196630  148.979999263   665.2913   6   8   0.0342   0.0451   0.0731  -0.0025  -0.0057   0.0396   0.00    0.0
2020/03/01 02:11:30.000  -35.399196633  148.979999284   665.2933   6   8   0.0340   0.0449   0.0728  -0.0027  -0.0062   0.0395   0.00    0.0
2020/03/01 02:12:00.000  -35.399196630  148.979999289   665.2954   6   8   0.0339   0.0447   0.0726  -0.0029  -0.0066   0.0393   0.00    0.0
2020/03/01 02:12:30.000  -35.399196630  148.979999286   665.2966   6   8   0.0338   0.0445   0.0724  -0.0031  -0.0069   0.0392   0.00    0.0
2020/03/01 02:13:00.000  -35.399196624  148.979999301   665.2991   6   8   0.0336   0.0443   0.0721  -0.0032  -0.0073   0.0391   0.00    0.0
2020/03/01 02:13:30.000  -35.399196621  148.979999324   665.3000   6   8   0.0335   0.0441   0.0719  -0.0034  -0.0076   0.0390   0.00    0.0
2020/03/01 02:14:00.000  -35.399196617  148.979999341   665.3024   6   8   0.0333   0.0439   0.0716  -0.0035  -0.0080   0.0388   0.00    0.0
2020/03/01 02:14:30.000  -35.399196626  148.979999358   665.3021   6   8   0.0332   0.0437   0.0714  -0.0037  -0.0083   0.0387   0.00    0.0
2020/03/01 02:15:00.000  -35.399196634  148.979999370   665.3009   6   8   0.0330   0.0434   0.0711  -0.0039  -0.0086   0.0386   0.00    0.0
2020/03/01 02:15:30.000  -35.399196635  148.979999390   665.3017   6   9   0.0329   0.0432   0.0709  -0.0040  -0.0089   0.0385   0.00    0.0
2020/03/01 02:16:00.000  -35.399196634  148.979999410   665.3024   6   9   0.0327   0.0430   0.0706  -0.0042  -0.0092   0.0383   0.00    0.0
2020/03/01 02:16:30.000  -35.399196638  148.979999422   665.3028   6   9   0.0326   0.0428   0.0704  -0.0043  -0.0095   0.0382   0.00    0.0
2020/03/01 02:17:00.000  -35.399196643  148.979999428   665.3025   6   9   0.0325   0.0426   0.0701  -0.0044  -0.0097   0.0381   0.00    0.0
2020/03/01 02:17:30.000  -35.399196651  148.979999432   665.3036   6   9   0.0323   0.0424   0.0699  -0.0046  -0.0100   0.0379   0.00    0.0
2020/03/01 02:18:00.000  -35.399196658  148.979999437   665.3029   6   9   0.0322   0.0422   0.0697  -0.0047  -0.0102   0.0378   0.00    0.0
2020/03/01 02:18:30.000  -35.399196665  148.979999446   665.3027   6   9   0.0321   0.0420   0.0694  -0.0048  -0.0104   0.0377   0.00    0.0
2020/03/01 02:19:00.000  -35.399196666  148.979999467   665.3039   6   9   0.0319   0.0418   0.0692  -0.0049  -0.0107   0.0376   0.00    0.0
2020/03/01 02:19:30.000  -35.399196665  148.979999489   665.3049   6   9   0.0318   0.0416   0.0689  -0.0051  -0.0109   0.0374   0.00    0.0
2020/03/01 02:20:00.000  -35.399196659  148.979999511   665.3081   6   9   0.0316   0.0414   0.0686  -0.0052  -0.0111   0.0373   0.00    0.0
2020/03/01 02:20:30.000  -35.399196661  148.979999517   665.3088   6   9   0.0315   0.0412   0.0684  -0.0053  -0.0114   0.0372   0.00    0.0
2020/03/01 02:21:00.000  -35.399196668  148.979999537   665.3099   6   9   0.0314   0.0411   0.0681  -0.0054  -0.0116   0.0370   0.00    0.0
2020/03/01 02:21:30.000  -35.399196664  148.979999557   665.3122   6   9   0.0312   0.0409   0.0679  -0.0055  -0.0118   0.0369   0.00    0.0
2020/03/01 02:22:00.000  -35.399196667  148.979999559   665.3138   6   9   0.0311   0.0407   0.0677  -0.0056  -0.0119   0.0368   0.00    0.0
2020/03/01 02:22:30.000  -35.399196671  148.979999544   665.3142   6   9   0.0310   0.0405   0.0674  -0.0057  -0.0121   0.0367   0.00    0.0
2020/03/01 02:23:00.000  -35.399196670  148.979999548   665.3167   6   9   0.0309   0.0403   0.0672  -0.0058  -0.0123   0.0365   0.00    0.0
2020/03/01 02:23:30.000  -35.399196659  148.979999554   665.3202   6   9   0.0307   0.0402   0.0670  -0.0059  -0.0125   0.0364   0.00    0.0
2020/03/01 02:24:00.000  -35.399196662  148.979999550   665.3208   6   9   0.0306   0.0400   0.0667  -0.0060  -0.0126   0.0363   0.00    0.0
2020/03/01 02:24:30.000  -35.399196665  148.979999572   665.3220   6   9   0.0305   0.0398   0.0665  -0.0061  -0.0128   0.0361   0.00    0.0
2020/03/01 02:25:00.000  -35.399196671  148.979999582   665.3235   6   9   0.0303   0.0396   0.0662  -0.0062  -0.0130   0.0360   0.00    0.0
2020/03/01 02:25:30.000  -35.399196672  148.979999597   665.3254   6   9   0.0302   0.0394   0.0660  -0.0063  -0.0132   0.0359   0.00    0.0
2020/03/01 02:26:00.000  -35.399196669  148.979999597   665.3271   6   9   0.0301   0.0393   0.0657  -0.0064  -0.0133   0.0357   0.00    0.0
2020/03/01 02:26:30.000  -35.399196662  148.979999611   665.3309   6   9   0.0300   0.0391   0.0655  -0.0064  -0.0135   0.0356   0.00    0.0
2020/03/01 02:27:00.000  -35.399196665  148.979999614   665.3325   6   9   0.0298   0.0389   0.0653  -0.0065  -0.0136   0.0355   0.00    0.0
2020/03/01 02:27:30.000  -35.399196676  148.979999613   665.3321   6   9   0.0297   0.0388   0.0650  -0.0066  -0.0137   0.0354   0.00    0.0
2020/03/01 02:28:00.000  -35.399196682  148.979999623   665.3314   6   9   0.0296   0.0386   0.0648  -0.0067  -0.0139   0.0352   0.00    0.0
2020/03/01 02:28:30.000  -35.399196680  148.979999645   665.3323   6   9   0.0295   0.0385   0.0646  -0.0067  -0.0140   0.0351   0.00    0.0
2020/03/01 02:29:00.000  -35.399196672  148.979999678   665.3358   6   9   0.0294   0.0383   0.0643  -0.0068  -0.0141   0.0350   0.00    0.0
2020/03/01 02:29:30.000  -35.399196671  148.979999708   665.3375   6   8   0.0293   0.0381   0.0641  -0.0068  -0.0142   0.0349   0.00    0.0
2020/03/01 02:30:00.000  -35.399196667  148.979999725   665.3395   6   8   0.0292   0.0380   0.0639  -0.0068  -0.0142   0.0348   0.00    0.0
2020/03/01 02:30:30.000  -35.399196664  148.979999739   665.3414   6   8   0.0291   0.0378   0.0637  -0.0068  -0.0143   0.0347   0.00    0.0
2020/03/01 02:31:00.000  -35.399196663  148.979999746   665.3429   6   8   0.0290   0.0377   0.0636  -0.0068  -0.0144   0.0346   0.00    0.0
2020/03/01 02:31:30.000  -35.399196663  148.979999761   665.3431   6   8   0.0289   0.0375   0.0634  -0.0068  -0.0144   0.0345   0.00    0.0
2020/03/01 02:32:00.000  -35.399196660  148.979999778   665.3443   6   8   0.0288   0.0374   0.0632  -0.0068  -0.0145   0.0345   0.00    0.0
2020/03/01 02:32:30.000  -35.399196654  148.979999794   665.3455   6   8   0.0287   0.0373   0.0630  -0.0068  -0.0145   0.0344   0.00    0.0
2020/03/01 02:33:00.000  -35.399196650  148.979999811   665.3469   6   8   0.0286   0.0371   0.0628  -0.0069  -0.0146   0.0343   0.00    0.0
2020/03/01 02:33:30.000  -35.399196647  148.979999821   665.3471   6   8   0.0285   0.0370   0.0626  -0.0069  -0.0146   0.0342   0.00    0.0
2020/03/01 02:34:00.000  -35.399196643  148.979999831   665.3483   6   8   0.0284   0.0369   0.0624  -0.0069  -0.0147   0.0341   0.00    0.0
2020/03/01 02:34:30.000  -35.399196639  148.979999838   665.3477   6   8   0.0283   0.0367   0.0622  -0.0069  -0.0147   0.0340   0.00    0.0
2020/03/01 02:35:00.000  -35.399196643  148.979999845   665.3483   6   8   0.0282   0.0366   0.0620  -0.0069  -0.0148   0.0339   0.00    0.0
2020/03/01 02:35:30.000  -35.399196642  148.979999859   665.3475   6   8   0.0281   0.0364   0.0618  -0.0069  -0.0148   0.0338   0.00    0.0
2020/03/01 02:36:00.000  -35.399196644  148.979999877   665.3476   6   8   0.0280   0.0363   0.0617  -0.0069  -0.0149   0.0337   0.00    0.0
2020/03/01 02:36:30.000  -35.399196643  148.979999896   665.3490   6   8   0.0279   0.0362   0.0615  -0.0070  -0.0150   0.0336   0.00    0.0
2020/03/01 02:37:00.000  -35.399196644  148.979999917   665.3501   6   8   0.0278   0.0361   0.0613  -0.0070  -0.0150   0.0335   0.00    0.0
2020/03/01 02:37:30.000  -35.399196649  148.979999927   665.3511   6   8   0.0277   0.0359   0.0611  -0.0070  -0.0150   0.0334   0.00    0.0
2020/03/01 02:38:00.000  -35.399196654  148.979999935   665.3511   6   8   0.0276   0.0358   0.0609  -0.0070  -0.0151   0.0333   0.00    0.0
2020/03/01 02:38:30.000  -35.399196659  148.979999944   665.3513   6   8   0.0275   0.0357   0.0607  -0.0070  -0.0151   0.0332   0.00    0.0
2020/03/01 02:39:00.000  -35.399196660  148.979999949   665.3520   6   8   0.0275   0.0355   0.0605  -0.0070  -0.0152   0.0331   0.00    0.0
2020/03/01 02:39:30.000  -35.399196661  148.979999958   665.3516   6   8   0.0274   0.0354   0.0603  -0.0071  -0.0153   0.0330   0.00    0.0
2020/03/01 02:40:00.000  -35.399196659  148.979999960   665.3511   6   8   0.0273   0.0353   0.0601  -0.0071  -0.0153   0.0329   0.00    0.0
2020/03/01 02:40:30.000  -35.399196662  148.979999968   665.3514   6   8   0.0272   0.0352   0.0599  -0.0071  -0.0154   0.0328   0.00    0.0
2020/03/01 02:41:00.000  -35.399196661  148.979999967   665.3528   6   8   0.0271   0.0350   0.0598  -0.0071  -0.0154   0.0327   0.00    0.0
2020/03/01 02:41:30.000  -35.399196660  148.979999976   665.3537   6   8   0.0270   0.0349   0.0596  -0.0071  -0.0154   0.0326   0.00    0.0
2020/03/01 02:42:00.000  -35.399196659  148.979999993   665.3547   6   8   0.0269   0.0348   0.0594  -0.0072  -0.0155   0.0325   0.00    0.0
2020/03/01 02:42:30.000  -35.399196660  148.980000004   665.3547   6   8   0.0268   0.0347   0.0592  -0.0072  -0.0155   0.0324   0.00    0.0
2020/03/01 02:43:00.000  -35.399196660  148.980000019   665.3557   6   8   0.0267   0.0346   0.0590  -0.0072  -0.0156   0.0324   0.00    0.0
2020/03/01 02:43:30.000  -35.399196655  148.980000024   665.3565   6   8   0.0266   0.0344   0.0588  -0.0072  -0.0156   0.0323   0.00    0.0
2020/03/01 02:44:00.000  -35.399196650  148.980000041   665.3576   6   8   0.0265   0.0343   0.0586  -0.0072  -0.0157   0.0321   0.00    0.0
2020/03/01 02:44:30.000  -35.399196651  148.980000059   665.3576   6   8   0.0265   0.0342   0.0585  -0.0073  -0.0157   0.0320   0.00    0.0
2020/03/01 02:45:00.000  -35.399196649  148.980000071   665.3578   6   8   0.0264   0.0341   0.0583  -0.0073  -0.0158   0.0319   0.00    0.0
2020/03/01 02:45:30.000  -35.399196649  148.980000076   665.3580   6   8   0.0263   0.0340   0.0581  -0.0073  -0.0158   0.0318   0.00    0.0
2020/03/01 02:46:00.000  -35.399196655  148.980000091   665.3586   6   8   0.0262   0.0339   0.0579  -0.0073  -0.0158   0.0317   0.00    0.0
2020/03/01 02:46:30.000  -35.399196654  148.980000081   665.3593   6   8   0.0261   0.0337   0.0577  -0.0074  -0.0159   0.0316   0.00    0.0
2020/03/01 02:47:00.000  -35.399196659  148.980000072   665.3588   6   8   0.0260   0.0336   0.0575  -0.0074  -0.0159   0.0315   0.00    0.0
2020/03/01 02:47:30.000  -35.399196661  148.980000063   665.3587   6   8   0.0259   0.0335   0.0573  -0.0074  -0.0160   0.0314   0.00    0.0
2020/03/01 02:48:00.000  -35.399196668  148.980000061   665.3586   6   8   0.0258   0.0334   0.0572  -0.0074  -0.0160   0.0313   0.00    0.0
2020/03/01 02:48:30.000  -35.399196672  148.980000052   665.3586   6   8   0.0258   0.0333   0.0570  -0.0075  -0.0160   0.0312   0.00    0.0
2020/03/01 02:49:00.000  -35.399196675  148.980000046   665.3578   6   8   0.0257   0.0332   0.0568  -0.0075  -0.0161   0.0311   0.00    0.0
2020/03/01 02:49:30.000  -35.399196681  148.980000055   665.3564   6   8   0.0256   0.0331   0.0566  -0.0075  -0.0161   0.0310   0.00    0.0
2020/03/01 02:50:00.000  -35.399196681  148.980000067   665.3567   6   8   0.0255   0.0330   0.0564  -0.0075  -0.0161   0.0309   0.00    0.0
2020/03/01 02:50:30.000  -35.399196685  148.980000083   665.3565   6   8   0.0254   0.0329   0.0562  -0.0075  -0.0162   0.0308   0.00    0.0
2020/03/01 02:51:00.000  -35.399196688  148.980000084   665.3566   6   8   0.0253   0.0328   0.0560  -0.0076  -0.0162   0.0307   0.00    0.0
2020/03/01 02:51:30.000  -35.399196693  148.980000106   665.3563   6   8   0.0252   0.0327   0.0559  -0.0076  -0.0162   0.0306   0.00    0.0
2020/03/01 02:52:00.000  -35.399196699  148.980000119   665.3542   6   8   0.0251   0.0326   0.0557  -0.0076  -0.0163   0.0305   0.00    0.0
2020/03/01 02:52:30.000  -35.399196700  148.980000130   665.3541   6   8   0.0251   0.0325   0.0555  -0.0076  -0.0163   0.0304   0.00    0.0
2020/03/01 02:53:00.000  -35.399196702  148.980000146   665.3532   6   8   0.0250   0.0324   0.0553  -0.0076  -0.0163   0.0303   0.00    0.0
2020/03/01 02:53:30.000  -35.399196707  148.980000168   665.3535   6   9   0.0249   0.0323   0.0552  -0.0077  -0.0164   0.0302   0.00    0.0
2020/03/01 02:54:00.000  -35.399196707  148.980000175   665.3522   6   9   0.0248   0.0322   0.0550  -0.0077  -0.0164   0.0301   0.00    0.0
2020/03/01 02:54:30.000  -35.399196710  148.980000182   665.3518   6   9   0.0247   0.0321   0.0548  -0.0077  -0.0164   0.0300   0.00    0.0
2020/03/01 02:55:00.000  -35.399196704  148.980000185   665.3524   6   9   0.0246   0.0320   0.0546  -0.0077  -0.0164   0.0299   0.00    0.0
2020/03/01 02:55:30.000  -35.399196708  148.980000189   665.3513   6   9   0.0246   0.0319   0.0544  -0.0078  -0.0165   0.0298   0.00    0.0
2020/03/01 02:56:00.000  -35.399196707  148.980000192   665.3518   6   9   0.0245   0.0318   0.0542  -0.0078  -0.0165   0.0297   0.00    0.0
2020/03/01 02:56:30.000  -35.399196710  148.980000200   665.3520   6   9   0.0244   0.0317   0.0541  -0.0078  -0.0165   0.0296   0.00    0.0
2020/03/01 02:57:00.000  -35.399196706  148.980000208   665.3524   6   9   0.0243   0.0316   0.0539  -0.0078  -0.0165   0.0295   0.00    0.0
2020/03/01 02:57:30.000  -35.399196707  148.980000222   665.3531   6   8   0.0242   0.0315   0.0537  -0.0078  -0.0166   0.0294   0.00    0.0
2020/03/01 02:58:00.000  -35.399196706  148.980000230   665.3530   6   8   0.0242   0.0314   0.0536  -0.0079  -0.0166   0.0293   0.00    0.0
2020/03/01 02:58:30.000  -35.399196701  148.980000237   665.3543   6   8   0.0241   0.0313   0.0534  -0.0079  -0.0166   0.0292   0.00    0.0
2020/03/01 02:59:00.000  -35.399196700  148.980000250   665.3543   6   8   0.0240   0.0312   0.0532  -0.0080  -0.0166   0.0291   0.00    0.0
2020/03/01 02:59:30.000  -35.399196696  148.980000259   665.3548   6   8   0.0239   0.0311   0.0530  -0.0080  -0.0167   0.0290   0.00    0.0
2020/03/01 03:00:00.000  -35.399196692  148.980000262   665.3562   6   8   0.0239   0.0311   0.0528  -0.0080  -0.0167   0.0289   0.00    0.0
2020/03/01 03:00:30.000  -35.399196695  148.980000263   665.3552   6   8   0.0238   0.0310   0.0527  -0.0081  -0.0167   0.0288   0.00    0.0
2020/03/01 03:01:00.000  -35.399196694  148.980000264   665.3540   6   8   0.0237   0.0309   0.0525  -0.0081  -0.0167   0.0287   0.00    0.0
2020/03/01 03:01:30.000  -35.399196696  148.980000269   665.3536   6   8   0.0236   0.0308   0.0523  -0.0081  -0.0167   0.0286   0.00    0.0
2020/03/01 03:02:00.000  -35.399196694  148.980000273   665.3552   6   8   0.0236   0.0307   0.0522  -0.0082  -0.0167   0.0285   0.00    0.0
2020/03/01 03:02:30.000  -35.399196694  148.980000272   665.3550   6   8   0.0235   0.0306   0.0520  -0.0082  -0.0167   0.0284   0.00    0.0
2020/03/01 03:03:00.000  -35.399196697  148.980000273   665.3540   6   8   0.0234   0.0306   0.0518  -0.0082  -0.0168   0.0283   0.00    0.0
2020/03/01 03:03:30.000  -35.399196697  148.980000278   665.3541   6   8   0.0234   0.0305   0.0517  -0.0082  -0.0168   0.0282   0.00    0.0
2020/03/01 03:04:00.000  -35.399196699  148.980000276   665.3536   6   8   0.0233   0.0304   0.0515  -0.0083  -0.0168   0.0281   0.00    0.0
2020/03/01 03:04:30.000  -35.399196699  148.980000283   665.3540   6   8   0.0232   0.0303   0.0513  -0.0083  -0.0168   0.0280   0.00    0.0
2020/03/01 03:05:00.000  -35.399196698  148.980000290   665.3540   6   8   0.0231   0.0302   0.0512  -0.0083  -0.0168   0.0279   0.00    0.0
2020/03/01 03:05:30.000  -35.399196699  148.980000291   665.3539   6   8   0.0231   0.0302   0.0510  -0.0083  -0.0168   0.0278   0.00    0.0
2020/03/01 03:06:00.000  -35.399196694  148.980000301   665.3555   6   8   0.0230   0.0301   0.0508  -0.0084  -0.0168   0.0277   0.00    0.0
2020/03/01 03:06:30.000  -35.399196691  148.980000308   665.3565   6   8   0.0229   0.0300   0.0507  -0.0084  -0.0168   0.0276   0.00    0.0
2020/03/01 03:07:00.000  -35.399196689  148.980000321   665.3577   6   8   0.0229   0.0299   0.0505  -0.0084  -0.0168   0.0275   0.00    0.0
2020/03/01 03:07:30.000  -35.399196690  148.980000336   665.3577   6   8   0.0228   0.0299   0.0504  -0.0084  -0.0168   0.0274   0.00    0.0
2020/03/01 03:08:00.000  -35.399196692  148.980000348   665.3576   6   8   0.0227   0.0298   0.0502  -0.0084  -0.0168   0.0273   0.00    0.0
2020/03/01 03:08:30.000  -35.399196696  148.980000359   665.3574   6   8   0.0226   0.0297   0.0501  -0.0085  -0.0168   0.0272   0.00    0.0
2020/03/01 03:09:00.000  -35.399196695  148.980000367   665.3568   6   8   0.0226   0.0296   0.0499  -0.0085  -0.0168   0.0271   0.00    0.0
2020/03/01 03:09:30.000  -35.399196699  148.980000381   665.3560   6   8   0.0225   0.0295   0.0497  -0.0085  -0.0168   0.0270   0.00    0.0
2020/03/01 03:10:00.000  -35.399196699  148.980000394   665.3563   6   8   0.0224   0.0295   0.0496  -0.0085  -0.0168   0.0269   0.00    0.0
2020/03/01 03:10:30.000  -35.399196704  148.980000403   665.3559   6   8   0.0224   0.0294   0.0494  -0.0085  -0.0168   0.0268   0.00    0.0
2020/03/01 03:11:00.000  -35.399196712  148.980000411   665.3548   6   8   0.0223   0.0293   0.0492  -0.0085  -0.0168   0.0267   0.00    0.0
2020/03/01 03:11:30.000  -35.399196718  148.980000415   665.3534   6   7   0.0222   0.0292   0.0491  -0.0085  -0.0168   0.0266   0.00    0.0
2020/03/01 03:12:00.000  -35.399196730  148.980000427   665.3514   6   7   0.0222   0.0292   0.0490  -0.0086  -0.0168   0.0265   0.00    0.0
2020/03/01 03:12:30.000  -35.399196735  148.980000437   665.3505   6   7   0.0221   0.0291   0.0489  -0.0086  -0.0168   0.0264   0.00    0.0
2020/03/01 03:13:00.000  -35.399196739  148.980000441   665.3492   6   7   0.0220   0.0290   0.0488  -0.0086  -0.0168   0.0263   0.00    0.0
2020/03/01 03:13:30.000  -35.399196741  148.980000446   665.3485   6   7   0.0220   0.0290   0.0487  -0.0086  -0.0168   0.0262   0.00    0.0
2020/03/01 03:14:00.000  -35.399196746  148.980000452   665.3471   6   7   0.0219   0.0289   0.0486  -0.0086  -0.0167   0.0261   0.00    0.0
2020/03/01 03:14:30.000  -35.399196749  148.980000453   665.3462   6   7   0.0218   0.0288   0.0485  -0.0086  -0.0167   0.0260   0.00    0.0
2020/03/01 03:15:00.000  -35.399196743  148.980000459   665.3472   6   7   0.0217   0.0288   0.0484  -0.0086  -0.0167   0.0259   0.00    0.0
2020/03/01 03:15:30.000  -35.399196736  148.980000465   665.3478   6   7   0.0217   0.0287   0.0482  -0.0086  -0.0167   0.0258   0.00    0.0
2020/03/01 03:16:00.000  -35.399196739  148.980000477   665.3469   6   7   0.0216   0.0286   0.0481  -0.0086  -0.0167   0.0258   0.00    0.0
2020/03/01 03:16:30.000  -35.399196741  148.980000484   665.3457   6   7   0.0215   0.0286   0.0480  -0.0086  -0.0166   0.0257   0.00    0.0
2020/03/01 03:17:00.000  -35.399196741  148.980000484   665.3449   6   7   0.0215   0.0285   0.0479  -0.0086  -0.0166   0.0256   0.00    0.0
2020/03/01 03:17:30.000  -35.399196741  148.980000485   665.3443   6   7   0.0214   0.0284   0.0478  -0.0086  -0.0166   0.0255   0.00    0.0
2020/03/01 03:18:00.000  -35.399196740  148.980000499   665.3445   6   7   0.0214   0.0284   0.0477  -0.0086  -0.0166   0.0254   0.00    0.0
2020/03/01 03:18:30.000  -35.399196738  148.980000505   665.3446   6   7   0.0213   0.0283   0.0476  -0.0086  -0.0166   0.0253   0.00    0.0
2020/03/01 03:19:00.000  -35.399196736  148.980000513   665.3447   6   7   0.0212   0.0282   0.0475  -0.0086  -0.0165   0.0252   0.00    0.0
2020/03/01 03:19:30.000  -35.399196740  148.980000520   665.3437   6   7   0.0212   0.0282   0.0474  -0.0086  -0.0165   0.0251   0.00    0.0
2020/03/01 03:20:00.000  -35.399196744  148.980000526   665.3427   6   7   0.0211   0.0281   0.0472  -0.0086  -0.0165   0.0250   0.00    0.0
2020/03/01 03:20:30.000  -35.399196749  148.980000536   665.3417   6   7   0.0210   0.0280   0.0471  -0.0086  -0.0164   0.0249   0.00    0.0
2020/03/01 03:21:00.000  -35.399196751  148.980000544   665.3410   6   7   0.0210   0.0280   0.0470  -0.0086  -0.0164   0.0248   0.00    0.0
2020/03/01 03:21:30.000  -35.399196752  148.980000549   665.3403   6   7   0.0209   0.0279   0.0469  -0.0086  -0.0164   0.0247   0.00    0.0
2020/03/01 03:22:00.000  -35.399196755  148.980000553   665.3392   6   7   0.0208   0.0278   0.0468  -0.0086  -0.0164   0.0246   0.00    0.0
2020/03/01 03:22:30.000  -35.399196754  148.980000557   665.3389   6   7   0.0208   0.0278   0.0467  -0.0086  -0.0163   0.0246   0.00    0.0
2020/03/01 03:23:00.000  -35.399196754  148.980000561   665.3384   6   7   0.0207   0.0277   0.0466  -0.0086  -0.0163   0.0245   0.00    0.0
2020/03/01 03:23:30.000  -35.399196756  148.980000571   665.3375   6   7   0.0207   0.0277   0.0465  -0.0086  -0.0163   0.0244   0.00    0.0
2020/03/01 03:24:00.000  -35.399196758  148.980000582   665.3368   6   7   0.0206   0.0276   0.0464  -0.0086  -0.0162   0.0243   0.00    0.0
2020/03/01 03:24:30.000  -35.399196758  148.980000592   665.3364   6   7   0.0205   0.0275   0.0462  -0.0086  -0.0162   0.0242   0.00    0.0
2020/03/01 03:25:00.000  -35.399196761  148.980000598   665.3354   6   7   0.0205   0.0275   0.0461  -0.0086  -0.0162   0.0241   0.00    0.0
2020/03/01 03:25:30.000  -35.399196759  148.980000606   665.3355   6   7   0.0204   0.0274   0.0460  -0.0086  -0.0161   0.0240   0.00    0.0
2020/03/01 03:26:00.000  -35.399196757  148.980000614   665.3359   6   7   0.0203   0.0274   0.0459  -0.0086  -0.0161   0.0239   0.00    0.0
2020/03/01 03:26:30.000  -35.399196750  148.980000618   665.3367   6   7   0.0203   0.0273   0.0458  -0.0086  -0.0161   0.0238   0.00    0.0
2020/03/01 03:27:00.000  -35.399196750  148.980000621   665.3368   6   7   0.0202   0.0272   0.0457  -0.0085  -0.0160   0.0238   0.00    0.0
2020/03/01 03:27:30.000  -35.399196747  148.980000623   665.3373   6   7   0.0202   0.0272   0.0456  -0.0085  -0.0160   0.0237   0.00    0.0
2020/03/01 03:28:00.000  -35.399196743  148.980000624   665.3382   6   7   0.0201   0.0271   0.0455  -0.0085  -0.0160   0.0236   0.00    0.0
2020/03/01 03:28:30.000  -35.399196742  148.980000622   665.3383   6   7   0.0200   0.0271   0.0454  -0.0085  -0.0159   0.0235   0.00    0.0
2020/03/01 03:29:00.000  -35.399196738  148.980000624   665.3388   6   7   0.0200   0.0270   0.0452  -0.0085  -0.0159   0.0234   0.00    0.0
