% program   : RTKPOST ver.2.4.3 b33
% inp file  : D:\GNSS-DATA\2\tid10610.20o
% inp file  : D:\GNSS-DATA\2\brdc0610.20n
% inp file  : D:\GNSS-DATA\2\igs20950.sp3
% inp file  : D:\GNSS-DATA\2\igs20950.clk
% obs start : 2020/03/01 00:00:00.0 GPST (week2095      0.0s)
% obs end   : 2020/03/01 23:59:30.0 GPST (week2095  86370.0s)
% pos mode  : ppp-static
% solution  : forward
% elev mask : 15.0 deg
% dynamics  : off
% tidecorr  : off
% tropo opt : saastamoinen
% ephemeris : precise
% antenna1  :                       ( 0.0000  0.0000  0.0000)
%
% (lat/lon/height=WGS84/ellipsoidal,Q=1:fix,2:float,3:sbas,4:dgps,5:single,6:ppp,ns=# of satellites)
%  GPST                  latitude(deg) longitude(deg)  height(m)   Q  ns   sdn(m)   sde(m)   sdu(m)  sdne(m)  sdeu(m)  sdun(m) age(s)  ratio
2020/03/01 00:00:00.000  -35.399203670  148.980011878   665.2634   6   8   1.5513   1.6305   3.7712   0.4473  -0.6537   1.5238   0.00    0.0
2020/03/01 00:00:30.000  -35.399202384  148.980013362   664.9189   6   8   1.0998   1.1560   2.6708   0.3197  -0.4593   1.0802   0.00    0.0
2020/03/01 00:01:00.000  -35.399198922  148.980012032   665.5035   6   8   0.8979   0.9446   2.1744   0.2609  -0.3724   0.8805   0.00    0.0
2020/03/01 00:01:30.000  -35.399200526  148.980014828   665.1708   6   8   0.7772   0.8186   1.8744   0.2249  -0.3201   0.7602   0.00    0.0
2020/03/01 00:02:00.000  -35.399199679  148.980014893   665.1184   6   8   0.6947   0.7328   1.6675   0.1998  -0.2842   0.6776   0.00    0.0
2020/03/01 00:02:30.000  -35.399200976  148.980014376   664.7824   6   8   0.6339   0.6698   1.5136   0.1809  -0.2578   0.6163   0.00    0.0
2020/03/01 00:03:00.000  -35.399201287  148.980014751   664.6854   6   8   0.5851   0.6196   1.3880   0.1665  -0.2357   0.5667   0.00    0.0
2020/03/01 00:03:30.000  -35.399201544  148.980014608   664.5084   6   8   0.5450   0.5785   1.2832   0.1551  -0.2173   0.5255   0.00    0.0
2020/03/01 00:04:00.000  -35.399201503  148.980014247   664.4161   6   8   0.5111   0.5440   1.1943   0.1458  -0.2017   0.4906   0.00    0.0
2020/03/01 00:04:30.000  -35.399202075  148.980013703   664.3144   6   8   0.4822   0.5147   1.1180   0.1378  -0.1885   0.4606   0.00    0.0
2020/03/01 00:05:00.000  -35.399201337  148.980013966   664.4044   6   8   0.4572   0.4894   1.0520   0.1309  -0.1772   0.4346   0.00    0.0
2020/03/01 00:05:30.000  -35.399201335  148.980014415   664.2841   6   8   0.4354   0.4674   0.9945   0.1249  -0.1676   0.4117   0.00    0.0
2020/03/01 00:06:00.000  -35.399201232  148.980013674   664.3523   6   8   0.4163   0.4480   0.9441   0.1194  -0.1593   0.3916   0.00    0.0
2020/03/01 00:06:30.000  -35.399201116  148.980013814   664.3049   6   8   0.3993   0.4309   0.8997   0.1145  -0.1521   0.3738   0.00    0.0
2020/03/01 00:07:00.000  -35.399200747  148.980013717   664.4075   6   8   0.3842   0.4156   0.8603   0.1099  -0.1458   0.3578   0.00    0.0
2020/03/01 00:07:30.000  -35.399200274  148.980013834   664.4402   6   8   0.3706   0.4020   0.8251   0.1057  -0.1403   0.3435   0.00    0.0
2020/03/01 00:08:00.000  -35.399200104  148.980014025   664.4937   6   8   0.3579   0.3893   0.7913   0.1020  -0.1349   0.3299   0.00    0.0
2020/03/01 00:08:30.000  -35.399199803  148.980013989   664.5500   6   8   0.3459   0.3774   0.7591   0.0986  -0.1299   0.3169   0.00    0.0
2020/03/01 00:09:00.000  -35.399199706  148.980013640   664.5674   6   8   0.3346   0.3664   0.7288   0.0954  -0.1253   0.3047   0.00    0.0
2020/03/01 00:09:30.000  -35.399199666  148.980013871   664.5222   6   8   0.3241   0.3561   0.7006   0.0925  -0.1211   0.2932   0.00    0.0
2020/03/01 00:10:00.000  -35.399199719  148.980014000   664.4932   6   8   0.3143   0.3466   0.6743   0.0897  -0.1172   0.2825   0.00    0.0
2020/03/01 00:10:30.000  -35.399199747  148.980014026   664.4419   6   8   0.3052   0.3377   0.6501   0.0872  -0.1136   0.2726   0.00    0.0
2020/03/01 00:11:00.000  -35.399200076  148.980014061   664.4414   6   8   0.2968   0.3294   0.6278   0.0847  -0.1103   0.2634   0.00    0.0
2020/03/01 00:11:30.000  -35.399200510  148.980013871   664.4277   6   8   0.2890   0.3217   0.6073   0.0823  -0.1073   0.2550   0.00    0.0
2020/03/01 00:12:00.000  -35.399200420  148.980013972   664.3823   6   8   0.2818   0.3146   0.5885   0.0801  -0.1046   0.2472   0.00    0.0
2020/03/01 00:12:30.000  -35.399200440  148.980014142   664.4098   6   8   0.2752   0.3080   0.5711   0.0779  -0.1020   0.2401   0.00    0.0
2020/03/01 00:13:00.000  -35.399200496  148.980014304   664.3960   6   8   0.2687   0.3016   0.5539   0.0759  -0.0994   0.2330   0.00    0.0
2020/03/01 00:13:30.000  -35.399200364  148.980014641   664.3866   6   8   0.2623   0.2954   0.5369   0.0739  -0.0969   0.2260   0.00    0.0
2020/03/01 00:14:00.000  -35.399200429  148.980014398   664.3647   6   8   0.2562   0.2894   0.5205   0.0720  -0.0945   0.2193   0.00    0.0
2020/03/01 00:14:30.000  -35.399200391  148.980014342   664.3817   6   8   0.2503   0.2837   0.5047   0.0702  -0.0922   0.2129   0.00    0.0
2020/03/01 00:15:00.000  -35.399200390  148.980014195   664.3699   6   8   0.2447   0.2783   0.4898   0.0685  -0.0900   0.2068   0.00    0.0
2020/03/01 00:15:30.000  -35.399200309  148.980014256   664.3880   6   8   0.2394   0.2731   0.4757   0.0668  -0.0880   0.2011   0.00    0.0
2020/03/01 00:16:00.000  -35.399200029  148.980014132   664.4264   6   7   0.2346   0.2683   0.4642   0.0656  -0.0863   0.1957   0.00    0.0
2020/03/01 00:16:30.000  -35.399199937  148.980014051   664.4458   6   7   0.2301   0.2638   0.4533   0.0645  -0.0847   0.1907   0.00    0.0
2020/03/01 00:17:00.000  -35.399199827  148.980013944   664.4447   6   7   0.2259   0.2595   0.4431   0.0634  -0.0831   0.1860   0.00    0.0
2020/03/01 00:17:30.000  -35.399199746  148.980013822   664.4555   6   7   0.2219   0.2554   0.4335   0.0622  -0.0815   0.1817   0.00    0.0
2020/03/01 00:18:00.000  -35.399199665  148.980013599   664.4735   6   7   0.2180   0.2514   0.4238   0.0611  -0.0799   0.1774   0.00    0.0
2020/03/01 00:18:30.000  -35.399199751  148.980013409   664.4414   6   7   0.2140   0.2475   0.4140   0.0599  -0.0783   0.1731   0.00    0.0
2020/03/01 00:19:00.000  -35.399199706  148.980013300   664.4225   6   7   0.2102   0.2436   0.4043   0.0588  -0.0767   0.1689   0.00    0.0
2020/03/01 00:19:30.000  -35.399199734  148.980013398   664.4136   6   7   0.2064   0.2399   0.3948   0.0576  -0.0751   0.1649   0.00    0.0
2020/03/01 00:20:00.000  -35.399199590  148.980013172   664.4454   6   8   0.2027   0.2357   0.3853   0.0566  -0.0718   0.1610   0.00    0.0
2020/03/01 00:20:30.000  -35.399199574  148.980013362   664.4338   6   8   0.1992   0.2318   0.3763   0.0555  -0.0688   0.1574   0.00    0.0
2020/03/01 00:21:00.000  -35.399199564  148.980013378   664.4458   6   8   0.1959   0.2280   0.3678   0.0545  -0.0660   0.1539   0.00    0.0
2020/03/01 00:21:30.000  -35.399199682  148.980013352   664.4449   6   8   0.1927   0.2244   0.3597   0.0534  -0.0633   0.1507   0.00    0.0
2020/03/01 00:22:00.000  -35.399199698  148.980013459   664.4483   6   8   0.1897   0.2210   0.3522   0.0524  -0.0608   0.1476   0.00    0.0
2020/03/01 00:22:30.000  -35.399199790  148.980013164   664.4658   6   8   0.1869   0.2177   0.3452   0.0514  -0.0584   0.1448   0.00    0.0
2020/03/01 00:23:00.000  -35.399199733  148.980012995   664.4843   6   8   0.1841   0.2145   0.3380   0.0504  -0.0561   0.1419   0.00    0.0
2020/03/01 00:23:30.000  -35.399199710  148.980013022   664.4835   6   8   0.1813   0.2114   0.3308   0.0493  -0.0538   0.1391   0.00    0.0
2020/03/01 00:24:00.000  -35.399199659  148.980012800   664.5144   6   8   0.1784   0.2083   0.3237   0.0483  -0.0517   0.1364   0.00    0.0
2020/03/01 00:24:30.000  -35.399199690  148.980012819   664.5074   6   8   0.1756   0.2053   0.3168   0.0472  -0.0496   0.1337   0.00    0.0
2020/03/01 00:25:00.000  -35.399199677  148.980012670   664.5203   6   8   0.1729   0.2024   0.3101   0.0461  -0.0476   0.1311   0.00    0.0
2020/03/01 00:25:30.000  -35.399199713  148.980012581   664.5257   6   8   0.1703   0.1996   0.3036   0.0451  -0.0458   0.1286   0.00    0.0
2020/03/01 00:26:00.000  -35.399199627  148.980012517   664.5442   6   8   0.1679   0.1969   0.2975   0.0441  -0.0440   0.1263   0.00    0.0
2020/03/01 00:26:30.000  -35.399199523  148.980012724   664.5652   6   8   0.1655   0.1943   0.2918   0.0431  -0.0423   0.1241   0.00    0.0
2020/03/01 00:27:00.000  -35.399199582  148.980012385   664.5853   6   8   0.1633   0.1918   0.2863   0.0421  -0.0407   0.1220   0.00    0.0
2020/03/01 00:27:30.000  -35.399199528  148.980012329   664.6119   6   8   0.1611   0.1895   0.2812   0.0412  -0.0392   0.1200   0.00    0.0
2020/03/01 00:28:00.000  -35.399199531  148.980012280   664.6379   6   8   0.1590   0.1871   0.2760   0.0403  -0.0377   0.1181   0.00    0.0
2020/03/01 00:28:30.000  -35.399199502  148.980012062   664.6587   6   8   0.1568   0.1848   0.2708   0.0393  -0.0362   0.1161   0.00    0.0
2020/03/01 00:29:00.000  -35.399199484  148.980012280   664.6636   6   8   0.1546   0.1825   0.2657   0.0383  -0.0348   0.1142   0.00    0.0
2020/03/01 00:29:30.000  -35.399199485  148.980012180   664.6842   6   8   0.1525   0.1803   0.2606   0.0374  -0.0334   0.1123   0.00    0.0
2020/03/01 00:30:00.000  -35.399199427  148.980012187   664.7076   6   8   0.1504   0.1781   0.2557   0.0364  -0.0321   0.1105   0.00    0.0
2020/03/01 00:30:30.000  -35.399199412  148.980012014   664.7288   6   8   0.1484   0.1760   0.2510   0.0355  -0.0308   0.1087   0.00    0.0
2020/03/01 00:31:00.000  -35.399199335  148.980011887   664.7483   6   8   0.1464   0.1739   0.2465   0.0346  -0.0296   0.1071   0.00    0.0
2020/03/01 00:31:30.000  -35.399199256  148.980011874   664.7642   6   8   0.1446   0.1720   0.2422   0.0337  -0.0284   0.1055   0.00    0.0
2020/03/01 00:32:00.000  -35.399199276  148.980011793   664.7718   6   8   0.1428   0.1701   0.2382   0.0329  -0.0273   0.1040   0.00    0.0
2020/03/01 00:32:30.000  -35.399199242  148.980011847   664.7849   6   8   0.1412   0.1683   0.2344   0.0321  -0.0262   0.1025   0.00    0.0
2020/03/01 00:33:00.000  -35.399199213  148.980011687   664.7979   6   8   0.1395   0.1665   0.2305   0.0313  -0.0250   0.1011   0.00    0.0
2020/03/01 00:33:30.000  -35.399199140  148.980011629   664.8007   6   8   0.1377   0.1647   0.2266   0.0304  -0.0240   0.0997   0.00    0.0
2020/03/01 00:34:00.000  -35.399199063  148.980011585   664.8080   6   8   0.1360   0.1629   0.2228   0.0296  -0.0229   0.0983   0.00    0.0
2020/03/01 00:34:30.000  -35.399198988  148.980011499   664.8278   6   8   0.1343   0.1611   0.2190   0.0287  -0.0218   0.0969   0.00    0.0
2020/03/01 00:35:00.000  -35.399198998  148.980011588   664.8211   6   8   0.1326   0.1594   0.2153   0.0279  -0.0208   0.0955   0.00    0.0
2020/03/01 00:35:30.000  -35.399198977  148.980011498   664.8224   6   8   0.1310   0.1577   0.2118   0.0271  -0.0198   0.0942   0.00    0.0
2020/03/01 00:36:00.000  -35.399198935  148.980011410   664.8340   6   8   0.1294   0.1561   0.2084   0.0263  -0.0189   0.0930   0.00    0.0
2020/03/01 00:36:30.000  -35.399198907  148.980011287   664.8406   6   8   0.1279   0.1545   0.2051   0.0255  -0.0179   0.0918   0.00    0.0
2020/03/01 00:37:00.000  -35.399198920  148.980011361   664.8473   6   8   0.1265   0.1530   0.2021   0.0248  -0.0170   0.0907   0.00    0.0
2020/03/01 00:37:30.000  -35.399198850  148.980011244   664.8672   6   8   0.1252   0.1516   0.1992   0.0241  -0.0160   0.0896   0.00    0.0
2020/03/01 00:38:00.000  -35.399198837  148.980011244   664.8744   6   8   0.1238   0.1501   0.1962   0.0234  -0.0150   0.0885   0.00    0.0
2020/03/01 00:38:30.000  -35.399198779  148.980011161   664.8880   6   8   0.1224   0.1486   0.1933   0.0227  -0.0141   0.0874   0.00    0.0
2020/03/01 00:39:00.000  -35.399198684  148.980011165   664.8988   6   8   0.1209   0.1472   0.1903   0.0219  -0.0131   0.0863   0.00    0.0
2020/03/01 00:39:30.000  -35.399198644  148.980011044   664.9103   6   8   0.1195   0.1458   0.1874   0.0212  -0.0120   0.0853   0.00    0.0
2020/03/01 00:40:00.000  -35.399198643  148.980011043   664.9194   6   8   0.1182   0.1444   0.1846   0.0205  -0.0110   0.0843   0.00    0.0
2020/03/01 00:40:30.000  -35.399198607  148.980010908   664.9294   6   8   0.1168   0.1430   0.1819   0.0197  -0.0100   0.0833   0.00    0.0
2020/03/01 00:41:00.000  -35.399198592  148.980010878   664.9301   6   8   0.1155   0.1417   0.1793   0.0190  -0.0089   0.0823   0.00    0.0
2020/03/01 00:41:30.000  -35.399198586  148.980010703   664.9347   6   8   0.1143   0.1404   0.1768   0.0183  -0.0077   0.0814   0.00    0.0
2020/03/01 00:42:00.000  -35.399198597  148.980010593   664.9323   6   8   0.1131   0.1391   0.1744   0.0177  -0.0064   0.0805   0.00    0.0
2020/03/01 00:42:30.000  -35.399198620  148.980010508   664.9311   6   8   0.1120   0.1379   0.1722   0.0171  -0.0048   0.0797   0.00    0.0
2020/03/01 00:43:00.000  -35.399198567  148.980010438   664.9410   6   8   0.1108   0.1367   0.1699   0.0165  -0.0025   0.0788   0.00    0.0
2020/03/01 00:43:30.000  -35.399198510  148.980010393   664.9486   6   8   0.1097   0.1355   0.1676   0.0158   0.0032   0.0780   0.00    0.0
2020/03/01 00:44:00.000  -35.399198482  148.980010389   664.9587   6   8   0.1085   0.1343   0.1653   0.0152   0.0051   0.0771   0.00    0.0
2020/03/01 00:44:30.000  -35.399198457  148.980010364   664.9699   6   8   0.1073   0.1331   0.1631   0.0145   0.0063   0.0763   0.00    0.0
2020/03/01 00:45:00.000  -35.399198411  148.980010347   664.9795   6   8   0.1061   0.1319   0.1609   0.0138   0.0073   0.0755   0.00    0.0
2020/03/01 00:45:30.000  -35.399198397  148.980010305   664.9877   6   8   0.1050   0.1308   0.1588   0.0131   0.0082   0.0747   0.00    0.0
2020/03/01 00:46:00.000  -35.399198366  148.980010272   665.0011   6   8   0.1039   0.1297   0.1567   0.0124   0.0089   0.0740   0.00    0.0
2020/03/01 00:46:30.000  -35.399198345  148.980010285   664.9999   6   8   0.1029   0.1286   0.1548   0.0118   0.0095   0.0732   0.00    0.0
2020/03/01 00:47:00.000  -35.399198335  148.980010194   665.0090   6   8   0.1019   0.1276   0.1529   0.0112   0.0100   0.0725   0.00    0.0
2020/03/01 00:47:30.000  -35.399198331  148.980010144   665.0190   6   8   0.1009   0.1266   0.1511   0.0106   0.0105   0.0719   0.00    0.0
2020/03/01 00:48:00.000  -35.399198338  148.980010097   665.0245   6   8   0.0999   0.1255   0.1494   0.0100   0.0110   0.0712   0.00    0.0
2020/03/01 00:48:30.000  -35.399198326  148.980010091   665.0323   6   8   0.0990   0.1245   0.1476   0.0094   0.0114   0.0705   0.00    0.0
2020/03/01 00:49:00.000  -35.399198296  148.980010053   665.0396   6   8   0.0980   0.1235   0.1458   0.0087   0.0118   0.0698   0.00    0.0
2020/03/01 00:49:30.000  -35.399198241  148.980010050   665.0547   6   8   0.0970   0.1225   0.1440   0.0080   0.0122   0.0692   0.00    0.0
2020/03/01 00:50:00.000  -35.399198261  148.980009999   665.0588   6   8   0.0960   0.1215   0.1423   0.0072   0.0125   0.0685   0.00    0.0
2020/03/01 00:50:30.000  -35.399198258  148.980009925   665.0676   6   8   0.0950   0.1205   0.1406   0.0064   0.0128   0.0679   0.00    0.0
2020/03/01 00:51:00.000  -35.399198201  148.980009919   665.0739   6   8   0.0941   0.1195   0.1390   0.0056   0.0131   0.0673   0.00    0.0
2020/03/01 00:51:30.000  -35.399198200  148.980009869   665.0760   6   8   0.0932   0.1186   0.1374   0.0047   0.0134   0.0667   0.00    0.0
2020/03/01 00:52:00.000  -35.399198194  148.980009872   665.0846   6   8   0.0923   0.1177   0.1359   0.0038   0.0136   0.0661   0.00    0.0
2020/03/01 00:52:30.000  -35.399198187  148.980009887   665.0879   6   8   0.0915   0.1168   0.1345   0.0028   0.0139   0.0656   0.00    0.0
2020/03/01 00:53:00.000  -35.399198193  148.980009961   665.0851   6   8   0.0907   0.1160   0.1331   0.0010   0.0141   0.0650   0.00    0.0
2020/03/01 00:53:30.000  -35.399198162  148.980009915   665.0895   6   8   0.0898   0.1151   0.1317  -0.0024   0.0143   0.0645   0.00    0.0
2020/03/01 00:54:00.000  -35.399198142  148.980009884   665.0988   6   8   0.0890   0.1142   0.1303  -0.0036   0.0145   0.0640   0.00    0.0
2020/03/01 00:54:30.000  -35.399198138  148.980009801   665.1049   6   8   0.0881   0.1133   0.1289  -0.0044   0.0147   0.0634   0.00    0.0
2020/03/01 00:55:00.000  -35.399198121  148.980009761   665.1067   6   8   0.0873   0.1124   0.1275  -0.0051   0.0148   0.0629   0.00    0.0
2020/03/01 00:55:30.000  -35.399198125  148.980009717   665.0987   6   8   0.0864   0.1116   0.1261  -0.0056   0.0150   0.0624   0.00    0.0
2020/03/01 00:56:00.000  -35.399198113  148.980009668   665.1007   6   8   0.0856   0.1108   0.1248  -0.0061   0.0151   0.0619   0.00    0.0
2020/03/01 00:56:30.000  -35.399198107  148.980009685   665.0982   6   8   0.0849   0.1099   0.1236  -0.0064   0.0153   0.0614   0.00    0.0
2020/03/01 00:57:00.000  -35.399198087  148.980009675   665.1046   6   8   0.0841   0.1092   0.1224  -0.0067   0.0154   0.0609   0.00    0.0
2020/03/01 00:57:30.000  -35.399198065  148.980009663   665.0999   6   8   0.0834   0.1084   0.1213  -0.0069   0.0155   0.0605   0.00    0.0
2020/03/01 00:58:00.000  -35.399198048  148.980009641   665.1022   6   8   0.0827   0.1077   0.1201  -0.0072   0.0157   0.0600   0.00    0.0
2020/03/01 00:58:30.000  -35.399198035  148.980009621   665.1019   6   8   0.0820   0.1069   0.1190  -0.0074   0.0158   0.0596   0.00    0.0
2020/03/01 00:59:00.000  -35.399197999  148.980009648   665.1059   6   8   0.0812   0.1061   0.1178  -0.0076   0.0159   0.0591   0.00    0.0
2020/03/01 00:59:30.000  -35.399197972  148.980009549   665.1116   6   8   0.0805   0.1053   0.1167  -0.0078   0.0160   0.0587   0.00    0.0
2020/03/01 01:00:00.000  -35.399197964  148.980009519   665.1101   6   8   0.0798   0.1046   0.1156  -0.0080   0.0161   0.0583   0.00    0.0
2020/03/01 01:00:30.000  -35.399197925  148.980009463   665.1064   6   8   0.0790   0.1038   0.1145  -0.0082   0.0162   0.0578   0.00    0.0
2020/03/01 01:01:00.000  -35.399197883  148.980009384   665.1048   6   8   0.0783   0.1031   0.1135  -0.0083   0.0163   0.0574   0.00    0.0
2020/03/01 01:01:30.000  -35.399197825  148.980009296   665.1032   6   8   0.0777   0.1024   0.1125  -0.0084   0.0163   0.0570   0.00    0.0
2020/03/01 01:02:00.000  -35.399197811  148.980009231   665.1013   6   8   0.0770   0.1017   0.1115  -0.0085   0.0164   0.0566   0.00    0.0
2020/03/01 01:02:30.000  -35.399197808  148.980009179   665.1033   6   8   0.0764   0.1010   0.1106  -0.0085   0.0165   0.0563   0.00    0.0
2020/03/01 01:03:00.000  -35.399197780  148.980009161   665.1075   6   8   0.0758   0.1003   0.1097  -0.0086   0.0165   0.0559   0.00    0.0
2020/03/01 01:03:30.000  -35.399197733  148.980009050   665.1108   6   8   0.0752   0.0997   0.1087  -0.0086   0.0166   0.0555   0.00    0.0
2020/03/01 01:04:00.000  -35.399197727  148.980008996   665.1133   6   8   0.0745   0.0990   0.1078  -0.0087   0.0167   0.0551   0.00    0.0
2020/03/01 01:04:30.000  -35.399197715  148.980008882   665.1148   6   8   0.0739   0.0983   0.1069  -0.0087   0.0167   0.0548   0.00    0.0
2020/03/01 01:05:00.000  -35.399197674  148.980008767   665.1230   6   9   0.0732   0.0976   0.1060  -0.0089   0.0167   0.0544   0.00    0.0
2020/03/01 01:05:30.000  -35.399197618  148.980008699   665.1305   6   9   0.0726   0.0969   0.1051  -0.0091   0.0166   0.0540   0.00    0.0
2020/03/01 01:06:00.000  -35.399197613  148.980008675   665.1346   6   9   0.0719   0.0962   0.1042  -0.0092   0.0166   0.0537   0.00    0.0
2020/03/01 01:06:30.000  -35.399197613  148.980008656   665.1370   6   9   0.0713   0.0956   0.1034  -0.0093   0.0165   0.0533   0.00    0.0
2020/03/01 01:07:00.000  -35.399197614  148.980008625   665.1447   6   9   0.0708   0.0950   0.1026  -0.0095   0.0165   0.0530   0.00    0.0
2020/03/01 01:07:30.000  -35.399197620  148.980008569   665.1508   6  10   0.0702   0.0943   0.1019  -0.0095   0.0164   0.0526   0.00    0.0
2020/03/01 01:08:00.000  -35.399197618  148.980008532   665.1524   6  10   0.0697   0.0937   0.1011  -0.0095   0.0163   0.0523   0.00    0.0
2020/03/01 01:08:30.000  -35.399197609  148.980008439   665.1545   6   9   0.0691   0.0931   0.1006  -0.0095   0.0164   0.0522   0.00    0.0
2020/03/01 01:09:00.000  -35.399197603  148.980008429   665.1575   6   9   0.0686   0.0925   0.1002  -0.0095   0.0164   0.0521   0.00    0.0
2020/03/01 01:09:30.000  -35.399197613  148.980008387   665.1618   6   9   0.0681   0.0918   0.0997  -0.0095   0.0165   0.0520   0.00    0.0
2020/03/01 01:10:00.000  -35.399197584  148.980008340   665.1660   6   9   0.0676   0.0912   0.0992  -0.0095   0.0165   0.0519   0.00    0.0
2020/03/01 01:10:30.000  -35.399197556  148.980008293   665.1678   6   9   0.0671   0.0906   0.0988  -0.0095   0.0166   0.0518   0.00    0.0
2020/03/01 01:11:00.000  -35.399197537  148.980008263   665.1710   6   9   0.0666   0.0900   0.0983  -0.0094   0.0166   0.0517   0.00    0.0
2020/03/01 01:11:30.000  -35.399197524  148.980008196   665.1710   6   9   0.0662   0.0894   0.0979  -0.0094   0.0166   0.0516   0.00    0.0
2020/03/01 01:12:00.000  -35.399197504  148.980008117   665.1724   6   9   0.0657   0.0888   0.0975  -0.0093   0.0166   0.0514   0.00    0.0
2020/03/01 01:12:30.000  -35.399197507  148.980008072   665.1740   6   9   0.0653   0.0883   0.0971  -0.0093   0.0167   0.0513   0.00    0.0
2020/03/01 01:13:00.000  -35.399197497  148.980008020   665.1758   6   9   0.0648   0.0877   0.0967  -0.0092   0.0167   0.0512   0.00    0.0
2020/03/01 01:13:30.000  -35.399197484  148.980007939   665.1750   6   9   0.0644   0.0872   0.0963  -0.0091   0.0167   0.0511   0.00    0.0
2020/03/01 01:14:00.000  -35.399197482  148.980007901   665.1754   6   9   0.0639   0.0866   0.0959  -0.0090   0.0167   0.0510   0.00    0.0
2020/03/01 01:14:30.000  -35.399197466  148.980007824   665.1761   6   9   0.0635   0.0860   0.0954  -0.0090   0.0167   0.0508   0.00    0.0
2020/03/01 01:15:00.000  -35.399197434  148.980007763   665.1778   6   8   0.0630   0.0855   0.0953  -0.0089   0.0169   0.0507   0.00    0.0
2020/03/01 01:15:30.000  -35.399197408  148.980007732   665.1783   6   8   0.0626   0.0849   0.0951  -0.0088   0.0170   0.0506   0.00    0.0
2020/03/01 01:16:00.000  -35.399197402  148.980007747   665.1794   6   8   0.0621   0.0843   0.0950  -0.0087   0.0172   0.0505   0.00    0.0
2020/03/01 01:16:30.000  -35.399197381  148.980007705   665.1822   6   8   0.0617   0.0838   0.0949  -0.0085   0.0173   0.0505   0.00    0.0
2020/03/01 01:17:00.000  -35.399197375  148.980007692   665.1830   6   8   0.0613   0.0833   0.0947  -0.0084   0.0174   0.0504   0.00    0.0
2020/03/01 01:17:30.000  -35.399197379  148.980007668   665.1833   6   8   0.0609   0.0828   0.0946  -0.0083   0.0175   0.0503   0.00    0.0
2020/03/01 01:18:00.000  -35.399197363  148.980007634   665.1836   6   8   0.0605   0.0823   0.0944  -0.0082   0.0176   0.0502   0.00    0.0
2020/03/01 01:18:30.000  -35.399197330  148.980007613   665.1823   6   8   0.0601   0.0818   0.0943  -0.0081   0.0177   0.0501   0.00    0.0
2020/03/01 01:19:00.000  -35.399197299  148.980007577   665.1823   6   8   0.0597   0.0813   0.0942  -0.0079   0.0178   0.0500   0.00    0.0
2020/03/01 01:19:30.000  -35.399197265  148.980007526   665.1849   6   8   0.0593   0.0807   0.0940  -0.0078   0.0179   0.0499   0.00    0.0
2020/03/01 01:20:00.000  -35.399197254  148.980007455   665.1858   6   8   0.0589   0.0802   0.0939  -0.0076   0.0180   0.0498   0.00    0.0
2020/03/01 01:20:30.000  -35.399197262  148.980007377   665.1834   6   8   0.0585   0.0797   0.0937  -0.0075   0.0180   0.0497   0.00    0.0
2020/03/01 01:21:00.000  -35.399197257  148.980007305   665.1825   6   8   0.0581   0.0792   0.0936  -0.0073   0.0181   0.0496   0.00    0.0
2020/03/01 01:21:30.000  -35.399197229  148.980007242   665.1827   6   8   0.0577   0.0787   0.0934  -0.0071   0.0182   0.0496   0.00    0.0
2020/03/01 01:22:00.000  -35.399197194  148.980007196   665.1837   6   8   0.0574   0.0782   0.0933  -0.0070   0.0182   0.0495   0.00    0.0
2020/03/01 01:22:30.000  -35.399197174  148.980007154   665.1851   6   8   0.0570   0.0778   0.0931  -0.0068   0.0183   0.0494   0.00    0.0
2020/03/01 01:23:00.000  -35.399197131  148.980007083   665.1882   6   8   0.0567   0.0773   0.0930  -0.0066   0.0183   0.0493   0.00    0.0
2020/03/01 01:23:30.000  -35.399197088  148.980007011   665.1894   6   8   0.0563   0.0769   0.0928  -0.0065   0.0183   0.0492   0.00    0.0
2020/03/01 01:24:00.000  -35.399197069  148.980006970   665.1877   6   8   0.0559   0.0764   0.0927  -0.0063   0.0184   0.0491   0.00    0.0
2020/03/01 01:24:30.000  -35.399197067  148.980006912   665.1853   6   8   0.0555   0.0759   0.0925  -0.0061   0.0184   0.0491   0.00    0.0
2020/03/01 01:25:00.000  -35.399197055  148.980006860   665.1845   6   8   0.0552   0.0754   0.0923  -0.0059   0.0184   0.0490   0.00    0.0
2020/03/01 01:25:30.000  -35.399197040  148.980006804   665.1853   6   8   0.0548   0.0749   0.0922  -0.0057   0.0185   0.0489   0.00    0.0
2020/03/01 01:26:00.000  -35.399197019  148.980006751   665.1876   6   8   0.0545   0.0745   0.0920  -0.0055   0.0185   0.0488   0.00    0.0
2020/03/01 01:26:30.000  -35.399196987  148.980006686   665.1893   6   8   0.0541   0.0740   0.0919  -0.0053   0.0185   0.0487   0.00    0.0
2020/03/01 01:27:00.000  -35.399196959  148.980006660   665.1929   6   8   0.0538   0.0736   0.0917  -0.0051   0.0185   0.0486   0.00    0.0
2020/03/01 01:27:30.000  -35.399196952  148.980006655   665.1942   6   8   0.0535   0.0732   0.0916  -0.0048   0.0185   0.0486   0.00    0.0
2020/03/01 01:28:00.000  -35.399196958  148.980006648   665.1945   6   8   0.0532   0.0727   0.0914  -0.0046   0.0185   0.0485   0.00    0.0
2020/03/01 01:28:30.000  -35.399196958  148.980006605   665.1940   6   8   0.0529   0.0723   0.0912  -0.0044   0.0184   0.0484   0.00    0.0
2020/03/01 01:29:00.000  -35.399196955  148.980006549   665.1953   6   8   0.0525   0.0719   0.0911  -0.0041   0.0184   0.0483   0.00    0.0
2020/03/01 01:29:30.000  -35.399196961  148.980006490   665.1951   6   8   0.0522   0.0714   0.0909  -0.0039   0.0184   0.0482   0.00    0.0
2020/03/01 01:30:00.000  -35.399196963  148.980006379   665.1941   6   8   0.0519   0.0710   0.0907  -0.0036   0.0184   0.0481   0.00    0.0
2020/03/01 01:30:30.000  -35.399196955  148.980006281   665.1941   6   8   0.0515   0.0705   0.0905  -0.0033   0.0184   0.0480   0.00    0.0
2020/03/01 01:31:00.000  -35.399196943  148.980006171   665.1948   6   8   0.0512   0.0701   0.0904  -0.0030   0.0183   0.0480   0.00    0.0
2020/03/01 01:31:30.000  -35.399196928  148.980006086   665.1949   6   8   0.0509   0.0697   0.0902  -0.0027   0.0183   0.0479   0.00    0.0
2020/03/01 01:32:00.000  -35.399196919  148.980006027   665.1960   6   8   0.0506   0.0693   0.0900  -0.0023   0.0183   0.0478   0.00    0.0
2020/03/01 01:32:30.000  -35.399196916  148.980005968   665.1962   6   8   0.0504   0.0689   0.0899  -0.0020   0.0182   0.0477   0.00    0.0
2020/03/01 01:33:00.000  -35.399196906  148.980005952   665.1988   6   8   0.0501   0.0685   0.0897  -0.0015   0.0182   0.0476   0.00    0.0
2020/03/01 01:33:30.000  -35.399196895  148.980005949   665.1995   6   8   0.0498   0.0681   0.0895  -0.0007   0.0181   0.0475   0.00    0.0
2020/03/01 01:34:00.000  -35.399196875  148.980005940   665.2009   6   8   0.0495   0.0677   0.0893   0.0010   0.0180   0.0475   0.00    0.0
2020/03/01 01:34:30.000  -35.399196859  148.980005919   665.2009   6   8   0.0492   0.0673   0.0892   0.0016   0.0180   0.0474   0.00    0.0
2020/03/01 01:35:00.000  -35.399196840  148.980005922   665.2030   6   8   0.0489   0.0669   0.0890   0.0021   0.0179   0.0473   0.00    0.0
2020/03/01 01:35:30.000  -35.399196812  148.980005913   665.2054   6   8   0.0486   0.0665   0.0888   0.0024   0.0178   0.0472   0.00    0.0
2020/03/01 01:36:00.000  -35.399196802  148.980005891   665.2050   6   8   0.0483   0.0661   0.0886   0.0027   0.0178   0.0471   0.00    0.0
2020/03/01 01:36:30.000  -35.399196801  148.980005841   665.2031   6   8   0.0481   0.0657   0.0884   0.0029   0.0177   0.0470   0.00    0.0
2020/03/01 01:37:00.000  -35.399196793  148.980005776   665.2021   6   8   0.0478   0.0653   0.0882   0.0031   0.0176   0.0469   0.00    0.0
2020/03/01 01:37:30.000  -35.399196781  148.980005733   665.2038   6   8   0.0475   0.0650   0.0881   0.0033   0.0175   0.0468   0.00    0.0
2020/03/01 01:38:00.000  -35.399196771  148.980005693   665.2062   6   8   0.0473   0.0646   0.0879   0.0035   0.0174   0.0468   0.00    0.0
2020/03/01 01:38:30.000  -35.399196769  148.980005661   665.2061   6   8   0.0470   0.0642   0.0877   0.0036   0.0173   0.0467   0.00    0.0
2020/03/01 01:39:00.000  -35.399196752  148.980005608   665.2083   6   8   0.0468   0.0638   0.0875   0.0038   0.0172   0.0466   0.00    0.0
2020/03/01 01:39:30.000  -35.399196751  148.980005579   665.2093   6   8   0.0465   0.0635   0.0873   0.0039   0.0171   0.0465   0.00    0.0
2020/03/01 01:40:00.000  -35.399196747  148.980005554   665.2091   6   8   0.0462   0.0631   0.0871   0.0040   0.0170   0.0464   0.00    0.0
2020/03/01 01:40:30.000  -35.399196744  148.980005545   665.2089   6   8   0.0460   0.0627   0.0869   0.0041   0.0169   0.0463   0.00    0.0
2020/03/01 01:41:00.000  -35.399196737  148.980005540   665.2096   6   8   0.0457   0.0623   0.0867   0.0042   0.0168   0.0462   0.00    0.0
2020/03/01 01:41:30.000  -35.399196739  148.980005519   665.2092   6   8   0.0455   0.0620   0.0865   0.0043   0.0167   0.0461   0.00    0.0
2020/03/01 01:42:00.000  -35.399196743  148.980005500   665.2090   6   8   0.0452   0.0616   0.0863   0.0044   0.0166   0.0460   0.00    0.0
2020/03/01 01:42:30.000  -35.399196741  148.980005463   665.2097   6   8   0.0450   0.0613   0.0861   0.0045   0.0165   0.0459   0.00    0.0
2020/03/01 01:43:00.000  -35.399196747  148.980005435   665.2104   6   8   0.0448   0.0610   0.0859   0.0045   0.0163   0.0458   0.00    0.0
2020/03/01 01:43:30.000  -35.399196748  148.980005396   665.2118   6   8   0.0445   0.0606   0.0857   0.0046   0.0162   0.0457   0.00    0.0
2020/03/01 01:44:00.000  -35.399196750  148.980005363   665.2125   6   8   0.0443   0.0603   0.0855   0.0047   0.0161   0.0456   0.00    0.0
2020/03/01 01:44:30.000  -35.399196755  148.980005336   665.2121   6   8   0.0441   0.0599   0.0853   0.0047   0.0159   0.0455   0.00    0.0
2020/03/01 01:45:00.000  -35.399196758  148.980005302   665.2113   6   8   0.0438   0.0596   0.0851   0.0048   0.0158   0.0455   0.00    0.0
2020/03/01 01:45:30.000  -35.399196757  148.980005269   665.2117   6   8   0.0436   0.0592   0.0849   0.0048   0.0156   0.0454   0.00    0.0
2020/03/01 01:46:00.000  -35.399196752  148.980005246   665.2114   6   8   0.0433   0.0589   0.0847   0.0048   0.0155   0.0453   0.00    0.0
2020/03/01 01:46:30.000  -35.399196746  148.980005234   665.2140   6   8   0.0431   0.0585   0.0845   0.0048   0.0153   0.0452   0.00    0.0
2020/03/01 01:47:00.000  -35.399196734  148.980005199   665.2172   6   8   0.0429   0.0582   0.0843   0.0049   0.0152   0.0451   0.00    0.0
2020/03/01 01:47:30.000  -35.399196728  148.980005176   665.2190   6   8   0.0427   0.0579   0.0841   0.0049   0.0150   0.0450   0.00    0.0
2020/03/01 01:48:00.000  -35.399196729  148.980005167   665.2193   6   8   0.0425   0.0576   0.0839   0.0049   0.0149   0.0449   0.00    0.0
2020/03/01 01:48:30.000  -35.399196725  148.980005150   665.2211   6   8   0.0423   0.0573   0.0836   0.0049   0.0147   0.0448   0.00    0.0
2020/03/01 01:49:00.000  -35.399196728  148.980005118   665.2211   6   8   0.0421   0.0570   0.0834   0.0049   0.0145   0.0447   0.00    0.0
2020/03/01 01:49:30.000  -35.399196731  148.980005067   665.2213   6   8   0.0418   0.0566   0.0832   0.0049   0.0143   0.0445   0.00    0.0
2020/03/01 01:50:00.000  -35.399196733  148.980005035   665.2212   6   8   0.0416   0.0563   0.0830   0.0049   0.0141   0.0444   0.00    0.0
2020/03/01 01:50:30.000  -35.399196736  148.980005007   665.2198   6   8   0.0414   0.0560   0.0827   0.0049   0.0140   0.0443   0.00    0.0
2020/03/01 01:51:00.000  -35.399196739  148.980004990   665.2180   6   8   0.0412   0.0557   0.0825   0.0049   0.0138   0.0442   0.00    0.0
2020/03/01 01:51:30.000  -35.399196739  148.980004949   665.2164   6   8   0.0410   0.0554   0.0823   0.0048   0.0136   0.0441   0.00    0.0
2020/03/01 01:52:00.000  -35.399196734  148.980004925   665.2177   6   8   0.0408   0.0551   0.0821   0.0048   0.0134   0.0440   0.00    0.0
2020/03/01 01:52:30.000  -35.399196742  148.980004912   665.2191   6   8   0.0406   0.0548   0.0819   0.0048   0.0132   0.0439   0.00    0.0
2020/03/01 01:53:00.000  -35.399196740  148.980004899   665.2201   6   8   0.0404   0.0545   0.0817   0.0048   0.0130   0.0438   0.00    0.0
2020/03/01 01:53:30.000  -35.399196742  148.980004855   665.2188   6   8   0.0402   0.0542   0.0814   0.0047   0.0128   0.0437   0.00    0.0
2020/03/01 01:54:00.000  -35.399196748  148.980004822   665.2182   6   8   0.0400   0.0539   0.0812   0.0047   0.0126   0.0436   0.00    0.0
2020/03/01 01:54:30.000  -35.399196742  148.980004815   665.2178   6   8   0.0398   0.0536   0.0810   0.0046   0.0123   0.0435   0.00    0.0
2020/03/01 01:55:00.000  -35.399196739  148.980004800   665.2177   6   8   0.0396   0.0533   0.0807   0.0046   0.0121   0.0434   0.00    0.0
2020/03/01 01:55:30.000  -35.399196740  148.980004756   665.2167   6   8   0.0394   0.0530   0.0805   0.0045   0.0118   0.0433   0.00    0.0
2020/03/01 01:56:00.000  -35.399196751  148.980004749   665.2153   6   8   0.0392   0.0527   0.0803   0.0045   0.0116   0.0431   0.00    0.0
2020/03/01 01:56:30.000  -35.399196755  148.980004701   665.2133   6   8   0.0390   0.0524   0.0800   0.0044   0.0114   0.0430   0.00    0.0
2020/03/01 01:57:00.000  -35.399196754  148.980004642   665.2130   6   8   0.0389   0.0522   0.0798   0.0043   0.0111   0.0429   0.00    0.0
2020/03/01 01:57:30.000  -35.399196765  148.980004604   665.2108   6   8   0.0387   0.0519   0.0796   0.0043   0.0109   0.0428   0.00    0.0
2020/03/01 01:58:00.000  -35.399196757  148.980004578   665.2127   6   8   0.0385   0.0516   0.0794   0.0042   0.0106   0.0427   0.00    0.0
2020/03/01 01:58:30.000  -35.399196755  148.980004557   665.2134   6   8   0.0383   0.0514   0.0791   0.0041   0.0104   0.0426   0.00    0.0
2020/03/01 01:59:00.000  -35.399196752  148.980004521   665.2146   6   8   0.0381   0.0511   0.0789   0.0040   0.0101   0.0425   0.00    0.0
2020/03/01 01:59:30.000  -35.399196755  148.980004491   665.2149   6   8   0.0380   0.0508   0.0786   0.0039   0.0098   0.0424   0.00    0.0
2020/03/01 02:00:00.000  -35.399196765  148.980004463   665.2137   6   8   0.0378   0.0505   0.0784   0.0038   0.0095   0.0422   0.00    0.0
2020/03/01 02:00:30.000  -35.399196773  148.980004440   665.2117   6   8   0.0376   0.0503   0.0782   0.0037   0.0091   0.0421   0.00    0.0
2020/03/01 02:01:00.000  -35.399196767  148.980004411   665.2130   6   8   0.0374   0.0500   0.0779   0.0036   0.0088   0.0420   0.00    0.0
2020/03/01 02:01:30.000  -35.399196773  148.980004378   665.2125   6   8   0.0373   0.0497   0.0777   0.0035   0.0085   0.0419   0.00    0.0
2020/03/01 02:02:00.000  -35.399196775  148.980004347   665.2130   6   8   0.0371   0.0495   0.0774   0.0034   0.0082   0.0418   0.00    0.0
2020/03/01 02:02:30.000  -35.399196779  148.980004317   665.2125   6   8   0.0369   0.0492   0.0772   0.0033   0.0078   0.0417   0.00    0.0
2020/03/01 02:03:00.000  -35.399196781  148.980004298   665.2124   6   8   0.0368   0.0490   0.0770   0.0031   0.0075   0.0415   0.00    0.0
2020/03/01 02:03:30.000  -35.399196788  148.980004293   665.2122   6   8   0.0366   0.0487   0.0767   0.0030   0.0071   0.0414   0.00    0.0
2020/03/01 02:04:00.000  -35.399196787  148.980004248   665.2103   6   8   0.0364   0.0485   0.0765   0.0028   0.0067   0.0413   0.00    0.0
2020/03/01 02:04:30.000  -35.399196787  148.980004198   665.2090   6   8   0.0363   0.0482   0.0762   0.0026   0.0062   0.0412   0.00    0.0
2020/03/01 02:05:00.000  -35.399196791  148.980004155   665.2085   6   8   0.0361   0.0480   0.0760   0.0025   0.0057   0.0411   0.00    0.0
2020/03/01 02:05:30.000  -35.399196790  148.980004118   665.2073   6   8   0.0359   0.0477   0.0757   0.0022   0.0052   0.0409   0.00    0.0
2020/03/01 02:06:00.000  -35.399196795  148.980004070   665.2053   6   8   0.0357   0.0475   0.0755   0.0020   0.0046   0.0408   0.00    0.0
2020/03/01 02:06:30.000  -35.399196790  148.980004052   665.2068   6   8   0.0356   0.0472   0.0753   0.0017   0.0040   0.0407   0.00    0.0
2020/03/01 02:07:00.000  -35.399196786  148.980004007   665.2071   6   8   0.0354   0.0470   0.0750   0.0015   0.0033   0.0406   0.00    0.0
2020/03/01 02:07:30.000  -35.399196776  148.980003983   665.2095   6   8   0.0353   0.0468   0.0748   0.0011   0.0023   0.0405   0.00    0.0
2020/03/01 02:08:00.000  -35.399196771  148.980003947   665.2119   6   8   0.0351   0.0465   0.0746   0.0005   0.0004   0.0403   0.00    0.0
2020/03/01 02:08:30.000  -35.399196771  148.980003943   665.2133   6   8   0.0350   0.0463   0.0743  -0.0009  -0.0023   0.0402   0.00    0.0
2020/03/01 02:09:00.000  -35.399196775  148.980003926   665.2137   6   8   0.0348   0.0461   0.0741  -0.0014  -0.0033   0.0401   0.00    0.0
2020/03/01 02:09:30.000  -35.399196779  148.980003920   665.2133   6   8   0.0347   0.0458   0.0738  -0.0017  -0.0041   0.0400   0.00    0.0
2020/03/01 02:10:00.000  -35.399196784  148.980003912   665.2131   6   8   0.0345   0.0456   0.0736  -0.0020  -0.0047   0.0398   0.00    0.0
2020/03/01 02:10:30.000  -35.399196784  148.980003898   665.2142   6   8   0.0343   0.0454   0.0733  -0.0023  -0.0053   0.0397   0.00    0.0
2020/03/01 02:11:00.000  -35.399196794  148.980003896   665.2132   6   8   0.0342   0.0451   0.0731  -0.0025  -0.0057   0.0396   0.00    0.0
2020/03/01 02:11:30.000  -35.399196798  148.980003885   665.2136   6   8   0.0340   0.0449   0.0728  -0.0027  -0.0062   0.0395   0.00    0.0
2020/03/01 02:12:00.000  -35.399196796  148.980003859   665.2143   6   8   0.0339   0.0447   0.0726  -0.0029  -0.0066   0.0393   0.00    0.0
2020/03/01 02:12:30.000  -35.399196797  148.980003827   665.2140   6   8   0.0338   0.0445   0.0724  -0.0031  -0.0069   0.0392   0.00    0.0
2020/03/01 02:13:00.000  -35.399196792  148.980003812   665.2152   6   8   0.0336   0.0443   0.0721  -0.0032  -0.0073   0.0391   0.00    0.0
2020/03/01 02:13:30.000  -35.399196791  148.980003804   665.2145   6   8   0.0335   0.0441   0.0719  -0.0034  -0.0076   0.0390   0.00    0.0
2020/03/01 02:14:00.000  -35.399196789  148.980003788   665.2154   6   8   0.0333   0.0439   0.0716  -0.0035  -0.0080   0.0388   0.00    0.0
2020/03/01 02:14:30.000  -35.399196799  148.980003774   665.2135   6   8   0.0332   0.0437   0.0714  -0.0037  -0.0083   0.0387   0.00    0.0
2020/03/01 02:15:00.000  -35.399196808  148.980003754   665.2108   6   8   0.0330   0.0434   0.0711  -0.0039  -0.0086   0.0386   0.00    0.0
2020/03/01 02:15:30.000  -35.399196811  148.980003743   665.2099   6   9   0.0329   0.0432   0.0709  -0.0040  -0.0089   0.0385   0.00    0.0
2020/03/01 02:16:00.000  -35.399196812  148.980003732   665.2090   6   9   0.0327   0.0430   0.0706  -0.0042  -0.0092   0.0383   0.00    0.0
2020/03/01 02:16:30.000  -35.399196818  148.980003713   665.2079   6   9   0.0326   0.0428   0.0704  -0.0043  -0.0095   0.0382   0.00    0.0
2020/03/01 02:17:00.000  -35.399196825  148.980003691   665.2061   6   9   0.0325   0.0426   0.0701  -0.0044  -0.0097   0.0381   0.00    0.0
2020/03/01 02:17:30.000  -35.399196835  148.980003668   665.2057   6   9   0.0323   0.0424   0.0699  -0.0046  -0.0100   0.0379   0.00    0.0
2020/03/01 02:18:00.000  -35.399196844  148.980003645   665.2036   6   9   0.0322   0.0422   0.0697  -0.0047  -0.0102   0.0378   0.00    0.0
2020/03/01 02:18:30.000  -35.399196853  148.980003625   665.2018   6   9   0.0321   0.0420   0.0694  -0.0048  -0.0104   0.0377   0.00    0.0
2020/03/01 02:19:00.000  -35.399196856  148.980003617   665.2015   6   9   0.0319   0.0418   0.0692  -0.0049  -0.0107   0.0376   0.00    0.0
2020/03/01 02:19:30.000  -35.399196858  148.980003609   665.2009   6   9   0.0318   0.0416   0.0689  -0.0051  -0.0109   0.0374   0.00    0.0
2020/03/01 02:20:00.000  -35.399196854  148.980003602   665.2026   6   9   0.0316   0.0414   0.0686  -0.0052  -0.0111   0.0373   0.00    0.0
2020/03/01 02:20:30.000  -35.399196858  148.980003580   665.2018   6   9   0.0315   0.0412   0.0684  -0.0053  -0.0114   0.0372   0.00    0.0
2020/03/01 02:21:00.000  -35.399196867  148.980003572   665.2014   6   9   0.0314   0.0411   0.0681  -0.0054  -0.0116   0.0370   0.00    0.0
2020/03/01 02:21:30.000  -35.399196865  148.980003564   665.2023   6   9   0.0312   0.0409   0.0679  -0.0055  -0.0118   0.0369   0.00    0.0
2020/03/01 02:22:00.000  -35.399196870  148.980003541   665.2025   6   9   0.0311   0.0407   0.0677  -0.0056  -0.0119   0.0368   0.00    0.0
2020/03/01 02:22:30.000  -35.399196876  148.980003501   665.2015   6   9   0.0310   0.0405   0.0674  -0.0057  -0.0121   0.0367   0.00    0.0
2020/03/01 02:23:00.000  -35.399196877  148.980003480   665.2027   6   9   0.0309   0.0403   0.0672  -0.0058  -0.0123   0.0365   0.00    0.0
2020/03/01 02:23:30.000  -35.399196869  148.980003460   665.2048   6   9   0.0307   0.0402   0.0670  -0.0059  -0.0125   0.0364   0.00    0.0
2020/03/01 02:24:00.000  -35.399196874  148.980003429   665.2040   6   9   0.0306   0.0400   0.0667  -0.0060  -0.0126   0.0363   0.00    0.0
2020/03/01 02:24:30.000  -35.399196879  148.980003424   665.2037   6   9   0.0305   0.0398   0.0665  -0.0061  -0.0128   0.0361   0.00    0.0
2020/03/01 02:25:00.000  -35.399196887  148.980003408   665.2038   6   9   0.0303   0.0396   0.0662  -0.0062  -0.0130   0.0360   0.00    0.0
2020/03/01 02:25:30.000  -35.399196891  148.980003397   665.2044   6   9   0.0302   0.0394   0.0660  -0.0063  -0.0132   0.0359   0.00    0.0
2020/03/01 02:26:00.000  -35.399196891  148.980003371   665.2047   6   9   0.0301   0.0393   0.0657  -0.0064  -0.0133   0.0357   0.00    0.0
2020/03/01 02:26:30.000  -35.399196886  148.980003361   665.2073   6   9   0.0300   0.0391   0.0655  -0.0064  -0.0135   0.0356   0.00    0.0
2020/03/01 02:27:00.000  -35.399196891  148.980003341   665.2077   6   9   0.0298   0.0389   0.0653  -0.0065  -0.0136   0.0355   0.00    0.0
2020/03/01 02:27:30.000  -35.399196904  148.980003317   665.2060   6   9   0.0297   0.0388   0.0650  -0.0066  -0.0137   0.0354   0.00    0.0
2020/03/01 02:28:00.000  -35.399196911  148.980003304   665.2041   6   9   0.0296   0.0386   0.0648  -0.0067  -0.0139   0.0352   0.00    0.0
2020/03/01 02:28:30.000  -35.399196912  148.980003303   665.2038   6   9   0.0295   0.0385   0.0646  -0.0067  -0.0140   0.0351   0.00    0.0
2020/03/01 02:29:00.000  -35.399196906  148.980003312   665.2061   6   9   0.0294   0.0383   0.0643  -0.0068  -0.0141   0.0350   0.00    0.0
2020/03/01 02:29:30.000  -35.399196906  148.980003319   665.2070   6   8   0.0293   0.0381   0.0641  -0.0068  -0.0142   0.0349   0.00    0.0
2020/03/01 02:30:00.000  -35.399196902  148.980003314   665.2083   6   8   0.0292   0.0380   0.0639  -0.0068  -0.0142   0.0348   0.00    0.0
2020/03/01 02:30:30.000  -35.399196899  148.980003307   665.2094   6   8   0.0291   0.0378   0.0637  -0.0068  -0.0143   0.0347   0.00    0.0
2020/03/01 02:31:00.000  -35.399196898  148.980003292   665.2102   6   8   0.0290   0.0377   0.0636  -0.0068  -0.0144   0.0346   0.00    0.0
2020/03/01 02:31:30.000  -35.399196899  148.980003287   665.2097   6   8   0.0289   0.0375   0.0634  -0.0068  -0.0144   0.0345   0.00    0.0
2020/03/01 02:32:00.000  -35.399196896  148.980003284   665.2103   6   8   0.0288   0.0374   0.0632  -0.0068  -0.0145   0.0345   0.00    0.0
2020/03/01 02:32:30.000  -35.399196891  148.980003281   665.2108   6   8   0.0287   0.0373   0.0630  -0.0068  -0.0145   0.0344   0.00    0.0
2020/03/01 02:33:00.000  -35.399196887  148.980003279   665.2116   6   8   0.0286   0.0371   0.0628  -0.0069  -0.0146   0.0343   0.00    0.0
2020/03/01 02:33:30.000  -35.399196885  148.980003268   665.2111   6   8   0.0285   0.0370   0.0626  -0.0069  -0.0146   0.0342   0.00    0.0
2020/03/01 02:34:00.000  -35.399196881  148.980003258   665.2116   6   8   0.0284   0.0369   0.0624  -0.0069  -0.0147   0.0341   0.00    0.0
2020/03/01 02:34:30.000  -35.399196877  148.980003245   665.2103   6   8   0.0283   0.0367   0.0622  -0.0069  -0.0147   0.0340   0.00    0.0
2020/03/01 02:35:00.000  -35.399196882  148.980003232   665.2102   6   8   0.0282   0.0366   0.0620  -0.0069  -0.0148   0.0339   0.00    0.0
2020/03/01 02:35:30.000  -35.399196882  148.980003225   665.2086   6   8   0.0281   0.0364   0.0618  -0.0069  -0.0148   0.0338   0.00    0.0
2020/03/01 02:36:00.000  -35.399196885  148.980003223   665.2081   6   8   0.0280   0.0363   0.0617  -0.0069  -0.0149   0.0337   0.00    0.0
2020/03/01 02:36:30.000  -35.399196885  148.980003223   665.2089   6   8   0.0279   0.0362   0.0615  -0.0070  -0.0150   0.0336   0.00    0.0
2020/03/01 02:37:00.000  -35.399196887  148.980003226   665.2093   6   8   0.0278   0.0361   0.0613  -0.0070  -0.0150   0.0335   0.00    0.0
2020/03/01 02:37:30.000  -35.399196892  148.980003218   665.2098   6   8   0.0277   0.0359   0.0611  -0.0070  -0.0150   0.0334   0.00    0.0
2020/03/01 02:38:00.000  -35.399196898  148.980003209   665.2091   6   8   0.0276   0.0358   0.0609  -0.0070  -0.0151   0.0333   0.00    0.0
2020/03/01 02:38:30.000  -35.399196904  148.980003199   665.2087   6   8   0.0275   0.0357   0.0607  -0.0070  -0.0151   0.0332   0.00    0.0
2020/03/01 02:39:00.000  -35.399196905  148.980003186   665.2088   6   8   0.0275   0.0355   0.0605  -0.0070  -0.0152   0.0331   0.00    0.0
2020/03/01 02:39:30.000  -35.399196907  148.980003175   665.2077   6   8   0.0274   0.0354   0.0603  -0.0071  -0.0153   0.0330   0.00    0.0
2020/03/01 02:40:00.000  -35.399196907  148.980003159   665.2066   6   8   0.0273   0.0353   0.0601  -0.0071  -0.0153   0.0329   0.00    0.0
2020/03/01 02:40:30.000  -35.399196910  148.980003148   665.2062   6   8   0.0272   0.0352   0.0599  -0.0071  -0.0154   0.0328   0.00    0.0
2020/03/01 02:41:00.000  -35.399196911  148.980003129   665.2070   6   8   0.0271   0.0350   0.0598  -0.0071  -0.0154   0.0327   0.00    0.0
2020/03/01 02:41:30.000  -35.399196911  148.980003120   665.2073   6   8   0.0270   0.0349   0.0596  -0.0071  -0.0154   0.0326   0.00    0.0
2020/03/01 02:42:00.000  -35.399196910  148.980003120   665.2078   6   8   0.0269   0.0348   0.0594  -0.0072  -0.0155   0.0325   0.00    0.0
2020/03/01 02:42:30.000  -35.399196912  148.980003115   665.2073   6   8   0.0268   0.0347   0.0592  -0.0072  -0.0155   0.0324   0.00    0.0
2020/03/01 02:43:00.000  -35.399196913  148.980003113   665.2077   6   8   0.0267   0.0346   0.0590  -0.0072  -0.0156   0.0324   0.00    0.0
2020/03/01 02:43:30.000  -35.399196909  148.980003101   665.2080   6   8   0.0266   0.0344   0.0588  -0.0072  -0.0156   0.0323   0.00    0.0
2020/03/01 02:44:00.000  -35.399196905  148.980003101   665.2084   6   8   0.0265   0.0343   0.0586  -0.0072  -0.0157   0.0321   0.00    0.0
2020/03/01 02:44:30.000  -35.399196907  148.980003102   665.2079   6   8   0.0265   0.0342   0.0585  -0.0073  -0.0157   0.0320   0.00    0.0
2020/03/01 02:45:00.000  -35.399196907  148.980003096   665.2076   6   8   0.0264   0.0341   0.0583  -0.0073  -0.0158   0.0319   0.00    0.0
2020/03/01 02:45:30.000  -35.399196907  148.980003084   665.2072   6   8   0.0263   0.0340   0.0581  -0.0073  -0.0158   0.0318   0.00    0.0
2020/03/01 02:46:00.000  -35.399196914  148.980003082   665.2073   6   8   0.0262   0.0339   0.0579  -0.0073  -0.0158   0.0317   0.00    0.0
2020/03/01 02:46:30.000  -35.399196914  148.980003056   665.2075   6   8   0.0261   0.0337   0.0577  -0.0074  -0.0159   0.0316   0.00    0.0
2020/03/01 02:47:00.000  -35.399196920  148.980003032   665.2065   6   8   0.0260   0.0336   0.0575  -0.0074  -0.0159   0.0315   0.00    0.0
2020/03/01 02:47:30.000  -35.399196924  148.980003007   665.2059   6   8   0.0259   0.0335   0.0573  -0.0074  -0.0160   0.0314   0.00    0.0
2020/03/01 02:48:00.000  -35.399196931  148.980002990   665.2055   6   8   0.0258   0.0334   0.0572  -0.0074  -0.0160   0.0313   0.00    0.0
2020/03/01 02:48:30.000  -35.399196936  148.980002966   665.2049   6   8   0.0258   0.0333   0.0570  -0.0075  -0.0160   0.0312   0.00    0.0
2020/03/01 02:49:00.000  -35.399196940  148.980002944   665.2037   6   8   0.0257   0.0332   0.0568  -0.0075  -0.0161   0.0311   0.00    0.0
2020/03/01 02:49:30.000  -35.399196947  148.980002937   665.2019   6   8   0.0256   0.0331   0.0566  -0.0075  -0.0161   0.0310   0.00    0.0
2020/03/01 02:50:00.000  -35.399196949  148.980002933   665.2017   6   8   0.0255   0.0330   0.0564  -0.0075  -0.0161   0.0309   0.00    0.0
2020/03/01 02:50:30.000  -35.399196954  148.980002932   665.2011   6   8   0.0254   0.0329   0.0562  -0.0075  -0.0162   0.0308   0.00    0.0
2020/03/01 02:51:00.000  -35.399196957  148.980002918   665.2008   6   8   0.0253   0.0328   0.0560  -0.0076  -0.0162   0.0307   0.00    0.0
2020/03/01 02:51:30.000  -35.399196963  148.980002925   665.2001   6   8   0.0252   0.0327   0.0559  -0.0076  -0.0162   0.0306   0.00    0.0
2020/03/01 02:52:00.000  -35.399196970  148.980002924   665.1975   6   8   0.0251   0.0326   0.0557  -0.0076  -0.0163   0.0305   0.00    0.0
2020/03/01 02:52:30.000  -35.399196972  148.980002921   665.1971   6   8   0.0251   0.0325   0.0555  -0.0076  -0.0163   0.0304   0.00    0.0
2020/03/01 02:53:00.000  -35.399196975  148.980002923   665.1959   6   8   0.0250   0.0324   0.0553  -0.0076  -0.0163   0.0303   0.00    0.0
2020/03/01 02:53:30.000  -35.399196981  148.980002931   665.1957   6   9   0.0249   0.0323   0.0552  -0.0077  -0.0164   0.0302   0.00    0.0
2020/03/01 02:54:00.000  -35.399196981  148.980002922   665.1941   6   9   0.0248   0.0322   0.0550  -0.0077  -0.0164   0.0301   0.00    0.0
2020/03/01 02:54:30.000  -35.399196985  148.980002913   665.1933   6   9   0.0247   0.0321   0.0548  -0.0077  -0.0164   0.0300   0.00    0.0
2020/03/01 02:55:00.000  -35.399196980  148.980002902   665.1935   6   9   0.0246   0.0320   0.0546  -0.0077  -0.0164   0.0299   0.00    0.0
2020/03/01 02:55:30.000  -35.399196985  148.980002891   665.1921   6   9   0.0246   0.0319   0.0544  -0.0078  -0.0165   0.0298   0.00    0.0
2020/03/01 02:56:00.000  -35.399196984  148.980002879   665.1923   6   9   0.0245   0.0318   0.0542  -0.0078  -0.0165   0.0297   0.00    0.0
2020/03/01 02:56:30.000  -35.399196988  148.980002874   665.1922   6   9   0.0244   0.0317   0.0541  -0.0078  -0.0165   0.0296   0.00    0.0
2020/03/01 02:57:00.000  -35.399196984  148.980002868   665.1923   6   9   0.0243   0.0316   0.0539  -0.0078  -0.0165   0.0295   0.00    0.0
2020/03/01 02:57:30.000  -35.399196987  148.980002870   665.1927   6   8   0.0242   0.0315   0.0537  -0.0078  -0.0166   0.0294   0.00    0.0
2020/03/01 02:58:00.000  -35.399196987  148.980002865   665.1924   6   8   0.0242   0.0314   0.0536  -0.0079  -0.0166   0.0293   0.00    0.0
2020/03/01 02:58:30.000  -35.399196983  148.980002860   665.1934   6   8   0.0241   0.0313   0.0534  -0.0079  -0.0166   0.0292   0.00    0.0
2020/03/01 02:59:00.000  -35.399196983  148.980002860   665.1932   6   8   0.0240   0.0312   0.0532  -0.0080  -0.0166   0.0291   0.00    0.0
2020/03/01 02:59:30.000  -35.399196980  148.980002856   665.1935   6   8   0.0239   0.0311   0.0530  -0.0080  -0.0167   0.0290   0.00    0.0
2020/03/01 03:00:00.000  -35.399196977  148.980002846   665.1946   6   8   0.0239   0.0311   0.0528  -0.0080  -0.0167   0.0289   0.00    0.0
2020/03/01 03:00:30.000  -35.399196981  148.980002834   665.1934   6   8   0.0238   0.0310   0.0527  -0.0081  -0.0167   0.0288   0.00    0.0
2020/03/01 03:01:00.000  -35.399196981  148.980002823   665.1920   6   8   0.0237   0.0309   0.0525  -0.0081  -0.0167   0.0287   0.00    0.0
2020/03/01 03:01:30.000  -35.399196984  148.980002815   665.1914   6   8   0.0236   0.0308   0.0523  -0.0081  -0.0167   0.0286   0.00    0.0
2020/03/01 03:02:00.000  -35.399196983  148.980002807   665.1929   6   8   0.0236   0.0307   0.0522  -0.0082  -0.0167   0.0285   0.00    0.0
2020/03/01 03:02:30.000  -35.399196984  148.980002795   665.1925   6   8   0.0235   0.0306   0.0520  -0.0082  -0.0167   0.0284   0.00    0.0
2020/03/01 03:03:00.000  -35.399196988  148.980002785   665.1914   6   8   0.0234   0.0306   0.0518  -0.0082  -0.0168   0.0283   0.00    0.0
2020/03/01 03:03:30.000  -35.399196988  148.980002777   665.1913   6   8   0.0234   0.0305   0.0517  -0.0082  -0.0168   0.0282   0.00    0.0
2020/03/01 03:04:00.000  -35.399196991  148.980002763   665.1908   6   8   0.0233   0.0304   0.0515  -0.0083  -0.0168   0.0281   0.00    0.0
2020/03/01 03:04:30.000  -35.399196991  148.980002757   665.1910   6   8   0.0232   0.0303   0.0513  -0.0083  -0.0168   0.0280   0.00    0.0
2020/03/01 03:05:00.000  -35.399196991  148.980002752   665.1910   6   8   0.0231   0.0302   0.0512  -0.0083  -0.0168   0.0279   0.00    0.0
2020/03/01 03:05:30.000  -35.399196993  148.980002741   665.1908   6   8   0.0231   0.0302   0.0510  -0.0083  -0.0168   0.0278   0.00    0.0
2020/03/01 03:06:00.000  -35.399196988  148.980002739   665.1924   6   8   0.0230   0.0301   0.0508  -0.0084  -0.0168   0.0277   0.00    0.0
2020/03/01 03:06:30.000  -35.399196985  148.980002734   665.1933   6   8   0.0229   0.0300   0.0507  -0.0084  -0.0168   0.0276   0.00    0.0
2020/03/01 03:07:00.000  -35.399196983  148.980002735   665.1944   6   8   0.0229   0.0299   0.0505  -0.0084  -0.0168   0.0275   0.00    0.0
2020/03/01 03:07:30.000  -35.399196985  148.980002739   665.1944   6   8   0.0228   0.0299   0.0504  -0.0084  -0.0168   0.0274   0.00    0.0
2020/03/01 03:08:00.000  -35.399196987  148.980002741   665.1943   6   8   0.0227   0.0298   0.0502  -0.0084  -0.0168   0.0273   0.00    0.0
2020/03/01 03:08:30.000  -35.399196991  148.980002740   665.1941   6   8   0.0226   0.0297   0.0501  -0.0085  -0.0168   0.0272   0.00    0.0
2020/03/01 03:09:00.000  -35.399196991  148.980002736   665.1935   6   8   0.0226   0.0296   0.0499  -0.0085  -0.0168   0.0271   0.00    0.0
2020/03/01 03:09:30.000  -35.399196996  148.980002739   665.1928   6   8   0.0225   0.0295   0.0497  -0.0085  -0.0168   0.0270   0.00    0.0
2020/03/01 03:10:00.000  -35.399196995  148.980002740   665.1931   6   8   0.0224   0.0295   0.0496  -0.0085  -0.0168   0.0269   0.00    0.0
2020/03/01 03:10:30.000  -35.399197000  148.980002737   665.1927   6   8   0.0224   0.0294   0.0494  -0.0085  -0.0168   0.0268   0.00    0.0
2020/03/01 03:11:00.000  -35.399197008  148.980002733   665.1918   6   8   0.0223   0.0293   0.0492  -0.0085  -0.0168   0.0267   0.00    0.0
2020/03/01 03:11:30.000  -35.399197015  148.980002725   665.1904   6   7   0.0222   0.0292   0.0491  -0.0085  -0.0168   0.0266   0.00    0.0
2020/03/01 03:12:00.000  -35.399197026  148.980002727   665.1884   6   7   0.0222   0.0292   0.0490  -0.0086  -0.0168   0.0265   0.00    0.0
2020/03/01 03:12:30.000  -35.399197031  148.980002725   665.1876   6   7   0.0221   0.0291   0.0489  -0.0086  -0.0168   0.0264   0.00    0.0
2020/03/01 03:13:00.000  -35.399197035  148.980002719   665.1863   6   7   0.0220   0.0290   0.0488  -0.0086  -0.0168   0.0263   0.00    0.0
2020/03/01 03:13:30.000  -35.399197037  148.980002712   665.1857   6   7   0.0220   0.0290   0.0487  -0.0086  -0.0168   0.0262   0.00    0.0
2020/03/01 03:14:00.000  -35.399197042  148.980002707   665.1844   6   7   0.0219   0.0289   0.0486  -0.0086  -0.0167   0.0261   0.00    0.0
2020/03/01 03:14:30.000  -35.399197045  148.980002696   665.1836   6   7   0.0218   0.0288   0.0485  -0.0086  -0.0167   0.0260   0.00    0.0
2020/03/01 03:15:00.000  -35.399197038  148.980002691   665.1847   6   7   0.0217   0.0288   0.0484  -0.0086  -0.0167   0.0259   0.00    0.0
2020/03/01 03:15:30.000  -35.399197031  148.980002685   665.1855   6   7   0.0217   0.0287   0.0482  -0.0086  -0.0167   0.0258   0.00    0.0
2020/03/01 03:16:00.000  -35.399197033  148.980002686   665.1847   6   7   0.0216   0.0286   0.0481  -0.0086  -0.0167   0.0258   0.00    0.0
2020/03/01 03:16:30.000  -35.399197035  148.980002681   665.1837   6   7   0.0215   0.0286   0.0480  -0.0086  -0.0166   0.0257   0.00    0.0
2020/03/01 03:17:00.000  -35.399197035  148.980002670   665.1831   6   7   0.0215   0.0285   0.0479  -0.0086  -0.0166   0.0256   0.00    0.0
2020/03/01 03:17:30.000  -35.399197034  148.980002662   665.1826   6   7   0.0214   0.0284   0.0478  -0.0086  -0.0166   0.0255   0.00    0.0
2020/03/01 03:18:00.000  -35.399197032  148.980002664   665.1830   6   7   0.0214   0.0284   0.0477  -0.0086  -0.0166   0.0254   0.00    0.0
2020/03/01 03:18:30.000  -35.399197030  148.980002660   665.1833   6   7   0.0213   0.0283   0.0476  -0.0086  -0.0166   0.0253   0.00    0.0
2020/03/01 03:19:00.000  -35.399197028  148.980002657   665.1836   6   7   0.0212   0.0282   0.0475  -0.0086  -0.0165   0.0252   0.00    0.0
2020/03/01 03:19:30.000  -35.399197031  148.980002653   665.1829   6   7   0.0212   0.0282   0.0474  -0.0086  -0.0165   0.0251   0.00    0.0
2020/03/01 03:20:00.000  -35.399197034  148.980002648   665.1821   6   7   0.0211   0.0281   0.0472  -0.0086  -0.0165   0.0250   0.00    0.0
2020/03/01 03:20:30.000  -35.399197038  148.980002646   665.1814   6   7   0.0210   0.0280   0.0471  -0.0086  -0.0164   0.0249   0.00    0.0
2020/03/01 03:21:00.000  -35.399197039  148.980002643   665.1810   6   7   0.0210   0.0280   0.0470  -0.0086  -0.0164   0.0248   0.00    0.0
2020/03/01 03:21:30.000  -35.399197040  148.980002637   665.1806   6   7   0.0209   0.0279   0.0469  -0.0086  -0.0164   0.0247   0.00    0.0
2020/03/01 03:22:00.000  -35.399197042  148.980002632   665.1797   6   7   0.0208   0.0278   0.0468  -0.0086  -0.0164   0.0246   0.00    0.0
2020/03/01 03:22:30.000  -35.399197040  148.980002625   665.1798   6   7   0.0208   0.0278   0.0467  -0.0086  -0.0163   0.0246   0.00    0.0
2020/03/01 03:23:00.000  -35.399197039  148.980002619   665.1796   6   7   0.0207   0.0277   0.0466  -0.0086  -0.0163   0.0245   0.00    0.0
2020/03/01 03:23:30.000  -35.399197040  148.980002619   665.1789   6   7   0.0207   0.0277   0.0465  -0.0086  -0.0163   0.0244   0.00    0.0
2020/03/01 03:24:00.000  -35.399197040  148.980002619   665.1786   6   7   0.0206   0.0276   0.0464  -0.0086  -0.0163   0.0243   0.00    0.0
2020/03/01 03:24:30.000  -35.399197040  148.980002618   665.1787   6   7   0.0205   0.0275   0.0462  -0.0086  -0.0162   0.0242   0.00    0.0
2020/03/01 03:25:00.000  -35.399197041  148.980002613   665.1780   6   7   0.0205   0.0275   0.0461  -0.0086  -0.0162   0.0241   0.00    0.0
2020/03/01 03:25:30.000  -35.399197038  148.980002610   665.1785   6   7   0.0204   0.0274   0.0460  -0.0086  -0.0161   0.0240   0.00    0.0
2020/03/01 03:26:00.000  -35.399197034  148.980002609   665.1793   6   7   0.0203   0.0274   0.0459  -0.0086  -0.0161   0.0239   0.00    0.0
2020/03/01 03:26:30.000  -35.399197027  148.980002601   665.1805   6   7   0.0203   0.0273   0.0458  -0.0086  -0.0161   0.0238   0.00    0.0
2020/03/01 03:27:00.000  -35.399197025  148.980002595   665.1810   6   7   0.0202   0.0272   0.0457  -0.0085  -0.0160   0.0238   0.00    0.0
2020/03/01 03:27:30.000  -35.399197021  148.980002587   665.1819   6   7   0.0202   0.0272   0.0456  -0.0085  -0.0160   0.0237   0.00    0.0
2020/03/01 03:28:00.000  -35.399197016  148.980002578   665.1832   6   7   0.0201   0.0271   0.0455  -0.0085  -0.0160   0.0236   0.00    0.0
2020/03/01 03:28:30.000  -35.399197013  148.980002566   665.1837   6   7   0.0200   0.0271   0.0454  -0.0085  -0.0159   0.0235   0.00    0.0
2020/03/01 03:29:00.000  -35.399197008  148.980002558   665.1848   6   7   0.0200   0.0270   0.0452  -0.0085  -0.0159   0.0234   0.00    0.0
