% program   : RTKPOST ver.2.4.3 b33
% inp file  : D:\GNSS-DATA\2\tid10610.20o
% inp file  : D:\GNSS-DATA\2\brdc0610.20n
% inp file  : D:\GNSS-DATA\2\igs20950.sp3
% inp file  : D:\GNSS-DATA\2\igs20950.clk
% obs start : 2020/03/01 00:00:00.0 GPST (week2095      0.0s)
% obs end   : 2020/03/01 23:59:30.0 GPST (week2095  86370.0s)
% pos mode  : ppp-static
% solution  : forward
% elev mask : 15.0 deg
% dynamics  : off
% tidecorr  : off
% tropo opt : saastamoinen
% ephemeris : precise
% antenna1  :                       ( 0.0000  0.0000  0.0000)
%
% (lat/lon/height=WGS84/ellipsoidal,Q=1:fix,2:float,3:sbas,4:dgps,5:single,6:ppp,ns=# of satellites)
%  GPST                  latitude(deg) longitude(deg)  height(m)   Q  ns   sdn(m)   sde(m)   sdu(m)  sdne(m)  sdeu(m)  sdun(m) age(s)  ratio
2020/03/01 00:00:00.000  -35.399200279  148.979994411   664.6969   6   8   1.5513   1.6305   3.7712   0.4473  -0.6537   1.5238   0.00    0.0
2020/03/01 00:00:30.000  -35.399198999  148.979995790   664.3369   6   8   1.0998   1.1560   2.6708   0.3197  -0.4593   1.0802   0.00    0.0
2020/03/01 00:01:00.000  -35.399195530  148.979994411   664.9400   6   8   0.8979   0.9446   2.1744   0.2609  -0.3724   0.8805   0.00    0.0
2020/03/01 00:01:30.000  -35.399197123  148.979997173   664.6397   6   8   0.7772   0.8186   1.8744   0.2249  -0.3201   0.7602   0.00    0.0
2020/03/01 00:02:00.000  -35.399196263  148.979997210   664.6270   6   8   0.6947   0.7328   1.6675   0.1998  -0.2842   0.6776   0.00    0.0
2020/03/01 00:02:30.000  -35.399197546  148.979996671   664.3342   6   8   0.6339   0.6698   1.5136   0.1809  -0.2578   0.6163   0.00    0.0
2020/03/01 00:03:00.000  -35.399197846  148.979997029   664.2868   6   8   0.5851   0.6196   1.3880   0.1665  -0.2357   0.5667   0.00    0.0
2020/03/01 00:03:30.000  -35.399198095  148.979996872   664.1621   6   8   0.5450   0.5785   1.2832   0.1551  -0.2173   0.5255   0.00    0.0
2020/03/01 00:04:00.000  -35.399198049  148.979996505   664.1219   6   8   0.5111   0.5440   1.1943   0.1458  -0.2017   0.4906   0.00    0.0
2020/03/01 00:04:30.000  -35.399198618  148.979995960   664.0700   6   8   0.4822   0.5147   1.1180   0.1378  -0.1885   0.4606   0.00    0.0
2020/03/01 00:05:00.000  -35.399197879  148.979996225   664.2065   6   8   0.4572   0.4894   1.0520   0.1309  -0.1772   0.4346   0.00    0.0
2020/03/01 00:05:30.000  -35.399197878  148.979996683   664.1285   6   8   0.4354   0.4674   0.9945   0.1249  -0.1676   0.4117   0.00    0.0
2020/03/01 00:06:00.000  -35.399197775  148.979995953   664.2348   6   8   0.4163   0.4480   0.9441   0.1194  -0.1593   0.3916   0.00    0.0
2020/03/01 00:06:30.000  -35.399197662  148.979996107   664.2212   6   8   0.3993   0.4309   0.8997   0.1145  -0.1521   0.3738   0.00    0.0
2020/03/01 00:07:00.000  -35.399197296  148.979996026   664.3540   6   8   0.3842   0.4156   0.8603   0.1099  -0.1458   0.3578   0.00    0.0
2020/03/01 00:07:30.000  -35.399196826  148.979996162   664.4135   6   8   0.3706   0.4020   0.8251   0.1057  -0.1403   0.3435   0.00    0.0
2020/03/01 00:08:00.000  -35.399196661  148.979996375   664.4972   6   8   0.3579   0.3893   0.7913   0.1020  -0.1349   0.3299   0.00    0.0
2020/03/01 00:08:30.000  -35.399196368  148.979996365   664.5848   6   8   0.3459   0.3774   0.7591   0.0986  -0.1299   0.3169   0.00    0.0
2020/03/01 00:09:00.000  -35.399196282  148.979996047   664.6327   6   8   0.3346   0.3664   0.7288   0.0954  -0.1253   0.3047   0.00    0.0
2020/03/01 00:09:30.000  -35.399196254  148.979996312   664.6162   6   8   0.3241   0.3561   0.7006   0.0925  -0.1211   0.2932   0.00    0.0
2020/03/01 00:10:00.000  -35.399196319  148.979996477   664.6132   6   8   0.3143   0.3466   0.6743   0.0897  -0.1172   0.2825   0.00    0.0
2020/03/01 00:10:30.000  -35.399196361  148.979996540   664.5846   6   8   0.3052   0.3377   0.6501   0.0872  -0.1136   0.2726   0.00    0.0
2020/03/01 00:11:00.000  -35.399196704  148.979996612   664.6035   6   8   0.2968   0.3294   0.6278   0.0847  -0.1103   0.2634   0.00    0.0
2020/03/01 00:11:30.000  -35.399197152  148.979996458   664.6063   6   8   0.2890   0.3217   0.6073   0.0823  -0.1073   0.2550   0.00    0.0
2020/03/01 00:12:00.000  -35.399197076  148.979996594   664.5746   6   8   0.2818   0.3146   0.5885   0.0801  -0.1046   0.2472   0.00    0.0
2020/03/01 00:12:30.000  -35.399197108  148.979996799   664.6134   6   8   0.2752   0.3080   0.5711   0.0779  -0.1020   0.2401   0.00    0.0
2020/03/01 00:13:00.000  -35.399197179  148.979997000   664.6132   6   8   0.2687   0.3016   0.5539   0.0759  -0.0994   0.2330   0.00    0.0
2020/03/01 00:13:30.000  -35.399197066  148.979997379   664.6186   6   8   0.2623   0.2954   0.5369   0.0739  -0.0969   0.2260   0.00    0.0
2020/03/01 00:14:00.000  -35.399197150  148.979997181   664.6115   6   8   0.2562   0.2894   0.5205   0.0720  -0.0945   0.2193   0.00    0.0
2020/03/01 00:14:30.000  -35.399197132  148.979997170   664.6425   6   8   0.2503   0.2837   0.5047   0.0702  -0.0922   0.2129   0.00    0.0
2020/03/01 00:15:00.000  -35.399197152  148.979997071   664.6433   6   8   0.2447   0.2783   0.4898   0.0685  -0.0900   0.2068   0.00    0.0
2020/03/01 00:15:30.000  -35.399197092  148.979997179   664.6720   6   8   0.2394   0.2731   0.4757   0.0668  -0.0880   0.2011   0.00    0.0
2020/03/01 00:16:00.000  -35.399196824  148.979997109   664.7138   6   7   0.2346   0.2683   0.4642   0.0656  -0.0863   0.1957   0.00    0.0
2020/03/01 00:16:30.000  -35.399196743  148.979997078   664.7355   6   7   0.2301   0.2638   0.4533   0.0645  -0.0847   0.1907   0.00    0.0
2020/03/01 00:17:00.000  -35.399196644  148.979997020   664.7357   6   7   0.2259   0.2595   0.4431   0.0634  -0.0831   0.1860   0.00    0.0
2020/03/01 00:17:30.000  -35.399196574  148.979996945   664.7469   6   7   0.2219   0.2554   0.4335   0.0622  -0.0815   0.1817   0.00    0.0
2020/03/01 00:18:00.000  -35.399196507  148.979996771   664.7671   6   7   0.2180   0.2514   0.4238   0.0611  -0.0799   0.1774   0.00    0.0
2020/03/01 00:18:30.000  -35.399196610  148.979996633   664.7385   6   7   0.2140   0.2475   0.4140   0.0599  -0.0783   0.1731   0.00    0.0
2020/03/01 00:19:00.000  -35.399196584  148.979996577   664.7239   6   7   0.2102   0.2436   0.4043   0.0588  -0.0767   0.1689   0.00    0.0
2020/03/01 00:19:30.000  -35.399196631  148.979996729   664.7193   6   7   0.2064   0.2399   0.3948   0.0576  -0.0751   0.1649   0.00    0.0
2020/03/01 00:20:00.000  -35.399196510  148.979996619   664.7496   6   8   0.2027   0.2357   0.3853   0.0566  -0.0718   0.1610   0.00    0.0
2020/03/01 00:20:30.000  -35.399196516  148.979996920   664.7360   6   8   0.1992   0.2318   0.3763   0.0555  -0.0688   0.1574   0.00    0.0
2020/03/01 00:21:00.000  -35.399196527  148.979997042   664.7454   6   8   0.1959   0.2280   0.3678   0.0545  -0.0660   0.1539   0.00    0.0
2020/03/01 00:21:30.000  -35.399196665  148.979997117   664.7412   6   8   0.1927   0.2244   0.3597   0.0534  -0.0633   0.1507   0.00    0.0
2020/03/01 00:22:00.000  -35.399196700  148.979997319   664.7407   6   8   0.1897   0.2210   0.3522   0.0524  -0.0608   0.1476   0.00    0.0
2020/03/01 00:22:30.000  -35.399196809  148.979997114   664.7536   6   8   0.1869   0.2177   0.3452   0.0514  -0.0584   0.1448   0.00    0.0
2020/03/01 00:23:00.000  -35.399196772  148.979997036   664.7693   6   8   0.1841   0.2145   0.3380   0.0504  -0.0561   0.1419   0.00    0.0
2020/03/01 00:23:30.000  -35.399196771  148.979997154   664.7668   6   8   0.1813   0.2114   0.3308   0.0493  -0.0538   0.1391   0.00    0.0
2020/03/01 00:24:00.000  -35.399196744  148.979997023   664.7970   6   8   0.1784   0.2083   0.3237   0.0483  -0.0517   0.1364   0.00    0.0
2020/03/01 00:24:30.000  -35.399196798  148.979997131   664.7894   6   8   0.1756   0.2053   0.3168   0.0472  -0.0496   0.1337   0.00    0.0
2020/03/01 00:25:00.000  -35.399196809  148.979997070   664.8016   6   8   0.1729   0.2024   0.3101   0.0461  -0.0476   0.1311   0.00    0.0
2020/03/01 00:25:30.000  -35.399196868  148.979997066   664.8059   6   8   0.1703   0.1996   0.3036   0.0451  -0.0458   0.1286   0.00    0.0
2020/03/01 00:26:00.000  -35.399196804  148.979997085   664.8226   6   8   0.1679   0.1969   0.2975   0.0441  -0.0440   0.1263   0.00    0.0
2020/03/01 00:26:30.000  -35.399196720  148.979997370   664.8412   6   8   0.1655   0.1943   0.2918   0.0431  -0.0423   0.1241   0.00    0.0
2020/03/01 00:27:00.000  -35.399196799  148.979997105   664.8582   6   8   0.1633   0.1918   0.2863   0.0421  -0.0407   0.1220   0.00    0.0
2020/03/01 00:27:30.000  -35.399196763  148.979997119   664.8812   6   8   0.1611   0.1895   0.2812   0.0412  -0.0392   0.1200   0.00    0.0
2020/03/01 00:28:00.000  -35.399196786  148.979997143   664.9047   6   8   0.1590   0.1871   0.2760   0.0403  -0.0377   0.1181   0.00    0.0
2020/03/01 00:28:30.000  -35.399196780  148.979997000   664.9240   6   8   0.1568   0.1848   0.2708   0.0393  -0.0362   0.1161   0.00    0.0
2020/03/01 00:29:00.000  -35.399196785  148.979997293   664.9278   6   8   0.1546   0.1825   0.2657   0.0383  -0.0348   0.1142   0.00    0.0
2020/03/01 00:29:30.000  -35.399196810  148.979997268   664.9476   6   8   0.1525   0.1803   0.2606   0.0374  -0.0334   0.1123   0.00    0.0
2020/03/01 00:30:00.000  -35.399196775  148.979997349   664.9698   6   8   0.1504   0.1781   0.2557   0.0364  -0.0321   0.1105   0.00    0.0
2020/03/01 00:30:30.000  -35.399196783  148.979997249   664.9896   6   8   0.1484   0.1760   0.2510   0.0355  -0.0308   0.1087   0.00    0.0
2020/03/01 00:31:00.000  -35.399196728  148.979997191   665.0072   6   8   0.1464   0.1739   0.2465   0.0346  -0.0296   0.1071   0.00    0.0
2020/03/01 00:31:30.000  -35.399196670  148.979997246   665.0208   6   8   0.1446   0.1720   0.2422   0.0337  -0.0284   0.1055   0.00    0.0
2020/03/01 00:32:00.000  -35.399196710  148.979997228   665.0254   6   8   0.1428   0.1701   0.2382   0.0329  -0.0273   0.1040   0.00    0.0
2020/03/01 00:32:30.000  -35.399196694  148.979997344   665.0352   6   8   0.1412   0.1683   0.2344   0.0321  -0.0262   0.1025   0.00    0.0
2020/03/01 00:33:00.000  -35.399196687  148.979997248   665.0458   6   8   0.1395   0.1665   0.2305   0.0313  -0.0250   0.1011   0.00    0.0
2020/03/01 00:33:30.000  -35.399196636  148.979997256   665.0467   6   8   0.1377   0.1647   0.2266   0.0304  -0.0240   0.0997   0.00    0.0
2020/03/01 00:34:00.000  -35.399196582  148.979997278   665.0525   6   8   0.1360   0.1629   0.2228   0.0296  -0.0229   0.0983   0.00    0.0
2020/03/01 00:34:30.000  -35.399196530  148.979997260   665.0710   6   8   0.1343   0.1611   0.2190   0.0287  -0.0218   0.0969   0.00    0.0
2020/03/01 00:35:00.000  -35.399196564  148.979997416   665.0628   6   8   0.1326   0.1594   0.2153   0.0279  -0.0208   0.0955   0.00    0.0
2020/03/01 00:35:30.000  -35.399196566  148.979997392   665.0624   6   8   0.1310   0.1577   0.2118   0.0271  -0.0198   0.0942   0.00    0.0
2020/03/01 00:36:00.000  -35.399196547  148.979997367   665.0719   6   8   0.1294   0.1561   0.2084   0.0263  -0.0189   0.0930   0.00    0.0
2020/03/01 00:36:30.000  -35.399196539  148.979997306   665.0761   6   8   0.1279   0.1545   0.2051   0.0255  -0.0179   0.0918   0.00    0.0
2020/03/01 00:37:00.000  -35.399196572  148.979997438   665.0800   6   8   0.1265   0.1530   0.2021   0.0248  -0.0170   0.0907   0.00    0.0
2020/03/01 00:37:30.000  -35.399196522  148.979997378   665.0968   6   8   0.1252   0.1516   0.1992   0.0241  -0.0160   0.0896   0.00    0.0
2020/03/01 00:38:00.000  -35.399196529  148.979997437   665.1016   6   8   0.1238   0.1501   0.1962   0.0234  -0.0150   0.0885   0.00    0.0
2020/03/01 00:38:30.000  -35.399196493  148.979997415   665.1132   6   8   0.1224   0.1486   0.1933   0.0227  -0.0141   0.0874   0.00    0.0
2020/03/01 00:39:00.000  -35.399196421  148.979997482   665.1222   6   8   0.1209   0.1472   0.1903   0.0219  -0.0131   0.0863   0.00    0.0
2020/03/01 00:39:30.000  -35.399196405  148.979997424   665.1321   6   8   0.1195   0.1458   0.1874   0.0212  -0.0120   0.0853   0.00    0.0
2020/03/01 00:40:00.000  -35.399196427  148.979997486   665.1396   6   8   0.1182   0.1444   0.1846   0.0205  -0.0110   0.0843   0.00    0.0
2020/03/01 00:40:30.000  -35.399196414  148.979997413   665.1476   6   8   0.1168   0.1430   0.1819   0.0197  -0.0100   0.0833   0.00    0.0
2020/03/01 00:41:00.000  -35.399196421  148.979997443   665.1462   6   8   0.1155   0.1417   0.1793   0.0190  -0.0089   0.0823   0.00    0.0
2020/03/01 00:41:30.000  -35.399196436  148.979997327   665.1485   6   8   0.1143   0.1404   0.1768   0.0183  -0.0077   0.0814   0.00    0.0
2020/03/01 00:42:00.000  -35.399196467  148.979997273   665.1435   6   8   0.1131   0.1391   0.1744   0.0177  -0.0064   0.0805   0.00    0.0
2020/03/01 00:42:30.000  -35.399196509  148.979997242   665.1394   6   8   0.1120   0.1379   0.1722   0.0171  -0.0048   0.0797   0.00    0.0
2020/03/01 00:43:00.000  -35.399196477  148.979997228   665.1470   6   8   0.1108   0.1367   0.1699   0.0165  -0.0025   0.0788   0.00    0.0
2020/03/01 00:43:30.000  -35.399196442  148.979997242   665.1526   6   8   0.1097   0.1355   0.1676   0.0158   0.0032   0.0780   0.00    0.0
2020/03/01 00:44:00.000  -35.399196436  148.979997298   665.1609   6   8   0.1085   0.1343   0.1653   0.0152   0.0051   0.0771   0.00    0.0
2020/03/01 00:44:30.000  -35.399196435  148.979997334   665.1704   6   8   0.1073   0.1331   0.1631   0.0145   0.0063   0.0763   0.00    0.0
2020/03/01 00:45:00.000  -35.399196412  148.979997377   665.1782   6   8   0.1061   0.1319   0.1609   0.0138   0.0073   0.0755   0.00    0.0
2020/03/01 00:45:30.000  -35.399196421  148.979997396   665.1845   6   8   0.1050   0.1308   0.1588   0.0131   0.0082   0.0747   0.00    0.0
2020/03/01 00:46:00.000  -35.399196411  148.979997422   665.1958   6   8   0.1039   0.1297   0.1567   0.0124   0.0089   0.0740   0.00    0.0
2020/03/01 00:46:30.000  -35.399196412  148.979997490   665.1924   6   8   0.1029   0.1286   0.1548   0.0118   0.0095   0.0732   0.00    0.0
2020/03/01 00:47:00.000  -35.399196421  148.979997454   665.1991   6   8   0.1019   0.1276   0.1529   0.0112   0.0100   0.0725   0.00    0.0
2020/03/01 00:47:30.000  -35.399196437  148.979997456   665.2066   6   8   0.1009   0.1266   0.1511   0.0106   0.0105   0.0719   0.00    0.0
2020/03/01 00:48:00.000  -35.399196464  148.979997464   665.2099   6   8   0.0999   0.1255   0.1494   0.0100   0.0110   0.0712   0.00    0.0
2020/03/01 00:48:30.000  -35.399196473  148.979997515   665.2159   6   8   0.0990   0.1245   0.1476   0.0094   0.0114   0.0705   0.00    0.0
2020/03/01 00:49:00.000  -35.399196466  148.979997536   665.2213   6   8   0.0980   0.1235   0.1458   0.0087   0.0118   0.0698   0.00    0.0
2020/03/01 00:49:30.000  -35.399196433  148.979997593   665.2347   6   8   0.0970   0.1225   0.1440   0.0080   0.0122   0.0692   0.00    0.0
2020/03/01 00:50:00.000  -35.399196476  148.979997602   665.2371   6   8   0.0960   0.1215   0.1423   0.0072   0.0125   0.0685   0.00    0.0
2020/03/01 00:50:30.000  -35.399196496  148.979997587   665.2440   6   8   0.0950   0.1205   0.1406   0.0064   0.0128   0.0679   0.00    0.0
2020/03/01 00:51:00.000  -35.399196460  148.979997638   665.2484   6   8   0.0941   0.1195   0.1390   0.0056   0.0131   0.0673   0.00    0.0
2020/03/01 00:51:30.000  -35.399196480  148.979997644   665.2484   6   8   0.0932   0.1186   0.1374   0.0047   0.0134   0.0667   0.00    0.0
2020/03/01 00:52:00.000  -35.399196493  148.979997700   665.2549   6   8   0.0923   0.1177   0.1359   0.0038   0.0136   0.0661   0.00    0.0
2020/03/01 00:52:30.000  -35.399196504  148.979997766   665.2560   6   8   0.0915   0.1168   0.1345   0.0028   0.0139   0.0656   0.00    0.0
2020/03/01 00:53:00.000  -35.399196530  148.979997895   665.2512   6   8   0.0907   0.1160   0.1331   0.0010   0.0141   0.0650   0.00    0.0
2020/03/01 00:53:30.000  -35.399196520  148.979997905   665.2538   6   8   0.0898   0.1151   0.1317  -0.0024   0.0143   0.0645   0.00    0.0
2020/03/01 00:54:00.000  -35.399196522  148.979997932   665.2615   6   8   0.0890   0.1142   0.1303  -0.0036   0.0145   0.0640   0.00    0.0
2020/03/01 00:54:30.000  -35.399196539  148.979997908   665.2659   6   8   0.0881   0.1133   0.1289  -0.0044   0.0147   0.0634   0.00    0.0
2020/03/01 00:55:00.000  -35.399196545  148.979997927   665.2660   6   8   0.0873   0.1124   0.1275  -0.0051   0.0148   0.0629   0.00    0.0
2020/03/01 00:55:30.000  -35.399196571  148.979997941   665.2564   6   8   0.0864   0.1116   0.1261  -0.0056   0.0150   0.0624   0.00    0.0
2020/03/01 00:56:00.000  -35.399196579  148.979997948   665.2566   6   8   0.0856   0.1108   0.1248  -0.0061   0.0151   0.0619   0.00    0.0
2020/03/01 00:56:30.000  -35.399196593  148.979998021   665.2522   6   8   0.0849   0.1099   0.1236  -0.0064   0.0153   0.0614   0.00    0.0
2020/03/01 00:57:00.000  -35.399196591  148.979998064   665.2567   6   8   0.0841   0.1092   0.1224  -0.0067   0.0154   0.0609   0.00    0.0
2020/03/01 00:57:30.000  -35.399196587  148.979998103   665.2501   6   8   0.0834   0.1084   0.1213  -0.0069   0.0155   0.0605   0.00    0.0
2020/03/01 00:58:00.000  -35.399196589  148.979998133   665.2506   6   8   0.0827   0.1077   0.1201  -0.0072   0.0157   0.0600   0.00    0.0
2020/03/01 00:58:30.000  -35.399196596  148.979998169   665.2487   6   8   0.0820   0.1069   0.1190  -0.0074   0.0158   0.0596   0.00    0.0
2020/03/01 00:59:00.000  -35.399196581  148.979998254   665.2512   6   8   0.0812   0.1061   0.1178  -0.0076   0.0159   0.0591   0.00    0.0
2020/03/01 00:59:30.000  -35.399196574  148.979998212   665.2554   6   8   0.0805   0.1053   0.1167  -0.0078   0.0160   0.0587   0.00    0.0
2020/03/01 01:00:00.000  -35.399196588  148.979998241   665.2523   6   8   0.0798   0.1046   0.1156  -0.0080   0.0161   0.0583   0.00    0.0
2020/03/01 01:00:30.000  -35.399196569  148.979998243   665.2471   6   8   0.0790   0.1038   0.1145  -0.0082   0.0162   0.0578   0.00    0.0
2020/03/01 01:01:00.000  -35.399196547  148.979998220   665.2439   6   8   0.0783   0.1031   0.1135  -0.0083   0.0163   0.0574   0.00    0.0
2020/03/01 01:01:30.000  -35.399196507  148.979998186   665.2408   6   8   0.0777   0.1024   0.1125  -0.0084   0.0163   0.0570   0.00    0.0
2020/03/01 01:02:00.000  -35.399196511  148.979998174   665.2372   6   8   0.0770   0.1017   0.1115  -0.0085   0.0164   0.0566   0.00    0.0
2020/03/01 01:02:30.000  -35.399196525  148.979998172   665.2375   6   8   0.0764   0.1010   0.1106  -0.0085   0.0165   0.0563   0.00    0.0
2020/03/01 01:03:00.000  -35.399196515  148.979998207   665.2402   6   8   0.0758   0.1003   0.1097  -0.0086   0.0165   0.0559   0.00    0.0
2020/03/01 01:03:30.000  -35.399196486  148.979998151   665.2421   6   8   0.0752   0.0997   0.1087  -0.0086   0.0166   0.0555   0.00    0.0
2020/03/01 01:04:00.000  -35.399196500  148.979998153   665.2432   6   8   0.0745   0.0990   0.1078  -0.0087   0.0167   0.0551   0.00    0.0
2020/03/01 01:04:30.000  -35.399196507  148.979998097   665.2434   6   8   0.0739   0.0983   0.1069  -0.0087   0.0167   0.0548   0.00    0.0
2020/03/01 01:05:00.000  -35.399196487  148.979998038   665.2501   6   9   0.0732   0.0976   0.1060  -0.0089   0.0167   0.0544   0.00    0.0
2020/03/01 01:05:30.000  -35.399196452  148.979998024   665.2560   6   9   0.0726   0.0969   0.1051  -0.0091   0.0166   0.0540   0.00    0.0
2020/03/01 01:06:00.000  -35.399196467  148.979998054   665.2585   6   9   0.0719   0.0962   0.1042  -0.0092   0.0166   0.0537   0.00    0.0
2020/03/01 01:06:30.000  -35.399196486  148.979998086   665.2594   6   9   0.0713   0.0956   0.1034  -0.0093   0.0165   0.0533   0.00    0.0
2020/03/01 01:07:00.000  -35.399196505  148.979998105   665.2655   6   9   0.0708   0.0950   0.1026  -0.0095   0.0165   0.0530   0.00    0.0
2020/03/01 01:07:30.000  -35.399196528  148.979998102   665.2702   6  10   0.0702   0.0943   0.1019  -0.0095   0.0164   0.0526   0.00    0.0
2020/03/01 01:08:00.000  -35.399196546  148.979998120   665.2705   6  10   0.0697   0.0937   0.1011  -0.0095   0.0163   0.0523   0.00    0.0
2020/03/01 01:08:30.000  -35.399196558  148.979998085   665.2712   6   9   0.0691   0.0931   0.1006  -0.0095   0.0164   0.0522   0.00    0.0
2020/03/01 01:09:00.000  -35.399196574  148.979998136   665.2727   6   9   0.0686   0.0925   0.1002  -0.0095   0.0164   0.0521   0.00    0.0
2020/03/01 01:09:30.000  -35.399196606  148.979998155   665.2756   6   9   0.0681   0.0918   0.0997  -0.0095   0.0165   0.0520   0.00    0.0
2020/03/01 01:10:00.000  -35.399196599  148.979998169   665.2784   6   9   0.0676   0.0912   0.0992  -0.0095   0.0165   0.0519   0.00    0.0
2020/03/01 01:10:30.000  -35.399196593  148.979998182   665.2788   6   9   0.0671   0.0906   0.0988  -0.0095   0.0166   0.0518   0.00    0.0
2020/03/01 01:11:00.000  -35.399196594  148.979998212   665.2807   6   9   0.0666   0.0900   0.0983  -0.0094   0.0166   0.0517   0.00    0.0
2020/03/01 01:11:30.000  -35.399196601  148.979998201   665.2793   6   9   0.0662   0.0894   0.0979  -0.0094   0.0166   0.0516   0.00    0.0
2020/03/01 01:12:00.000  -35.399196599  148.979998177   665.2795   6   9   0.0657   0.0888   0.0975  -0.0093   0.0166   0.0514   0.00    0.0
2020/03/01 01:12:30.000  -35.399196619  148.979998185   665.2797   6   9   0.0653   0.0883   0.0971  -0.0093   0.0167   0.0513   0.00    0.0
2020/03/01 01:13:00.000  -35.399196628  148.979998190   665.2804   6   9   0.0648   0.0877   0.0967  -0.0092   0.0167   0.0512   0.00    0.0
2020/03/01 01:13:30.000  -35.399196633  148.979998166   665.2784   6   9   0.0644   0.0872   0.0963  -0.0091   0.0167   0.0511   0.00    0.0
2020/03/01 01:14:00.000  -35.399196651  148.979998187   665.2777   6   9   0.0639   0.0866   0.0959  -0.0090   0.0167   0.0510   0.00    0.0
2020/03/01 01:14:30.000  -35.399196655  148.979998171   665.2772   6   9   0.0635   0.0860   0.0954  -0.0090   0.0167   0.0508   0.00    0.0
2020/03/01 01:15:00.000  -35.399196643  148.979998170   665.2773   6   8   0.0630   0.0855   0.0953  -0.0089   0.0169   0.0507   0.00    0.0
2020/03/01 01:15:30.000  -35.399196637  148.979998198   665.2763   6   8   0.0626   0.0849   0.0951  -0.0088   0.0170   0.0506   0.00    0.0
2020/03/01 01:16:00.000  -35.399196650  148.979998272   665.2760   6   8   0.0621   0.0843   0.0950  -0.0087   0.0172   0.0505   0.00    0.0
2020/03/01 01:16:30.000  -35.399196646  148.979998285   665.2775   6   8   0.0617   0.0838   0.0949  -0.0085   0.0173   0.0505   0.00    0.0
2020/03/01 01:17:00.000  -35.399196657  148.979998327   665.2770   6   8   0.0613   0.0833   0.0947  -0.0084   0.0174   0.0504   0.00    0.0
2020/03/01 01:17:30.000  -35.399196676  148.979998355   665.2761   6   8   0.0609   0.0828   0.0946  -0.0083   0.0175   0.0503   0.00    0.0
2020/03/01 01:18:00.000  -35.399196676  148.979998375   665.2753   6   8   0.0605   0.0823   0.0944  -0.0082   0.0176   0.0502   0.00    0.0
2020/03/01 01:18:30.000  -35.399196660  148.979998411   665.2729   6   8   0.0601   0.0818   0.0943  -0.0081   0.0177   0.0501   0.00    0.0
2020/03/01 01:19:00.000  -35.399196647  148.979998433   665.2719   6   8   0.0597   0.0813   0.0942  -0.0079   0.0178   0.0500   0.00    0.0
2020/03/01 01:19:30.000  -35.399196631  148.979998441   665.2735   6   8   0.0593   0.0807   0.0940  -0.0078   0.0179   0.0499   0.00    0.0
2020/03/01 01:20:00.000  -35.399196637  148.979998430   665.2734   6   8   0.0589   0.0802   0.0939  -0.0076   0.0180   0.0498   0.00    0.0
2020/03/01 01:20:30.000  -35.399196662  148.979998409   665.2701   6   8   0.0585   0.0797   0.0937  -0.0075   0.0180   0.0497   0.00    0.0
2020/03/01 01:21:00.000  -35.399196673  148.979998395   665.2684   6   8   0.0581   0.0792   0.0936  -0.0073   0.0181   0.0496   0.00    0.0
2020/03/01 01:21:30.000  -35.399196660  148.979998387   665.2678   6   8   0.0577   0.0787   0.0934  -0.0071   0.0182   0.0496   0.00    0.0
2020/03/01 01:22:00.000  -35.399196639  148.979998394   665.2681   6   8   0.0574   0.0782   0.0933  -0.0070   0.0182   0.0495   0.00    0.0
2020/03/01 01:22:30.000  -35.399196633  148.979998403   665.2688   6   8   0.0570   0.0778   0.0931  -0.0068   0.0183   0.0494   0.00    0.0
2020/03/01 01:23:00.000  -35.399196604  148.979998385   665.2712   6   8   0.0567   0.0773   0.0930  -0.0066   0.0183   0.0493   0.00    0.0
2020/03/01 01:23:30.000  -35.399196575  148.979998368   665.2719   6   8   0.0563   0.0769   0.0928  -0.0065   0.0183   0.0492   0.00    0.0
2020/03/01 01:24:00.000  -35.399196571  148.979998384   665.2695   6   8   0.0559   0.0764   0.0927  -0.0063   0.0184   0.0491   0.00    0.0
2020/03/01 01:24:30.000  -35.399196584  148.979998383   665.2666   6   8   0.0555   0.0759   0.0925  -0.0061   0.0184   0.0491   0.00    0.0
2020/03/01 01:25:00.000  -35.399196587  148.979998389   665.2653   6   8   0.0552   0.0754   0.0923  -0.0059   0.0184   0.0490   0.00    0.0
2020/03/01 01:25:30.000  -35.399196586  148.979998390   665.2657   6   8   0.0548   0.0749   0.0922  -0.0057   0.0185   0.0489   0.00    0.0
2020/03/01 01:26:00.000  -35.399196578  148.979998393   665.2676   6   8   0.0545   0.0745   0.0920  -0.0055   0.0185   0.0488   0.00    0.0
2020/03/01 01:26:30.000  -35.399196559  148.979998381   665.2688   6   8   0.0541   0.0740   0.0919  -0.0053   0.0185   0.0487   0.00    0.0
2020/03/01 01:27:00.000  -35.399196543  148.979998407   665.2721   6   8   0.0538   0.0736   0.0917  -0.0051   0.0185   0.0486   0.00    0.0
2020/03/01 01:27:30.000  -35.399196547  148.979998451   665.2731   6   8   0.0535   0.0732   0.0916  -0.0048   0.0185   0.0486   0.00    0.0
2020/03/01 01:28:00.000  -35.399196564  148.979998495   665.2731   6   8   0.0532   0.0727   0.0914  -0.0046   0.0185   0.0485   0.00    0.0
2020/03/01 01:28:30.000  -35.399196576  148.979998506   665.2724   6   8   0.0529   0.0723   0.0912  -0.0044   0.0184   0.0484   0.00    0.0
2020/03/01 01:29:00.000  -35.399196585  148.979998504   665.2735   6   8   0.0525   0.0719   0.0911  -0.0041   0.0184   0.0483   0.00    0.0
2020/03/01 01:29:30.000  -35.399196603  148.979998501   665.2732   6   8   0.0522   0.0714   0.0909  -0.0039   0.0184   0.0482   0.00    0.0
2020/03/01 01:30:00.000  -35.399196618  148.979998446   665.2721   6   8   0.0519   0.0710   0.0907  -0.0036   0.0184   0.0481   0.00    0.0
2020/03/01 01:30:30.000  -35.399196621  148.979998402   665.2721   6   8   0.0515   0.0705   0.0905  -0.0033   0.0184   0.0480   0.00    0.0
2020/03/01 01:31:00.000  -35.399196619  148.979998346   665.2727   6   8   0.0512   0.0701   0.0904  -0.0030   0.0183   0.0480   0.00    0.0
2020/03/01 01:31:30.000  -35.399196615  148.979998313   665.2728   6   8   0.0509   0.0697   0.0902  -0.0027   0.0183   0.0479   0.00    0.0
2020/03/01 01:32:00.000  -35.399196615  148.979998303   665.2739   6   8   0.0506   0.0693   0.0900  -0.0023   0.0183   0.0478   0.00    0.0
2020/03/01 01:32:30.000  -35.399196621  148.979998291   665.2741   6   8   0.0504   0.0689   0.0899  -0.0020   0.0182   0.0477   0.00    0.0
2020/03/01 01:33:00.000  -35.399196620  148.979998325   665.2767   6   8   0.0501   0.0685   0.0897  -0.0015   0.0182   0.0476   0.00    0.0
2020/03/01 01:33:30.000  -35.399196618  148.979998373   665.2775   6   8   0.0498   0.0681   0.0895  -0.0007   0.0181   0.0475   0.00    0.0
2020/03/01 01:34:00.000  -35.399196607  148.979998417   665.2791   6   8   0.0495   0.0677   0.0893   0.0010   0.0180   0.0475   0.00    0.0
2020/03/01 01:34:30.000  -35.399196601  148.979998449   665.2793   6   8   0.0492   0.0673   0.0892   0.0016   0.0180   0.0474   0.00    0.0
2020/03/01 01:35:00.000  -35.399196592  148.979998506   665.2817   6   8   0.0489   0.0669   0.0890   0.0021   0.0179   0.0473   0.00    0.0
2020/03/01 01:35:30.000  -35.399196573  148.979998549   665.2844   6   8   0.0486   0.0665   0.0888   0.0024   0.0178   0.0472   0.00    0.0
2020/03/01 01:36:00.000  -35.399196571  148.979998578   665.2843   6   8   0.0483   0.0661   0.0886   0.0027   0.0178   0.0471   0.00    0.0
2020/03/01 01:36:30.000  -35.399196578  148.979998577   665.2827   6   8   0.0481   0.0657   0.0884   0.0029   0.0177   0.0470   0.00    0.0
2020/03/01 01:37:00.000  -35.399196576  148.979998559   665.2819   6   8   0.0478   0.0653   0.0882   0.0031   0.0176   0.0469   0.00    0.0
2020/03/01 01:37:30.000  -35.399196571  148.979998562   665.2839   6   8   0.0475   0.0650   0.0881   0.0033   0.0175   0.0468   0.00    0.0
2020/03/01 01:38:00.000  -35.399196568  148.979998569   665.2867   6   8   0.0473   0.0646   0.0879   0.0035   0.0174   0.0468   0.00    0.0
2020/03/01 01:38:30.000  -35.399196573  148.979998585   665.2870   6   8   0.0470   0.0642   0.0877   0.0036   0.0173   0.0467   0.00    0.0
2020/03/01 01:39:00.000  -35.399196563  148.979998583   665.2897   6   8   0.0468   0.0638   0.0875   0.0038   0.0172   0.0466   0.00    0.0
2020/03/01 01:39:30.000  -35.399196569  148.979998605   665.2913   6   8   0.0465   0.0635   0.0873   0.0039   0.0171   0.0465   0.00    0.0
2020/03/01 01:40:00.000  -35.399196572  148.979998630   665.2916   6   8   0.0462   0.0631   0.0871   0.0040   0.0170   0.0464   0.00    0.0
2020/03/01 01:40:30.000  -35.399196575  148.979998671   665.2920   6   8   0.0460   0.0627   0.0869   0.0041   0.0169   0.0463   0.00    0.0
2020/03/01 01:41:00.000  -35.399196575  148.979998715   665.2933   6   8   0.0457   0.0623   0.0867   0.0042   0.0168   0.0462   0.00    0.0
2020/03/01 01:41:30.000  -35.399196582  148.979998741   665.2934   6   8   0.0455   0.0620   0.0865   0.0043   0.0167   0.0461   0.00    0.0
2020/03/01 01:42:00.000  -35.399196591  148.979998767   665.2937   6   8   0.0452   0.0616   0.0863   0.0044   0.0166   0.0460   0.00    0.0
2020/03/01 01:42:30.000  -35.399196593  148.979998772   665.2950   6   8   0.0450   0.0613   0.0861   0.0045   0.0165   0.0459   0.00    0.0
2020/03/01 01:43:00.000  -35.399196604  148.979998789   665.2962   6   8   0.0448   0.0610   0.0859   0.0045   0.0163   0.0458   0.00    0.0
2020/03/01 01:43:30.000  -35.399196610  148.979998796   665.2984   6   8   0.0445   0.0606   0.0857   0.0046   0.0162   0.0457   0.00    0.0
2020/03/01 01:44:00.000  -35.399196616  148.979998811   665.2998   6   8   0.0443   0.0603   0.0855   0.0047   0.0161   0.0456   0.00    0.0
2020/03/01 01:44:30.000  -35.399196627  148.979998832   665.3002   6   8   0.0441   0.0599   0.0853   0.0047   0.0159   0.0455   0.00    0.0
2020/03/01 01:45:00.000  -35.399196634  148.979998846   665.3003   6   8   0.0438   0.0596   0.0851   0.0048   0.0158   0.0455   0.00    0.0
2020/03/01 01:45:30.000  -35.399196637  148.979998860   665.3015   6   8   0.0436   0.0592   0.0849   0.0048   0.0156   0.0454   0.00    0.0
2020/03/01 01:46:00.000  -35.399196636  148.979998882   665.3020   6   8   0.0433   0.0589   0.0847   0.0048   0.0155   0.0453   0.00    0.0
2020/03/01 01:46:30.000  -35.399196635  148.979998915   665.3054   6   8   0.0431   0.0585   0.0845   0.0048   0.0153   0.0452   0.00    0.0
2020/03/01 01:47:00.000  -35.399196626  148.979998922   665.3094   6   8   0.0429   0.0582   0.0843   0.0049   0.0152   0.0451   0.00    0.0
2020/03/01 01:47:30.000  -35.399196622  148.979998939   665.3119   6   8   0.0427   0.0579   0.0841   0.0049   0.0150   0.0450   0.00    0.0
2020/03/01 01:48:00.000  -35.399196625  148.979998973   665.3130   6   8   0.0425   0.0576   0.0839   0.0049   0.0149   0.0449   0.00    0.0
2020/03/01 01:48:30.000  -35.399196625  148.979998999   665.3156   6   8   0.0423   0.0573   0.0836   0.0049   0.0147   0.0448   0.00    0.0
2020/03/01 01:49:00.000  -35.399196631  148.979999012   665.3167   6   8   0.0421   0.0570   0.0834   0.0049   0.0145   0.0447   0.00    0.0
2020/03/01 01:49:30.000  -35.399196637  148.979999006   665.3178   6   8   0.0418   0.0566   0.0832   0.0049   0.0143   0.0445   0.00    0.0
2020/03/01 01:50:00.000  -35.399196641  148.979999019   665.3188   6   8   0.0416   0.0563   0.0830   0.0049   0.0141   0.0444   0.00    0.0
2020/03/01 01:50:30.000  -35.399196647  148.979999036   665.3185   6   8   0.0414   0.0560   0.0827   0.0049   0.0140   0.0443   0.00    0.0
2020/03/01 01:51:00.000  -35.399196652  148.979999062   665.3177   6   8   0.0412   0.0557   0.0825   0.0049   0.0138   0.0442   0.00    0.0
2020/03/01 01:51:30.000  -35.399196654  148.979999061   665.3171   6   8   0.0410   0.0554   0.0823   0.0048   0.0136   0.0441   0.00    0.0
2020/03/01 01:52:00.000  -35.399196651  148.979999077   665.3193   6   8   0.0408   0.0551   0.0821   0.0048   0.0134   0.0440   0.00    0.0
2020/03/01 01:52:30.000  -35.399196660  148.979999102   665.3215   6   8   0.0406   0.0548   0.0819   0.0048   0.0132   0.0439   0.00    0.0
2020/03/01 01:53:00.000  -35.399196660  148.979999128   665.3234   6   8   0.0404   0.0545   0.0817   0.0048   0.0130   0.0438   0.00    0.0
2020/03/01 01:53:30.000  -35.399196663  148.979999124   665.3233   6   8   0.0402   0.0542   0.0814   0.0047   0.0128   0.0437   0.00    0.0
2020/03/01 01:54:00.000  -35.399196670  148.979999134   665.3238   6   8   0.0400   0.0539   0.0812   0.0047   0.0126   0.0436   0.00    0.0
2020/03/01 01:54:30.000  -35.399196666  148.979999168   665.3246   6   8   0.0398   0.0536   0.0810   0.0046   0.0123   0.0435   0.00    0.0
2020/03/01 01:55:00.000  -35.399196663  148.979999195   665.3257   6   8   0.0396   0.0533   0.0807   0.0046   0.0121   0.0434   0.00    0.0
2020/03/01 01:55:30.000  -35.399196666  148.979999192   665.3259   6   8   0.0394   0.0530   0.0805   0.0045   0.0118   0.0433   0.00    0.0
2020/03/01 01:56:00.000  -35.399196677  148.979999226   665.3256   6   8   0.0392   0.0527   0.0803   0.0045   0.0116   0.0431   0.00    0.0
2020/03/01 01:56:30.000  -35.399196682  148.979999216   665.3248   6   8   0.0390   0.0524   0.0800   0.0044   0.0114   0.0430   0.00    0.0
2020/03/01 01:57:00.000  -35.399196681  148.979999194   665.3255   6   8   0.0389   0.0522   0.0798   0.0043   0.0111   0.0429   0.00    0.0
2020/03/01 01:57:30.000  -35.399196693  148.979999191   665.3243   6   8   0.0387   0.0519   0.0796   0.0043   0.0109   0.0428   0.00    0.0
2020/03/01 01:58:00.000  -35.399196685  148.979999201   665.3272   6   8   0.0385   0.0516   0.0794   0.0042   0.0106   0.0427   0.00    0.0
2020/03/01 01:58:30.000  -35.399196682  148.979999218   665.3291   6   8   0.0383   0.0514   0.0791   0.0041   0.0104   0.0426   0.00    0.0
2020/03/01 01:59:00.000  -35.399196680  148.979999221   665.3316   6   8   0.0381   0.0511   0.0789   0.0040   0.0101   0.0425   0.00    0.0
2020/03/01 01:59:30.000  -35.399196682  148.979999230   665.3331   6   8   0.0380   0.0508   0.0786   0.0039   0.0098   0.0424   0.00    0.0
2020/03/01 02:00:00.000  -35.399196692  148.979999241   665.3333   6   8   0.0378   0.0505   0.0784   0.0038   0.0095   0.0422   0.00    0.0
2020/03/01 02:00:30.000  -35.399196700  148.979999256   665.3326   6   8   0.0376   0.0503   0.0782   0.0037   0.0091   0.0421   0.00    0.0
2020/03/01 02:01:00.000  -35.399196693  148.979999264   665.3350   6   8   0.0374   0.0500   0.0779   0.0036   0.0088   0.0420   0.00    0.0
2020/03/01 02:01:30.000  -35.399196699  148.979999267   665.3357   6   8   0.0373   0.0497   0.0777   0.0035   0.0085   0.0419   0.00    0.0
2020/03/01 02:02:00.000  -35.399196701  148.979999270   665.3373   6   8   0.0371   0.0495   0.0774   0.0034   0.0082   0.0418   0.00    0.0
2020/03/01 02:02:30.000  -35.399196703  148.979999272   665.3379   6   8   0.0369   0.0492   0.0772   0.0033   0.0078   0.0417   0.00    0.0
2020/03/01 02:03:00.000  -35.399196705  148.979999287   665.3389   6   8   0.0368   0.0490   0.0770   0.0031   0.0075   0.0415   0.00    0.0
2020/03/01 02:03:30.000  -35.399196711  148.979999316   665.3399   6   8   0.0366   0.0487   0.0767   0.0030   0.0071   0.0414   0.00    0.0
2020/03/01 02:04:00.000  -35.399196709  148.979999307   665.3393   6   8   0.0364   0.0485   0.0765   0.0028   0.0067   0.0413   0.00    0.0
2020/03/01 02:04:30.000  -35.399196708  148.979999293   665.3394   6   8   0.0363   0.0482   0.0762   0.0026   0.0062   0.0412   0.00    0.0
2020/03/01 02:05:00.000  -35.399196711  148.979999286   665.3402   6   8   0.0361   0.0480   0.0760   0.0025   0.0057   0.0411   0.00    0.0
2020/03/01 02:05:30.000  -35.399196708  148.979999284   665.3404   6   8   0.0359   0.0477   0.0757   0.0022   0.0052   0.0409   0.00    0.0
2020/03/01 02:06:00.000  -35.399196712  148.979999271   665.3396   6   8   0.0357   0.0475   0.0755   0.0020   0.0046   0.0408   0.00    0.0
2020/03/01 02:06:30.000  -35.399196706  148.979999285   665.3423   6   8   0.0356   0.0472   0.0753   0.0017   0.0040   0.0407   0.00    0.0
2020/03/01 02:07:00.000  -35.399196701  148.979999271   665.3437   6   8   0.0354   0.0470   0.0750   0.0015   0.0033   0.0406   0.00    0.0
2020/03/01 02:07:30.000  -35.399196689  148.979999276   665.3471   6   8   0.0353   0.0468   0.0748   0.0011   0.0023   0.0405   0.00    0.0
2020/03/01 02:08:00.000  -35.399196683  148.979999271   665.3507   6   8   0.0351   0.0465   0.0746   0.0005   0.0004   0.0403   0.00    0.0
2020/03/01 02:08:30.000  -35.399196681  148.979999300   665.3533   6   8   0.0350   0.0463   0.0743  -0.0009  -0.0023   0.0402   0.00    0.0
2020/03/01 02:09:00.000  -35.399196683  148.979999316   665.3550   6   8   0.0348   0.0461   0.0741  -0.0014  -0.0033   0.0401   0.00    0.0
2020/03/01 02:09:30.000  -35.399196686  148.979999342   665.3559   6   8   0.0347   0.0458   0.0738  -0.0017  -0.0041   0.0400   0.00    0.0
2020/03/01 02:10:00.000  -35.399196688  148.979999367   665.3571   6   8   0.0345   0.0456   0.0736  -0.0020  -0.0047   0.0398   0.00    0.0
2020/03/01 02:10:30.000  -35.399196687  148.979999385   665.3595   6   8   0.0343   0.0454   0.0733  -0.0023  -0.0053   0.0397   0.00    0.0
2020/03/01 02:11:00.000  -35.399196694  148.979999415   665.3597   6   8   0.0342   0.0451   0.0731  -0.0025  -0.0057   0.0396   0.00    0.0
2020/03/01 02:11:30.000  -35.399196697  148.979999433   665.3613   6   8   0.0340   0.0449   0.0728  -0.0027  -0.0062   0.0395   0.00    0.0
2020/03/01 02:12:00.000  -35.399196693  148.979999436   665.3631   6   8   0.0339   0.0447   0.0726  -0.0029  -0.0066   0.0393   0.00    0.0
2020/03/01 02:12:30.000  -35.399196692  148.979999431   665.3638   6   8   0.0338   0.0445   0.0724  -0.0031  -0.0069   0.0392   0.00    0.0
2020/03/01 02:13:00.000  -35.399196685  148.979999444   665.3660   6   8   0.0336   0.0443   0.0721  -0.0032  -0.0073   0.0391   0.00    0.0
2020/03/01 02:13:30.000  -35.399196682  148.979999465   665.3666   6   8   0.0335   0.0441   0.0719  -0.0034  -0.0076   0.0390   0.00    0.0
2020/03/01 02:14:00.000  -35.399196677  148.979999479   665.3687   6   8   0.0333   0.0439   0.0716  -0.0035  -0.0080   0.0388   0.00    0.0
2020/03/01 02:14:30.000  -35.399196685  148.979999495   665.3681   6   8   0.0332   0.0437   0.0714  -0.0037  -0.0083   0.0387   0.00    0.0
2020/03/01 02:15:00.000  -35.399196693  148.979999505   665.3667   6   8   0.0330   0.0434   0.0711  -0.0039  -0.0086   0.0386   0.00    0.0
2020/03/01 02:15:30.000  -35.399196693  148.979999523   665.3672   6   9   0.0329   0.0432   0.0709  -0.0040  -0.0089   0.0385   0.00    0.0
2020/03/01 02:16:00.000  -35.399196691  148.979999541   665.3675   6   9   0.0327   0.0430   0.0706  -0.0042  -0.0092   0.0383   0.00    0.0
2020/03/01 02:16:30.000  -35.399196695  148.979999550   665.3676   6   9   0.0326   0.0428   0.0704  -0.0043  -0.0095   0.0382   0.00    0.0
2020/03/01 02:17:00.000  -35.399196699  148.979999554   665.3669   6   9   0.0325   0.0426   0.0701  -0.0044  -0.0097   0.0381   0.00    0.0
2020/03/01 02:17:30.000  -35.399196706  148.979999556   665.3675   6   9   0.0323   0.0424   0.0699  -0.0046  -0.0100   0.0379   0.00    0.0
2020/03/01 02:18:00.000  -35.399196713  148.979999559   665.3665   6   9   0.0322   0.0422   0.0697  -0.0047  -0.0102   0.0378   0.00    0.0
2020/03/01 02:18:30.000  -35.399196719  148.979999565   665.3660   6   9   0.0321   0.0420   0.0694  -0.0048  -0.0104   0.0377   0.00    0.0
2020/03/01 02:19:00.000  -35.399196719  148.979999584   665.3669   6   9   0.0319   0.0418   0.0692  -0.0049  -0.0107   0.0376   0.00    0.0
2020/03/01 02:19:30.000  -35.399196718  148.979999604   665.3677   6   9   0.0318   0.0416   0.0689  -0.0051  -0.0109   0.0374   0.00    0.0
2020/03/01 02:20:00.000  -35.399196711  148.979999624   665.3707   6   9   0.0316   0.0414   0.0686  -0.0052  -0.0111   0.0373   0.00    0.0
2020/03/01 02:20:30.000  -35.399196713  148.979999629   665.3712   6   9   0.0315   0.0412   0.0684  -0.0053  -0.0114   0.0372   0.00    0.0
2020/03/01 02:21:00.000  -35.399196718  148.979999647   665.3720   6   9   0.0314   0.0411   0.0681  -0.0054  -0.0116   0.0370   0.00    0.0
2020/03/01 02:21:30.000  -35.399196714  148.979999665   665.3740   6   9   0.0312   0.0409   0.0679  -0.0055  -0.0118   0.0369   0.00    0.0
2020/03/01 02:22:00.000  -35.399196716  148.979999665   665.3753   6   9   0.0311   0.0407   0.0677  -0.0056  -0.0119   0.0368   0.00    0.0
2020/03/01 02:22:30.000  -35.399196719  148.979999648   665.3752   6   9   0.0310   0.0405   0.0674  -0.0057  -0.0121   0.0367   0.00    0.0
2020/03/01 02:23:00.000  -35.399196717  148.979999650   665.3775   6   9   0.0309   0.0403   0.0672  -0.0058  -0.0123   0.0365   0.00    0.0
2020/03/01 02:23:30.000  -35.399196706  148.979999654   665.3807   6   9   0.0307   0.0402   0.0670  -0.0059  -0.0125   0.0364   0.00    0.0
2020/03/01 02:24:00.000  -35.399196708  148.979999648   665.3811   6   9   0.0306   0.0400   0.0667  -0.0060  -0.0126   0.0363   0.00    0.0
2020/03/01 02:24:30.000  -35.399196710  148.979999668   665.3821   6   9   0.0305   0.0398   0.0665  -0.0061  -0.0128   0.0361   0.00    0.0
2020/03/01 02:25:00.000  -35.399196715  148.979999676   665.3834   6   9   0.0303   0.0396   0.0662  -0.0062  -0.0130   0.0360   0.00    0.0
2020/03/01 02:25:30.000  -35.399196716  148.979999690   665.3851   6   9   0.0302   0.0394   0.0660  -0.0063  -0.0132   0.0359   0.00    0.0
2020/03/01 02:26:00.000  -35.399196713  148.979999688   665.3866   6   9   0.0301   0.0393   0.0657  -0.0064  -0.0133   0.0357   0.00    0.0
2020/03/01 02:26:30.000  -35.399196705  148.979999700   665.3902   6   9   0.0300   0.0391   0.0655  -0.0064  -0.0135   0.0356   0.00    0.0
2020/03/01 02:27:00.000  -35.399196707  148.979999701   665.3915   6   9   0.0298   0.0389   0.0653  -0.0065  -0.0136   0.0355   0.00    0.0
2020/03/01 02:27:30.000  -35.399196717  148.979999698   665.3907   6   9   0.0297   0.0388   0.0650  -0.0066  -0.0137   0.0354   0.00    0.0
2020/03/01 02:28:00.000  -35.399196722  148.979999706   665.3897   6   9   0.0296   0.0386   0.0648  -0.0067  -0.0139   0.0352   0.00    0.0
2020/03/01 02:28:30.000  -35.399196720  148.979999726   665.3904   6   9   0.0295   0.0385   0.0646  -0.0067  -0.0140   0.0351   0.00    0.0
2020/03/01 02:29:00.000  -35.399196711  148.979999758   665.3938   6   9   0.0294   0.0383   0.0643  -0.0068  -0.0141   0.0350   0.00    0.0
2020/03/01 02:29:30.000  -35.399196710  148.979999786   665.3953   6   8   0.0293   0.0381   0.0641  -0.0068  -0.0142   0.0349   0.00    0.0
2020/03/01 02:30:00.000  -35.399196704  148.979999801   665.3973   6   8   0.0292   0.0380   0.0639  -0.0068  -0.0142   0.0348   0.00    0.0
2020/03/01 02:30:30.000  -35.399196701  148.979999815   665.3991   6   8   0.0291   0.0378   0.0637  -0.0068  -0.0143   0.0347   0.00    0.0
2020/03/01 02:31:00.000  -35.399196698  148.979999819   665.4004   6   8   0.0290   0.0377   0.0636  -0.0068  -0.0144   0.0346   0.00    0.0
2020/03/01 02:31:30.000  -35.399196698  148.979999833   665.4004   6   8   0.0289   0.0375   0.0634  -0.0068  -0.0144   0.0345   0.00    0.0
2020/03/01 02:32:00.000  -35.399196694  148.979999849   665.4015   6   8   0.0288   0.0374   0.0632  -0.0068  -0.0145   0.0345   0.00    0.0
2020/03/01 02:32:30.000  -35.399196687  148.979999862   665.4024   6   8   0.0287   0.0373   0.0630  -0.0068  -0.0145   0.0344   0.00    0.0
2020/03/01 02:33:00.000  -35.399196682  148.979999879   665.4037   6   8   0.0286   0.0371   0.0628  -0.0069  -0.0146   0.0343   0.00    0.0
2020/03/01 02:33:30.000  -35.399196679  148.979999887   665.4038   6   8   0.0285   0.0370   0.0626  -0.0069  -0.0146   0.0342   0.00    0.0
2020/03/01 02:34:00.000  -35.399196674  148.979999895   665.4048   6   8   0.0284   0.0369   0.0624  -0.0069  -0.0147   0.0341   0.00    0.0
2020/03/01 02:34:30.000  -35.399196668  148.979999901   665.4042   6   8   0.0283   0.0367   0.0622  -0.0069  -0.0147   0.0340   0.00    0.0
2020/03/01 02:35:00.000  -35.399196671  148.979999907   665.4047   6   8   0.0282   0.0366   0.0620  -0.0069  -0.0148   0.0339   0.00    0.0
2020/03/01 02:35:30.000  -35.399196670  148.979999918   665.4037   6   8   0.0281   0.0364   0.0618  -0.0069  -0.0148   0.0338   0.00    0.0
2020/03/01 02:36:00.000  -35.399196671  148.979999935   665.4037   6   8   0.0280   0.0363   0.0617  -0.0069  -0.0149   0.0337   0.00    0.0
2020/03/01 02:36:30.000  -35.399196669  148.979999953   665.4050   6   8   0.0279   0.0362   0.0615  -0.0070  -0.0150   0.0336   0.00    0.0
2020/03/01 02:37:00.000  -35.399196670  148.979999972   665.4059   6   8   0.0278   0.0361   0.0613  -0.0070  -0.0150   0.0335   0.00    0.0
2020/03/01 02:37:30.000  -35.399196674  148.979999980   665.4067   6   8   0.0277   0.0359   0.0611  -0.0070  -0.0150   0.0334   0.00    0.0
2020/03/01 02:38:00.000  -35.399196678  148.979999987   665.4065   6   8   0.0276   0.0358   0.0609  -0.0070  -0.0151   0.0333   0.00    0.0
2020/03/01 02:38:30.000  -35.399196683  148.979999994   665.4065   6   8   0.0275   0.0357   0.0607  -0.0070  -0.0151   0.0332   0.00    0.0
2020/03/01 02:39:00.000  -35.399196682  148.979999998   665.4072   6   8   0.0275   0.0355   0.0605  -0.0070  -0.0152   0.0331   0.00    0.0
2020/03/01 02:39:30.000  -35.399196682  148.980000005   665.4067   6   8   0.0274   0.0354   0.0603  -0.0071  -0.0153   0.0330   0.00    0.0
2020/03/01 02:40:00.000  -35.399196680  148.980000007   665.4062   6   8   0.0273   0.0353   0.0601  -0.0071  -0.0153   0.0329   0.00    0.0
2020/03/01 02:40:30.000  -35.399196682  148.980000013   665.4063   6   8   0.0272   0.0352   0.0599  -0.0071  -0.0154   0.0328   0.00    0.0
2020/03/01 02:41:00.000  -35.399196680  148.980000011   665.4076   6   8   0.0271   0.0350   0.0598  -0.0071  -0.0154   0.0327   0.00    0.0
2020/03/01 02:41:30.000  -35.399196679  148.980000018   665.4084   6   8   0.0270   0.0349   0.0596  -0.0071  -0.0154   0.0326   0.00    0.0
2020/03/01 02:42:00.000  -35.399196677  148.980000034   665.4092   6   8   0.0269   0.0348   0.0594  -0.0072  -0.0155   0.0325   0.00    0.0
2020/03/01 02:42:30.000  -35.399196677  148.980000043   665.4090   6   8   0.0268   0.0347   0.0592  -0.0072  -0.0155   0.0324   0.00    0.0
2020/03/01 02:43:00.000  -35.399196677  148.980000057   665.4099   6   8   0.0267   0.0346   0.0590  -0.0072  -0.0156   0.0324   0.00    0.0
2020/03/01 02:43:30.000  -35.399196671  148.980000061   665.4105   6   8   0.0266   0.0344   0.0588  -0.0072  -0.0156   0.0323   0.00    0.0
2020/03/01 02:44:00.000  -35.399196665  148.980000076   665.4115   6   8   0.0265   0.0343   0.0586  -0.0072  -0.0157   0.0321   0.00    0.0
2020/03/01 02:44:30.000  -35.399196665  148.980000093   665.4115   6   8   0.0265   0.0342   0.0585  -0.0073  -0.0157   0.0320   0.00    0.0
2020/03/01 02:45:00.000  -35.399196663  148.980000104   665.4117   6   8   0.0264   0.0341   0.0583  -0.0073  -0.0158   0.0319   0.00    0.0
2020/03/01 02:45:30.000  -35.399196662  148.980000107   665.4117   6   8   0.0263   0.0340   0.0581  -0.0073  -0.0158   0.0318   0.00    0.0
2020/03/01 02:46:00.000  -35.399196667  148.980000120   665.4123   6   8   0.0262   0.0339   0.0579  -0.0073  -0.0158   0.0317   0.00    0.0
2020/03/01 02:46:30.000  -35.399196666  148.980000110   665.4129   6   8   0.0261   0.0337   0.0577  -0.0074  -0.0159   0.0316   0.00    0.0
2020/03/01 02:47:00.000  -35.399196670  148.980000100   665.4121   6   8   0.0260   0.0336   0.0575  -0.0074  -0.0159   0.0315   0.00    0.0
2020/03/01 02:47:30.000  -35.399196672  148.980000089   665.4118   6   8   0.0259   0.0335   0.0573  -0.0074  -0.0160   0.0314   0.00    0.0
2020/03/01 02:48:00.000  -35.399196678  148.980000086   665.4117   6   8   0.0258   0.0334   0.0572  -0.0074  -0.0160   0.0313   0.00    0.0
2020/03/01 02:48:30.000  -35.399196681  148.980000076   665.4115   6   8   0.0258   0.0333   0.0570  -0.0075  -0.0160   0.0312   0.00    0.0
2020/03/01 02:49:00.000  -35.399196684  148.980000069   665.4106   6   8   0.0257   0.0332   0.0568  -0.0075  -0.0161   0.0311   0.00    0.0
2020/03/01 02:49:30.000  -35.399196689  148.980000076   665.4093   6   8   0.0256   0.0331   0.0566  -0.0075  -0.0161   0.0310   0.00    0.0
2020/03/01 02:50:00.000  -35.399196689  148.980000087   665.4095   6   8   0.0255   0.0330   0.0564  -0.0075  -0.0161   0.0309   0.00    0.0
2020/03/01 02:50:30.000  -35.399196692  148.980000101   665.4092   6   8   0.0254   0.0329   0.0562  -0.0075  -0.0162   0.0308   0.00    0.0
2020/03/01 02:51:00.000  -35.399196694  148.980000101   665.4093   6   8   0.0253   0.0328   0.0560  -0.0076  -0.0162   0.0307   0.00    0.0
2020/03/01 02:51:30.000  -35.399196699  148.980000122   665.4089   6   8   0.0252   0.0327   0.0559  -0.0076  -0.0162   0.0306   0.00    0.0
2020/03/01 02:52:00.000  -35.399196704  148.980000134   665.4065   6   8   0.0251   0.0326   0.0557  -0.0076  -0.0163   0.0305   0.00    0.0
2020/03/01 02:52:30.000  -35.399196705  148.980000144   665.4062   6   8   0.0251   0.0325   0.0555  -0.0076  -0.0163   0.0304   0.00    0.0
2020/03/01 02:53:00.000  -35.399196706  148.980000159   665.4053   6   8   0.0250   0.0324   0.0553  -0.0076  -0.0163   0.0303   0.00    0.0
2020/03/01 02:53:30.000  -35.399196711  148.980000180   665.4054   6   9   0.0249   0.0323   0.0552  -0.0077  -0.0164   0.0302   0.00    0.0
2020/03/01 02:54:00.000  -35.399196710  148.980000185   665.4042   6   9   0.0248   0.0322   0.0550  -0.0077  -0.0164   0.0301   0.00    0.0
2020/03/01 02:54:30.000  -35.399196713  148.980000190   665.4037   6   9   0.0247   0.0321   0.0548  -0.0077  -0.0164   0.0300   0.00    0.0
2020/03/01 02:55:00.000  -35.399196707  148.980000192   665.4042   6   9   0.0246   0.0320   0.0546  -0.0077  -0.0164   0.0299   0.00    0.0
2020/03/01 02:55:30.000  -35.399196710  148.980000195   665.4031   6   9   0.0246   0.0319   0.0544  -0.0078  -0.0165   0.0298   0.00    0.0
2020/03/01 02:56:00.000  -35.399196708  148.980000197   665.4036   6   9   0.0245   0.0318   0.0542  -0.0078  -0.0165   0.0297   0.00    0.0
2020/03/01 02:56:30.000  -35.399196710  148.980000205   665.4037   6   9   0.0244   0.0317   0.0541  -0.0078  -0.0165   0.0296   0.00    0.0
2020/03/01 02:57:00.000  -35.399196706  148.980000211   665.4039   6   9   0.0243   0.0316   0.0539  -0.0078  -0.0165   0.0295   0.00    0.0
2020/03/01 02:57:30.000  -35.399196707  148.980000224   665.4044   6   8   0.0242   0.0315   0.0537  -0.0078  -0.0166   0.0294   0.00    0.0
2020/03/01 02:58:00.000  -35.399196705  148.980000231   665.4043   6   8   0.0242   0.0314   0.0536  -0.0079  -0.0166   0.0293   0.00    0.0
2020/03/01 02:58:30.000  -35.399196700  148.980000238   665.4055   6   8   0.0241   0.0313   0.0534  -0.0079  -0.0166   0.0292   0.00    0.0
2020/03/01 02:59:00.000  -35.399196699  148.980000250   665.4055   6   8   0.0240   0.0312   0.0532  -0.0080  -0.0166   0.0291   0.00    0.0
2020/03/01 02:59:30.000  -35.399196694  148.980000257   665.4060   6   8   0.0239   0.0311   0.0530  -0.0080  -0.0167   0.0290   0.00    0.0
2020/03/01 03:00:00.000  -35.399196690  148.980000260   665.4073   6   8   0.0239   0.0311   0.0528  -0.0080  -0.0167   0.0289   0.00    0.0
2020/03/01 03:00:30.000  -35.399196692  148.980000260   665.4063   6   8   0.0238   0.0310   0.0527  -0.0081  -0.0167   0.0288   0.00    0.0
2020/03/01 03:01:00.000  -35.399196691  148.980000260   665.4050   6   8   0.0237   0.0309   0.0525  -0.0081  -0.0167   0.0287   0.00    0.0
2020/03/01 03:01:30.000  -35.399196693  148.980000264   665.4046   6   8   0.0236   0.0308   0.0523  -0.0081  -0.0167   0.0286   0.00    0.0
2020/03/01 03:02:00.000  -35.399196691  148.980000267   665.4061   6   8   0.0236   0.0307   0.0522  -0.0082  -0.0167   0.0285   0.00    0.0
2020/03/01 03:02:30.000  -35.399196691  148.980000266   665.4057   6   8   0.0235   0.0306   0.0520  -0.0082  -0.0167   0.0284   0.00    0.0
2020/03/01 03:03:00.000  -35.399196693  148.980000266   665.4047   6   8   0.0234   0.0306   0.0518  -0.0082  -0.0168   0.0283   0.00    0.0
2020/03/01 03:03:30.000  -35.399196693  148.980000270   665.4047   6   8   0.0234   0.0305   0.0517  -0.0082  -0.0168   0.0282   0.00    0.0
2020/03/01 03:04:00.000  -35.399196695  148.980000267   665.4042   6   8   0.0233   0.0304   0.0515  -0.0083  -0.0168   0.0281   0.00    0.0
2020/03/01 03:04:30.000  -35.399196694  148.980000273   665.4046   6   8   0.0232   0.0303   0.0513  -0.0083  -0.0168   0.0280   0.00    0.0
2020/03/01 03:05:00.000  -35.399196692  148.980000279   665.4046   6   8   0.0231   0.0302   0.0512  -0.0083  -0.0168   0.0279   0.00    0.0
2020/03/01 03:05:30.000  -35.399196693  148.980000279   665.4044   6   8   0.0231   0.0302   0.0510  -0.0083  -0.0168   0.0278   0.00    0.0
2020/03/01 03:06:00.000  -35.399196688  148.980000288   665.4061   6   8   0.0230   0.0301   0.0508  -0.0084  -0.0168   0.0277   0.00    0.0
2020/03/01 03:06:30.000  -35.399196684  148.980000295   665.4070   6   8   0.0229   0.0300   0.0507  -0.0084  -0.0168   0.0276   0.00    0.0
2020/03/01 03:07:00.000  -35.399196682  148.980000306   665.4080   6   8   0.0229   0.0299   0.0505  -0.0084  -0.0168   0.0275   0.00    0.0
2020/03/01 03:07:30.000  -35.399196684  148.980000321   665.4079   6   8   0.0228   0.0299   0.0504  -0.0084  -0.0168   0.0274   0.00    0.0
2020/03/01 03:08:00.000  -35.399196685  148.980000332   665.4077   6   8   0.0227   0.0298   0.0502  -0.0084  -0.0168   0.0273   0.00    0.0
2020/03/01 03:08:30.000  -35.399196689  148.980000342   665.4075   6   8   0.0226   0.0297   0.0501  -0.0085  -0.0168   0.0272   0.00    0.0
2020/03/01 03:09:00.000  -35.399196688  148.980000349   665.4069   6   8   0.0226   0.0296   0.0499  -0.0085  -0.0168   0.0271   0.00    0.0
2020/03/01 03:09:30.000  -35.399196692  148.980000363   665.4062   6   8   0.0225   0.0295   0.0497  -0.0085  -0.0168   0.0270   0.00    0.0
2020/03/01 03:10:00.000  -35.399196691  148.980000375   665.4064   6   8   0.0224   0.0295   0.0496  -0.0085  -0.0168   0.0269   0.00    0.0
2020/03/01 03:10:30.000  -35.399196696  148.980000383   665.4060   6   8   0.0224   0.0294   0.0494  -0.0085  -0.0168   0.0268   0.00    0.0
2020/03/01 03:11:00.000  -35.399196703  148.980000391   665.4049   6   8   0.0223   0.0293   0.0492  -0.0085  -0.0168   0.0267   0.00    0.0
2020/03/01 03:11:30.000  -35.399196710  148.980000393   665.4035   6   7   0.0222   0.0292   0.0491  -0.0085  -0.0168   0.0266   0.00    0.0
2020/03/01 03:12:00.000  -35.399196721  148.980000405   665.4015   6   7   0.0222   0.0292   0.0490  -0.0086  -0.0168   0.0265   0.00    0.0
2020/03/01 03:12:30.000  -35.399196726  148.980000414   665.4007   6   7   0.0221   0.0291   0.0489  -0.0086  -0.0168   0.0264   0.00    0.0
2020/03/01 03:13:00.000  -35.399196729  148.980000418   665.3994   6   7   0.0220   0.0290   0.0488  -0.0086  -0.0168   0.0263   0.00    0.0
2020/03/01 03:13:30.000  -35.399196732  148.980000422   665.3988   6   7   0.0220   0.0290   0.0487  -0.0086  -0.0168   0.0262   0.00    0.0
2020/03/01 03:14:00.000  -35.399196737  148.980000428   665.3976   6   7   0.0219   0.0289   0.0486  -0.0086  -0.0167   0.0261   0.00    0.0
2020/03/01 03:14:30.000  -35.399196739  148.980000428   665.3967   6   7   0.0218   0.0288   0.0485  -0.0086  -0.0167   0.0260   0.00    0.0
2020/03/01 03:15:00.000  -35.399196733  148.980000434   665.3978   6   7   0.0217   0.0288   0.0484  -0.0086  -0.0167   0.0259   0.00    0.0
2020/03/01 03:15:30.000  -35.399196725  148.980000439   665.3986   6   7   0.0217   0.0287   0.0482  -0.0086  -0.0167   0.0258   0.00    0.0
2020/03/01 03:16:00.000  -35.399196728  148.980000451   665.3977   6   7   0.0216   0.0286   0.0481  -0.0086  -0.0167   0.0258   0.00    0.0
2020/03/01 03:16:30.000  -35.399196730  148.980000457   665.3966   6   7   0.0215   0.0286   0.0480  -0.0086  -0.0166   0.0257   0.00    0.0
2020/03/01 03:17:00.000  -35.399196730  148.980000456   665.3959   6   7   0.0215   0.0285   0.0479  -0.0086  -0.0166   0.0256   0.00    0.0
2020/03/01 03:17:30.000  -35.399196730  148.980000457   665.3952   6   7   0.0214   0.0284   0.0478  -0.0086  -0.0166   0.0255   0.00    0.0
2020/03/01 03:18:00.000  -35.399196729  148.980000470   665.3954   6   7   0.0214   0.0284   0.0477  -0.0086  -0.0166   0.0254   0.00    0.0
2020/03/01 03:18:30.000  -35.399196727  148.980000476   665.3957   6   7   0.0213   0.0283   0.0476  -0.0086  -0.0166   0.0253   0.00    0.0
2020/03/01 03:19:00.000  -35.399196725  148.980000484   665.3958   6   7   0.0212   0.0282   0.0475  -0.0086  -0.0165   0.0252   0.00    0.0
2020/03/01 03:19:30.000  -35.399196728  148.980000490   665.3949   6   7   0.0212   0.0282   0.0474  -0.0086  -0.0165   0.0251   0.00    0.0
2020/03/01 03:20:00.000  -35.399196732  148.980000495   665.3940   6   7   0.0211   0.0281   0.0472  -0.0086  -0.0165   0.0250   0.00    0.0
2020/03/01 03:20:30.000  -35.399196737  148.980000505   665.3931   6   7   0.0210   0.0280   0.0471  -0.0086  -0.0164   0.0249   0.00    0.0
2020/03/01 03:21:00.000  -35.399196739  148.980000512   665.3925   6   7   0.0210   0.0280   0.0470  -0.0086  -0.0164   0.0248   0.00    0.0
2020/03/01 03:21:30.000  -35.399196740  148.980000516   665.3919   6   7   0.0209   0.0279   0.0469  -0.0086  -0.0164   0.0247   0.00    0.0
2020/03/01 03:22:00.000  -35.399196743  148.980000521   665.3907   6   7   0.0208   0.0278   0.0468  -0.0086  -0.0164   0.0246   0.00    0.0
2020/03/01 03:22:30.000  -35.399196742  148.980000524   665.3905   6   7   0.0208   0.0278   0.0467  -0.0086  -0.0163   0.0246   0.00    0.0
2020/03/01 03:23:00.000  -35.399196742  148.980000528   665.3900   6   7   0.0207   0.0277   0.0466  -0.0086  -0.0163   0.0245   0.00    0.0
2020/03/01 03:23:30.000  -35.399196744  148.980000537   665.3891   6   7   0.0207   0.0277   0.0465  -0.0086  -0.0163   0.0244   0.00    0.0
2020/03/01 03:24:00.000  -35.399196745  148.980000548   665.3885   6   7   0.0206   0.0276   0.0464  -0.0086  -0.0162   0.0243   0.00    0.0
2020/03/01 03:24:30.000  -35.399196745  148.980000557   665.3882   6   7   0.0205   0.0275   0.0462  -0.0086  -0.0162   0.0242   0.00    0.0
2020/03/01 03:25:00.000  -35.399196748  148.980000562   665.3873   6   7   0.0205   0.0275   0.0461  -0.0086  -0.0162   0.0241   0.00    0.0
2020/03/01 03:25:30.000  -35.399196746  148.980000570   665.3875   6   7   0.0204   0.0274   0.0460  -0.0086  -0.0161   0.0240   0.00    0.0
2020/03/01 03:26:00.000  -35.399196744  148.980000578   665.3879   6   7   0.0203   0.0274   0.0459  -0.0086  -0.0161   0.0239   0.00    0.0
2020/03/01 03:26:30.000  -35.399196737  148.980000581   665.3887   6   7   0.0203   0.0273   0.0458  -0.0086  -0.0161   0.0238   0.00    0.0
2020/03/01 03:27:00.000  -35.399196737  148.980000584   665.3888   6   7   0.0202   0.0272   0.0457  -0.0085  -0.0160   0.0238   0.00    0.0
2020/03/01 03:27:30.000  -35.399196734  148.980000586   665.3893   6   7   0.0202   0.0272   0.0456  -0.0085  -0.0160   0.0237   0.00    0.0
2020/03/01 03:28:00.000  -35.399196730  148.980000587   665.3902   6   7   0.0201   0.0271   0.0455  -0.0085  -0.0160   0.0236   0.00    0.0
2020/03/01 03:28:30.000  -35.399196729  148.980000584   665.3903   6   7   0.0200   0.0271   0.0454  -0.0085  -0.0159   0.0235   0.00    0.0
2020/03/01 03:29:00.000  -35.399196725  148.980000586   665.3909   6   7   0.0200   0.0270   0.0452  -0.0085  -0.0159   0.0234   0.00    0.0
