% program   : RTKPOST ver.2.4.3 b33
% inp file  : D:\GNSS-DATA\2\tid10610.20o
% inp file  : D:\GNSS-DATA\2\brdc0610.20n
% inp file  : D:\GNSS-DATA\2\igs20950.sp3
% inp file  : D:\GNSS-DATA\2\igs20950.clk
% obs start : 2020/03/01 00:00:00.0 GPST (week2095      0.0s)
% obs end   : 2020/03/01 23:59:30.0 GPST (week2095  86370.0s)
% pos mode  : ppp-static
% solution  : forward
% elev mask : 15.0 deg
% dynamics  : off
% tidecorr  : off
% tropo opt : saastamoinen
% ephemeris : precise
% antenna1  :                       ( 0.0000  0.0000  0.0000)
%
% (lat/lon/height=WGS84/ellipsoidal,Q=1:fix,2:float,3:sbas,4:dgps,5:single,6:ppp,ns=# of satellites)
%  GPST                  latitude(deg) longitude(deg)  height(m)   Q  ns   sdn(m)   sde(m)   sdu(m)  sdne(m)  sdeu(m)  sdun(m) age(s)  ratio
2020/03/01 00:00:00.000  -35.399203149  148.980011441   665.4381   6   8   1.4418   1.5198   3.4879   0.5221  -0.5400   1.4173   0.00    0.0
2020/03/01 00:00:30.000  -35.399201895  148.980013359   665.1536   6   8   1.0193   1.0742   2.4660   0.3688  -0.3818   1.0019   0.00    0.0
2020/03/01 00:01:00.000  -35.399198474  148.980012278   665.7490   6   8   0.8316   0.8764   2.0106   0.3004  -0.3115   0.8167   0.00    0.0
2020/03/01 00:01:30.000  -35.399199978  148.980014979   665.4970   6   8   0.7196   0.7584   1.7377   0.2594  -0.2694   0.7057   0.00    0.0
2020/03/01 00:02:00.000  -35.399199184  148.980014956   665.4816   6   8   0.6430   0.6778   1.5505   0.2313  -0.2407   0.6296   0.00    0.0
2020/03/01 00:02:30.000  -35.399200545  148.980014458   665.1598   6   8   0.5865   0.6182   1.4115   0.2105  -0.2194   0.5731   0.00    0.0
2020/03/01 00:03:00.000  -35.399200788  148.980014795   665.1608   6   8   0.5422   0.5718   1.3018   0.1943  -0.2025   0.5286   0.00    0.0
2020/03/01 00:03:30.000  -35.399201058  148.980014626   665.0508   6   8   0.5064   0.5342   1.2119   0.1812  -0.1886   0.4922   0.00    0.0
2020/03/01 00:04:00.000  -35.399201042  148.980014310   665.0187   6   8   0.4765   0.5029   1.1363   0.1703  -0.1770   0.4616   0.00    0.0
2020/03/01 00:04:30.000  -35.399201650  148.980013655   664.9904   6   8   0.4511   0.4764   1.0714   0.1610  -0.1670   0.4354   0.00    0.0
2020/03/01 00:05:00.000  -35.399200985  148.980013828   665.1466   6   8   0.4292   0.4536   1.0149   0.1530  -0.1583   0.4127   0.00    0.0
2020/03/01 00:05:30.000  -35.399201102  148.980014200   665.0289   6   8   0.4101   0.4337   0.9653   0.1460  -0.1506   0.3927   0.00    0.0
2020/03/01 00:06:00.000  -35.399201071  148.980013433   665.1316   6   8   0.3932   0.4161   0.9212   0.1397  -0.1439   0.3749   0.00    0.0
2020/03/01 00:06:30.000  -35.399201044  148.980013502   665.0715   6   8   0.3781   0.4004   0.8818   0.1341  -0.1378   0.3591   0.00    0.0
2020/03/01 00:07:00.000  -35.399200718  148.980013337   665.2064   6   8   0.3646   0.3863   0.8464   0.1291  -0.1324   0.3448   0.00    0.0
2020/03/01 00:07:30.000  -35.399200318  148.980013429   665.2263   6   8   0.3523   0.3736   0.8144   0.1245  -0.1275   0.3319   0.00    0.0
2020/03/01 00:08:00.000  -35.399200172  148.980013590   665.3057   6   8   0.3411   0.3619   0.7842   0.1203  -0.1229   0.3198   0.00    0.0
2020/03/01 00:08:30.000  -35.399199922  148.980013515   665.3723   6   8   0.3306   0.3512   0.7555   0.1164  -0.1184   0.3084   0.00    0.0
2020/03/01 00:09:00.000  -35.399199793  148.980013237   665.4083   6   8   0.3210   0.3413   0.7283   0.1128  -0.1142   0.2976   0.00    0.0
2020/03/01 00:09:30.000  -35.399199741  148.980013439   665.3920   6   8   0.3120   0.3321   0.7027   0.1095  -0.1103   0.2875   0.00    0.0
2020/03/01 00:10:00.000  -35.399199740  148.980013560   665.4093   6   8   0.3036   0.3236   0.6786   0.1064  -0.1065   0.2780   0.00    0.0
2020/03/01 00:10:30.000  -35.399199761  148.980013697   665.3658   6   8   0.2957   0.3156   0.6562   0.1035  -0.1030   0.2691   0.00    0.0
2020/03/01 00:11:00.000  -35.399200075  148.980013741   665.3709   6   8   0.2884   0.3081   0.6353   0.1007  -0.0998   0.2609   0.00    0.0
2020/03/01 00:11:30.000  -35.399200539  148.980013626   665.3555   6   8   0.2816   0.3012   0.6160   0.0981  -0.0968   0.2533   0.00    0.0
2020/03/01 00:12:00.000  -35.399200432  148.980013769   665.3204   6   8   0.2752   0.2946   0.5982   0.0957  -0.0941   0.2462   0.00    0.0
2020/03/01 00:12:30.000  -35.399200458  148.980013944   665.3555   6   8   0.2693   0.2885   0.5817   0.0934  -0.0915   0.2396   0.00    0.0
2020/03/01 00:13:00.000  -35.399200529  148.980014139   665.3380   6   8   0.2636   0.2826   0.5654   0.0912  -0.0890   0.2332   0.00    0.0
2020/03/01 00:13:30.000  -35.399200315  148.980014418   665.3597   6   8   0.2580   0.2771   0.5492   0.0891  -0.0864   0.2268   0.00    0.0
2020/03/01 00:14:00.000  -35.399200347  148.980014208   665.3527   6   8   0.2528   0.2718   0.5333   0.0870  -0.0839   0.2206   0.00    0.0
2020/03/01 00:14:30.000  -35.399200283  148.980014199   665.3892   6   8   0.2477   0.2667   0.5179   0.0851  -0.0815   0.2147   0.00    0.0
2020/03/01 00:15:00.000  -35.399200277  148.980014131   665.3606   6   8   0.2428   0.2619   0.5032   0.0832  -0.0791   0.2090   0.00    0.0
2020/03/01 00:15:30.000  -35.399200199  148.980014219   665.3702   6   8   0.2382   0.2573   0.4893   0.0814  -0.0769   0.2036   0.00    0.0
2020/03/01 00:16:00.000  -35.399199947  148.980014166   665.3774   6   7   0.2341   0.2530   0.4788   0.0801  -0.0756   0.1987   0.00    0.0
2020/03/01 00:16:30.000  -35.399199873  148.980014114   665.3793   6   7   0.2302   0.2489   0.4689   0.0788  -0.0742   0.1941   0.00    0.0
2020/03/01 00:17:00.000  -35.399199750  148.980014033   665.3806   6   7   0.2264   0.2449   0.4597   0.0776  -0.0730   0.1898   0.00    0.0
2020/03/01 00:17:30.000  -35.399199669  148.980013941   665.3744   6   7   0.2229   0.2412   0.4510   0.0763  -0.0718   0.1858   0.00    0.0
2020/03/01 00:18:00.000  -35.399199605  148.980013727   665.3767   6   7   0.2194   0.2375   0.4421   0.0751  -0.0705   0.1818   0.00    0.0
2020/03/01 00:18:30.000  -35.399199687  148.980013583   665.3421   6   7   0.2159   0.2340   0.4331   0.0739  -0.0691   0.1779   0.00    0.0
2020/03/01 00:19:00.000  -35.399199636  148.980013502   665.3235   6   7   0.2125   0.2306   0.4241   0.0727  -0.0676   0.1740   0.00    0.0
2020/03/01 00:19:30.000  -35.399199627  148.980013585   665.3185   6   7   0.2092   0.2272   0.4152   0.0715  -0.0661   0.1702   0.00    0.0
2020/03/01 00:20:00.000  -35.399199479  148.980013419   665.3578   6   8   0.2060   0.2236   0.4060   0.0704  -0.0623   0.1665   0.00    0.0
2020/03/01 00:20:30.000  -35.399199392  148.980013663   665.3464   6   8   0.2029   0.2200   0.3972   0.0693  -0.0588   0.1630   0.00    0.0
2020/03/01 00:21:00.000  -35.399199348  148.980013708   665.3553   6   8   0.2000   0.2166   0.3889   0.0682  -0.0554   0.1596   0.00    0.0
2020/03/01 00:21:30.000  -35.399199465  148.980013729   665.3513   6   8   0.1971   0.2134   0.3811   0.0671  -0.0522   0.1565   0.00    0.0
2020/03/01 00:22:00.000  -35.399199465  148.980013842   665.3509   6   8   0.1944   0.2103   0.3739   0.0661  -0.0492   0.1535   0.00    0.0
2020/03/01 00:22:30.000  -35.399199587  148.980013568   665.3642   6   8   0.1919   0.2073   0.3671   0.0651  -0.0463   0.1508   0.00    0.0
2020/03/01 00:23:00.000  -35.399199555  148.980013405   665.3786   6   8   0.1893   0.2044   0.3602   0.0641  -0.0435   0.1480   0.00    0.0
2020/03/01 00:23:30.000  -35.399199525  148.980013394   665.3871   6   8   0.1867   0.2016   0.3531   0.0631  -0.0406   0.1453   0.00    0.0
2020/03/01 00:24:00.000  -35.399199542  148.980013154   665.3970   6   8   0.1842   0.1988   0.3461   0.0620  -0.0376   0.1425   0.00    0.0
2020/03/01 00:24:30.000  -35.399199610  148.980013177   665.3887   6   8   0.1817   0.1961   0.3391   0.0610  -0.0347   0.1398   0.00    0.0
2020/03/01 00:25:00.000  -35.399199652  148.980013012   665.3937   6   8   0.1792   0.1935   0.3322   0.0600  -0.0318   0.1372   0.00    0.0
2020/03/01 00:25:30.000  -35.399199726  148.980012960   665.3806   6   8   0.1769   0.1910   0.3257   0.0591  -0.0289   0.1347   0.00    0.0
2020/03/01 00:26:00.000  -35.399199730  148.980012926   665.3735   6   8   0.1746   0.1886   0.3195   0.0581  -0.0260   0.1323   0.00    0.0
2020/03/01 00:26:30.000  -35.399199650  148.980013098   665.3914   6   8   0.1724   0.1862   0.3137   0.0572  -0.0231   0.1301   0.00    0.0
2020/03/01 00:27:00.000  -35.399199822  148.980012833   665.3752   6   8   0.1703   0.1840   0.3083   0.0563  -0.0202   0.1280   0.00    0.0
2020/03/01 00:27:30.000  -35.399199792  148.980012785   665.3951   6   8   0.1683   0.1818   0.3033   0.0554  -0.0173   0.1260   0.00    0.0
2020/03/01 00:28:00.000  -35.399199836  148.980012758   665.4095   6   8   0.1663   0.1797   0.2981   0.0546  -0.0138   0.1240   0.00    0.0
2020/03/01 00:28:30.000  -35.399199860  148.980012614   665.3936   6   8   0.1643   0.1776   0.2928   0.0537  -0.0095   0.1220   0.00    0.0
2020/03/01 00:29:00.000  -35.399199789  148.980012862   665.3903   6   8   0.1623   0.1755   0.2874   0.0528   0.0027   0.1200   0.00    0.0
2020/03/01 00:29:30.000  -35.399199831  148.980012811   665.3748   6   8   0.1603   0.1735   0.2821   0.0520   0.0099   0.1181   0.00    0.0
2020/03/01 00:30:00.000  -35.399199773  148.980012824   665.3848   6   8   0.1583   0.1716   0.2769   0.0511   0.0135   0.1161   0.00    0.0
2020/03/01 00:30:30.000  -35.399199814  148.980012684   665.3893   6   8   0.1564   0.1696   0.2719   0.0503   0.0160   0.1143   0.00    0.0
2020/03/01 00:31:00.000  -35.399199766  148.980012585   665.3924   6   8   0.1546   0.1678   0.2671   0.0495   0.0180   0.1125   0.00    0.0
2020/03/01 00:31:30.000  -35.399199666  148.980012576   665.4010   6   8   0.1528   0.1660   0.2627   0.0487   0.0196   0.1109   0.00    0.0
2020/03/01 00:32:00.000  -35.399199748  148.980012529   665.3853   6   8   0.1511   0.1643   0.2586   0.0480   0.0208   0.1093   0.00    0.0
2020/03/01 00:32:30.000  -35.399199706  148.980012568   665.3950   6   8   0.1495   0.1626   0.2548   0.0472   0.0219   0.1079   0.00    0.0
2020/03/01 00:33:00.000  -35.399199751  148.980012409   665.3843   6   8   0.1479   0.1609   0.2508   0.0465   0.0229   0.1064   0.00    0.0
2020/03/01 00:33:30.000  -35.399199684  148.980012328   665.3917   6   8   0.1463   0.1593   0.2467   0.0458   0.0238   0.1049   0.00    0.0
2020/03/01 00:34:00.000  -35.399199600  148.980012297   665.3872   6   8   0.1446   0.1577   0.2426   0.0450   0.0247   0.1034   0.00    0.0
2020/03/01 00:34:30.000  -35.399199525  148.980012236   665.3914   6   8   0.1430   0.1561   0.2384   0.0443   0.0254   0.1019   0.00    0.0
2020/03/01 00:35:00.000  -35.399199511  148.980012335   665.3855   6   8   0.1413   0.1545   0.2344   0.0436   0.0261   0.1004   0.00    0.0
2020/03/01 00:35:30.000  -35.399199495  148.980012235   665.3797   6   8   0.1397   0.1530   0.2305   0.0429   0.0267   0.0990   0.00    0.0
2020/03/01 00:36:00.000  -35.399199452  148.980012176   665.3777   6   8   0.1382   0.1515   0.2268   0.0422   0.0272   0.0977   0.00    0.0
2020/03/01 00:36:30.000  -35.399199413  148.980012078   665.3754   6   8   0.1367   0.1501   0.2234   0.0416   0.0276   0.0964   0.00    0.0
2020/03/01 00:37:00.000  -35.399199414  148.980012166   665.3723   6   8   0.1354   0.1487   0.2202   0.0410   0.0280   0.0952   0.00    0.0
2020/03/01 00:37:30.000  -35.399199345  148.980012056   665.3853   6   8   0.1341   0.1474   0.2172   0.0404   0.0283   0.0941   0.00    0.0
2020/03/01 00:38:00.000  -35.399199310  148.980012088   665.3875   6   8   0.1327   0.1460   0.2141   0.0397   0.0286   0.0930   0.00    0.0
2020/03/01 00:38:30.000  -35.399199262  148.980012018   665.3962   6   8   0.1313   0.1447   0.2109   0.0391   0.0289   0.0918   0.00    0.0
2020/03/01 00:39:00.000  -35.399199167  148.980012024   665.3982   6   8   0.1299   0.1434   0.2077   0.0385   0.0291   0.0907   0.00    0.0
2020/03/01 00:39:30.000  -35.399199124  148.980011931   665.4000   6   8   0.1285   0.1421   0.2045   0.0379   0.0294   0.0895   0.00    0.0
2020/03/01 00:40:00.000  -35.399199099  148.980011940   665.3964   6   8   0.1272   0.1408   0.2013   0.0373   0.0296   0.0884   0.00    0.0
2020/03/01 00:40:30.000  -35.399199066  148.980011821   665.3996   6   8   0.1258   0.1396   0.1982   0.0367   0.0298   0.0873   0.00    0.0
2020/03/01 00:41:00.000  -35.399199031  148.980011815   665.3973   6   8   0.1245   0.1383   0.1953   0.0362   0.0299   0.0862   0.00    0.0
2020/03/01 00:41:30.000  -35.399199063  148.980011657   665.3905   6   8   0.1233   0.1372   0.1926   0.0356   0.0300   0.0852   0.00    0.0
2020/03/01 00:42:00.000  -35.399199082  148.980011556   665.3867   6   8   0.1221   0.1360   0.1901   0.0351   0.0301   0.0843   0.00    0.0
2020/03/01 00:42:30.000  -35.399199119  148.980011486   665.3759   6   8   0.1210   0.1349   0.1877   0.0346   0.0302   0.0834   0.00    0.0
2020/03/01 00:43:00.000  -35.399199086  148.980011406   665.3790   6   8   0.1199   0.1338   0.1853   0.0341   0.0303   0.0825   0.00    0.0
2020/03/01 00:43:30.000  -35.399199039  148.980011361   665.3822   6   8   0.1187   0.1327   0.1828   0.0336   0.0303   0.0816   0.00    0.0
2020/03/01 00:44:00.000  -35.399199006  148.980011364   665.3830   6   8   0.1175   0.1316   0.1802   0.0331   0.0304   0.0807   0.00    0.0
2020/03/01 00:44:30.000  -35.399198955  148.980011346   665.3850   6   8   0.1163   0.1305   0.1776   0.0326   0.0304   0.0798   0.00    0.0
2020/03/01 00:45:00.000  -35.399198933  148.980011334   665.3852   6   8   0.1151   0.1294   0.1751   0.0321   0.0305   0.0789   0.00    0.0
2020/03/01 00:45:30.000  -35.399198933  148.980011308   665.3825   6   8   0.1140   0.1284   0.1726   0.0316   0.0305   0.0780   0.00    0.0
2020/03/01 00:46:00.000  -35.399198925  148.980011285   665.3801   6   8   0.1129   0.1274   0.1703   0.0311   0.0305   0.0771   0.00    0.0
2020/03/01 00:46:30.000  -35.399198923  148.980011304   665.3752   6   8   0.1118   0.1264   0.1681   0.0307   0.0305   0.0764   0.00    0.0
2020/03/01 00:47:00.000  -35.399198936  148.980011230   665.3742   6   8   0.1108   0.1254   0.1661   0.0302   0.0305   0.0756   0.00    0.0
2020/03/01 00:47:30.000  -35.399198931  148.980011192   665.3712   6   8   0.1099   0.1245   0.1642   0.0298   0.0304   0.0749   0.00    0.0
2020/03/01 00:48:00.000  -35.399198944  148.980011153   665.3677   6   8   0.1089   0.1235   0.1623   0.0294   0.0304   0.0742   0.00    0.0
2020/03/01 00:48:30.000  -35.399198969  148.980011138   665.3647   6   8   0.1079   0.1226   0.1602   0.0290   0.0304   0.0734   0.00    0.0
2020/03/01 00:49:00.000  -35.399198944  148.980011128   665.3641   6   8   0.1068   0.1217   0.1582   0.0285   0.0303   0.0727   0.00    0.0
2020/03/01 00:49:30.000  -35.399198916  148.980011095   665.3660   6   8   0.1058   0.1207   0.1561   0.0281   0.0303   0.0719   0.00    0.0
2020/03/01 00:50:00.000  -35.399198922  148.980011076   665.3635   6   8   0.1048   0.1198   0.1540   0.0277   0.0302   0.0712   0.00    0.0
2020/03/01 00:50:30.000  -35.399198920  148.980011015   665.3624   6   8   0.1038   0.1189   0.1521   0.0273   0.0302   0.0705   0.00    0.0
2020/03/01 00:51:00.000  -35.399198867  148.980011008   665.3646   6   8   0.1028   0.1180   0.1502   0.0269   0.0301   0.0698   0.00    0.0
2020/03/01 00:51:30.000  -35.399198863  148.980010973   665.3624   6   8   0.1019   0.1172   0.1484   0.0265   0.0300   0.0691   0.00    0.0
2020/03/01 00:52:00.000  -35.399198844  148.980010956   665.3660   6   8   0.1010   0.1163   0.1468   0.0262   0.0300   0.0685   0.00    0.0
2020/03/01 00:52:30.000  -35.399198820  148.980010976   665.3677   6   8   0.1002   0.1156   0.1453   0.0258   0.0299   0.0679   0.00    0.0
2020/03/01 00:53:00.000  -35.399198816  148.980011060   665.3661   6   8   0.0993   0.1147   0.1437   0.0255   0.0298   0.0674   0.00    0.0
2020/03/01 00:53:30.000  -35.399198790  148.980011021   665.3704   6   8   0.0985   0.1139   0.1420   0.0251   0.0297   0.0667   0.00    0.0
2020/03/01 00:54:00.000  -35.399198770  148.980010997   665.3726   6   8   0.0976   0.1131   0.1403   0.0248   0.0296   0.0661   0.00    0.0
2020/03/01 00:54:30.000  -35.399198744  148.980010941   665.3759   6   8   0.0966   0.1123   0.1386   0.0244   0.0296   0.0655   0.00    0.0
2020/03/01 00:55:00.000  -35.399198731  148.980010910   665.3743   6   8   0.0957   0.1115   0.1369   0.0241   0.0295   0.0649   0.00    0.0
2020/03/01 00:55:30.000  -35.399198713  148.980010903   665.3707   6   8   0.0949   0.1107   0.1353   0.0238   0.0294   0.0643   0.00    0.0
2020/03/01 00:56:00.000  -35.399198706  148.980010849   665.3694   6   8   0.0940   0.1100   0.1338   0.0234   0.0293   0.0637   0.00    0.0
2020/03/01 00:56:30.000  -35.399198699  148.980010857   665.3650   6   8   0.0932   0.1092   0.1323   0.0231   0.0292   0.0632   0.00    0.0
2020/03/01 00:57:00.000  -35.399198671  148.980010866   665.3645   6   8   0.0924   0.1085   0.1310   0.0228   0.0291   0.0627   0.00    0.0
2020/03/01 00:57:30.000  -35.399198638  148.980010891   665.3624   6   8   0.0917   0.1078   0.1298   0.0225   0.0290   0.0622   0.00    0.0
2020/03/01 00:58:00.000  -35.399198608  148.980010885   665.3631   6   8   0.0910   0.1071   0.1284   0.0222   0.0289   0.0617   0.00    0.0
2020/03/01 00:58:30.000  -35.399198593  148.980010888   665.3601   6   8   0.0902   0.1064   0.1271   0.0220   0.0288   0.0612   0.00    0.0
2020/03/01 00:59:00.000  -35.399198574  148.980010911   665.3598   6   8   0.0894   0.1057   0.1257   0.0217   0.0287   0.0606   0.00    0.0
2020/03/01 00:59:30.000  -35.399198544  148.980010833   665.3625   6   8   0.0886   0.1050   0.1243   0.0214   0.0286   0.0601   0.00    0.0
2020/03/01 01:00:00.000  -35.399198522  148.980010814   665.3622   6   8   0.0878   0.1043   0.1229   0.0211   0.0285   0.0596   0.00    0.0
2020/03/01 01:00:30.000  -35.399198487  148.980010779   665.3599   6   8   0.0870   0.1036   0.1216   0.0208   0.0284   0.0591   0.00    0.0
2020/03/01 01:01:00.000  -35.399198484  148.980010723   665.3539   6   8   0.0863   0.1029   0.1203   0.0206   0.0282   0.0586   0.00    0.0
2020/03/01 01:01:30.000  -35.399198455  148.980010657   665.3516   6   8   0.0856   0.1022   0.1191   0.0203   0.0281   0.0582   0.00    0.0
2020/03/01 01:02:00.000  -35.399198455  148.980010619   665.3466   6   8   0.0849   0.1016   0.1180   0.0201   0.0280   0.0577   0.00    0.0
2020/03/01 01:02:30.000  -35.399198452  148.980010603   665.3440   6   8   0.0843   0.1010   0.1169   0.0198   0.0279   0.0573   0.00    0.0
2020/03/01 01:03:00.000  -35.399198422  148.980010590   665.3447   6   8   0.0836   0.1004   0.1159   0.0196   0.0278   0.0569   0.00    0.0
2020/03/01 01:03:30.000  -35.399198394  148.980010498   665.3447   6   8   0.0830   0.0998   0.1147   0.0194   0.0277   0.0565   0.00    0.0
2020/03/01 01:04:00.000  -35.399198381  148.980010480   665.3444   6   8   0.0823   0.0991   0.1136   0.0191   0.0276   0.0560   0.00    0.0
2020/03/01 01:04:30.000  -35.399198389  148.980010389   665.3436   6   8   0.0816   0.0985   0.1124   0.0189   0.0275   0.0556   0.00    0.0
2020/03/01 01:05:00.000  -35.399198384  148.980010311   665.3430   6   9   0.0808   0.0978   0.1112   0.0186   0.0273   0.0551   0.00    0.0
2020/03/01 01:05:30.000  -35.399198346  148.980010247   665.3459   6   9   0.0801   0.0972   0.1101   0.0183   0.0271   0.0546   0.00    0.0
2020/03/01 01:06:00.000  -35.399198348  148.980010223   665.3454   6   9   0.0794   0.0966   0.1090   0.0180   0.0269   0.0542   0.00    0.0
2020/03/01 01:06:30.000  -35.399198340  148.980010221   665.3460   6   9   0.0788   0.0960   0.1080   0.0177   0.0267   0.0537   0.00    0.0
2020/03/01 01:07:00.000  -35.399198331  148.980010205   665.3484   6   9   0.0782   0.0954   0.1070   0.0174   0.0265   0.0533   0.00    0.0
2020/03/01 01:07:30.000  -35.399198332  148.980010175   665.3482   6  10   0.0776   0.0948   0.1061   0.0172   0.0263   0.0530   0.00    0.0
2020/03/01 01:08:00.000  -35.399198327  148.980010151   665.3476   6  10   0.0770   0.0943   0.1052   0.0169   0.0261   0.0526   0.00    0.0
2020/03/01 01:08:30.000  -35.399198322  148.980010072   665.3460   6   9   0.0765   0.0937   0.1046   0.0167   0.0260   0.0525   0.00    0.0
2020/03/01 01:09:00.000  -35.399198312  148.980010054   665.3470   6   9   0.0759   0.0931   0.1040   0.0165   0.0259   0.0524   0.00    0.0
2020/03/01 01:09:30.000  -35.399198317  148.980010029   665.3473   6   9   0.0753   0.0925   0.1034   0.0163   0.0257   0.0523   0.00    0.0
2020/03/01 01:10:00.000  -35.399198290  148.980009988   665.3483   6   9   0.0748   0.0919   0.1028   0.0160   0.0256   0.0522   0.00    0.0
2020/03/01 01:10:30.000  -35.399198285  148.980009950   665.3456   6   9   0.0742   0.0914   0.1022   0.0158   0.0255   0.0520   0.00    0.0
2020/03/01 01:11:00.000  -35.399198266  148.980009922   665.3464   6   9   0.0737   0.0908   0.1016   0.0156   0.0254   0.0519   0.00    0.0
2020/03/01 01:11:30.000  -35.399198256  148.980009880   665.3451   6   9   0.0732   0.0903   0.1011   0.0155   0.0253   0.0518   0.00    0.0
2020/03/01 01:12:00.000  -35.399198233  148.980009810   665.3451   6   9   0.0727   0.0897   0.1006   0.0153   0.0251   0.0517   0.00    0.0
2020/03/01 01:12:30.000  -35.399198226  148.980009789   665.3444   6   9   0.0722   0.0892   0.1001   0.0151   0.0250   0.0515   0.00    0.0
2020/03/01 01:13:00.000  -35.399198215  148.980009742   665.3422   6   9   0.0718   0.0887   0.0996   0.0149   0.0249   0.0514   0.00    0.0
2020/03/01 01:13:30.000  -35.399198211  148.980009667   665.3394   6   9   0.0713   0.0882   0.0990   0.0147   0.0247   0.0513   0.00    0.0
2020/03/01 01:14:00.000  -35.399198212  148.980009631   665.3390   6   9   0.0708   0.0877   0.0985   0.0146   0.0246   0.0511   0.00    0.0
2020/03/01 01:14:30.000  -35.399198204  148.980009576   665.3376   6   9   0.0702   0.0871   0.0979   0.0144   0.0245   0.0510   0.00    0.0
2020/03/01 01:15:00.000  -35.399198175  148.980009539   665.3383   6   8   0.0697   0.0866   0.0978   0.0143   0.0244   0.0508   0.00    0.0
2020/03/01 01:15:30.000  -35.399198160  148.980009506   665.3359   6   8   0.0692   0.0861   0.0976   0.0141   0.0243   0.0507   0.00    0.0
2020/03/01 01:16:00.000  -35.399198140  148.980009516   665.3362   6   8   0.0687   0.0856   0.0974   0.0140   0.0242   0.0505   0.00    0.0
2020/03/01 01:16:30.000  -35.399198124  148.980009464   665.3368   6   8   0.0683   0.0851   0.0973   0.0138   0.0242   0.0504   0.00    0.0
2020/03/01 01:17:00.000  -35.399198104  148.980009435   665.3375   6   8   0.0678   0.0846   0.0971   0.0137   0.0241   0.0502   0.00    0.0
2020/03/01 01:17:30.000  -35.399198094  148.980009418   665.3369   6   8   0.0674   0.0841   0.0970   0.0135   0.0240   0.0501   0.00    0.0
2020/03/01 01:18:00.000  -35.399198074  148.980009378   665.3354   6   8   0.0670   0.0837   0.0968   0.0134   0.0239   0.0499   0.00    0.0
2020/03/01 01:18:30.000  -35.399198054  148.980009359   665.3330   6   8   0.0666   0.0832   0.0967   0.0133   0.0238   0.0498   0.00    0.0
2020/03/01 01:19:00.000  -35.399198017  148.980009324   665.3328   6   8   0.0661   0.0827   0.0965   0.0132   0.0237   0.0496   0.00    0.0
2020/03/01 01:19:30.000  -35.399197975  148.980009259   665.3364   6   8   0.0656   0.0822   0.0963   0.0130   0.0236   0.0495   0.00    0.0
2020/03/01 01:20:00.000  -35.399197942  148.980009195   665.3393   6   8   0.0652   0.0817   0.0962   0.0129   0.0235   0.0494   0.00    0.0
2020/03/01 01:20:30.000  -35.399197928  148.980009136   665.3383   6   8   0.0647   0.0813   0.0960   0.0128   0.0234   0.0492   0.00    0.0
2020/03/01 01:21:00.000  -35.399197910  148.980009097   665.3381   6   8   0.0642   0.0808   0.0958   0.0127   0.0233   0.0491   0.00    0.0
2020/03/01 01:21:30.000  -35.399197892  148.980009058   665.3374   6   8   0.0638   0.0803   0.0957   0.0126   0.0232   0.0489   0.00    0.0
2020/03/01 01:22:00.000  -35.399197876  148.980009020   665.3364   6   8   0.0634   0.0799   0.0955   0.0125   0.0232   0.0488   0.00    0.0
2020/03/01 01:22:30.000  -35.399197854  148.980008993   665.3360   6   8   0.0631   0.0795   0.0954   0.0124   0.0231   0.0487   0.00    0.0
2020/03/01 01:23:00.000  -35.399197830  148.980008936   665.3364   6   8   0.0627   0.0791   0.0952   0.0124   0.0230   0.0486   0.00    0.0
2020/03/01 01:23:30.000  -35.399197804  148.980008877   665.3354   6   8   0.0623   0.0786   0.0951   0.0123   0.0229   0.0484   0.00    0.0
2020/03/01 01:24:00.000  -35.399197780  148.980008859   665.3336   6   8   0.0618   0.0782   0.0949   0.0122   0.0228   0.0483   0.00    0.0
2020/03/01 01:24:30.000  -35.399197773  148.980008834   665.3311   6   8   0.0614   0.0777   0.0947   0.0121   0.0227   0.0482   0.00    0.0
2020/03/01 01:25:00.000  -35.399197759  148.980008791   665.3307   6   8   0.0610   0.0773   0.0946   0.0120   0.0226   0.0480   0.00    0.0
2020/03/01 01:25:30.000  -35.399197744  148.980008735   665.3313   6   8   0.0605   0.0768   0.0944   0.0120   0.0225   0.0479   0.00    0.0
2020/03/01 01:26:00.000  -35.399197732  148.980008675   665.3318   6   8   0.0601   0.0764   0.0942   0.0119   0.0224   0.0478   0.00    0.0
2020/03/01 01:26:30.000  -35.399197721  148.980008617   665.3304   6   8   0.0597   0.0760   0.0941   0.0118   0.0223   0.0477   0.00    0.0
2020/03/01 01:27:00.000  -35.399197708  148.980008571   665.3305   6   8   0.0594   0.0756   0.0939   0.0118   0.0222   0.0476   0.00    0.0
2020/03/01 01:27:30.000  -35.399197708  148.980008559   665.3291   6   8   0.0590   0.0752   0.0937   0.0117   0.0221   0.0474   0.00    0.0
2020/03/01 01:28:00.000  -35.399197707  148.980008551   665.3283   6   8   0.0587   0.0748   0.0936   0.0116   0.0220   0.0473   0.00    0.0
2020/03/01 01:28:30.000  -35.399197707  148.980008528   665.3266   6   8   0.0583   0.0744   0.0934   0.0116   0.0219   0.0472   0.00    0.0
2020/03/01 01:29:00.000  -35.399197694  148.980008484   665.3275   6   8   0.0579   0.0740   0.0932   0.0115   0.0218   0.0471   0.00    0.0
2020/03/01 01:29:30.000  -35.399197684  148.980008450   665.3278   6   8   0.0575   0.0736   0.0931   0.0115   0.0217   0.0470   0.00    0.0
2020/03/01 01:30:00.000  -35.399197666  148.980008372   665.3279   6   8   0.0571   0.0731   0.0929   0.0114   0.0216   0.0468   0.00    0.0
2020/03/01 01:30:30.000  -35.399197651  148.980008296   665.3284   6   8   0.0567   0.0727   0.0927   0.0114   0.0215   0.0467   0.00    0.0
2020/03/01 01:31:00.000  -35.399197634  148.980008215   665.3276   6   8   0.0564   0.0723   0.0925   0.0113   0.0214   0.0466   0.00    0.0
2020/03/01 01:31:30.000  -35.399197617  148.980008152   665.3271   6   8   0.0560   0.0720   0.0924   0.0113   0.0213   0.0465   0.00    0.0
2020/03/01 01:32:00.000  -35.399197601  148.980008104   665.3269   6   8   0.0557   0.0716   0.0922   0.0112   0.0212   0.0464   0.00    0.0
2020/03/01 01:32:30.000  -35.399197597  148.980008064   665.3239   6   8   0.0554   0.0712   0.0920   0.0112   0.0211   0.0463   0.00    0.0
2020/03/01 01:33:00.000  -35.399197586  148.980008044   665.3244   6   8   0.0551   0.0709   0.0919   0.0111   0.0210   0.0462   0.00    0.0
2020/03/01 01:33:30.000  -35.399197579  148.980008040   665.3238   6   8   0.0547   0.0705   0.0917   0.0111   0.0209   0.0460   0.00    0.0
2020/03/01 01:34:00.000  -35.399197574  148.980008025   665.3213   6   8   0.0544   0.0701   0.0915   0.0110   0.0208   0.0459   0.00    0.0
2020/03/01 01:34:30.000  -35.399197571  148.980008005   665.3197   6   8   0.0540   0.0697   0.0913   0.0110   0.0207   0.0458   0.00    0.0
2020/03/01 01:35:00.000  -35.399197553  148.980008004   665.3214   6   8   0.0537   0.0693   0.0911   0.0109   0.0205   0.0457   0.00    0.0
2020/03/01 01:35:30.000  -35.399197529  148.980007987   665.3227   6   8   0.0533   0.0690   0.0909   0.0109   0.0204   0.0456   0.00    0.0
2020/03/01 01:36:00.000  -35.399197527  148.980007957   665.3205   6   8   0.0530   0.0686   0.0907   0.0109   0.0203   0.0455   0.00    0.0
2020/03/01 01:36:30.000  -35.399197531  148.980007908   665.3173   6   8   0.0526   0.0682   0.0905   0.0108   0.0202   0.0453   0.00    0.0
2020/03/01 01:37:00.000  -35.399197527  148.980007849   665.3145   6   8   0.0523   0.0679   0.0904   0.0108   0.0201   0.0452   0.00    0.0
2020/03/01 01:37:30.000  -35.399197513  148.980007808   665.3151   6   8   0.0521   0.0676   0.0902   0.0107   0.0200   0.0451   0.00    0.0
2020/03/01 01:38:00.000  -35.399197495  148.980007763   665.3159   6   8   0.0518   0.0672   0.0900   0.0107   0.0198   0.0450   0.00    0.0
2020/03/01 01:38:30.000  -35.399197496  148.980007724   665.3137   6   8   0.0515   0.0669   0.0898   0.0106   0.0197   0.0449   0.00    0.0
2020/03/01 01:39:00.000  -35.399197490  148.980007658   665.3120   6   8   0.0511   0.0665   0.0896   0.0106   0.0196   0.0448   0.00    0.0
2020/03/01 01:39:30.000  -35.399197489  148.980007614   665.3100   6   8   0.0508   0.0662   0.0894   0.0106   0.0195   0.0447   0.00    0.0
2020/03/01 01:40:00.000  -35.399197488  148.980007579   665.3077   6   8   0.0505   0.0658   0.0892   0.0105   0.0193   0.0446   0.00    0.0
2020/03/01 01:40:30.000  -35.399197481  148.980007564   665.3059   6   8   0.0502   0.0655   0.0890   0.0105   0.0192   0.0445   0.00    0.0
2020/03/01 01:41:00.000  -35.399197471  148.980007547   665.3046   6   8   0.0499   0.0651   0.0888   0.0104   0.0191   0.0443   0.00    0.0
2020/03/01 01:41:30.000  -35.399197463  148.980007527   665.3029   6   8   0.0496   0.0648   0.0886   0.0104   0.0189   0.0442   0.00    0.0
2020/03/01 01:42:00.000  -35.399197457  148.980007500   665.3009   6   8   0.0493   0.0645   0.0885   0.0104   0.0188   0.0441   0.00    0.0
2020/03/01 01:42:30.000  -35.399197453  148.980007463   665.2990   6   8   0.0490   0.0642   0.0883   0.0103   0.0187   0.0440   0.00    0.0
2020/03/01 01:43:00.000  -35.399197446  148.980007444   665.2992   6   8   0.0488   0.0639   0.0881   0.0103   0.0186   0.0439   0.00    0.0
2020/03/01 01:43:30.000  -35.399197442  148.980007400   665.2987   6   8   0.0485   0.0635   0.0879   0.0102   0.0184   0.0438   0.00    0.0
2020/03/01 01:44:00.000  -35.399197444  148.980007367   665.2973   6   8   0.0482   0.0632   0.0877   0.0102   0.0183   0.0437   0.00    0.0
2020/03/01 01:44:30.000  -35.399197437  148.980007336   665.2965   6   8   0.0479   0.0629   0.0875   0.0101   0.0181   0.0436   0.00    0.0
2020/03/01 01:45:00.000  -35.399197432  148.980007302   665.2954   6   8   0.0476   0.0625   0.0873   0.0101   0.0180   0.0435   0.00    0.0
2020/03/01 01:45:30.000  -35.399197423  148.980007265   665.2949   6   8   0.0473   0.0622   0.0870   0.0100   0.0178   0.0434   0.00    0.0
2020/03/01 01:46:00.000  -35.399197417  148.980007241   665.2941   6   8   0.0470   0.0619   0.0868   0.0100   0.0177   0.0432   0.00    0.0
2020/03/01 01:46:30.000  -35.399197414  148.980007209   665.2941   6   8   0.0468   0.0616   0.0866   0.0100   0.0175   0.0431   0.00    0.0
2020/03/01 01:47:00.000  -35.399197411  148.980007165   665.2937   6   8   0.0465   0.0613   0.0864   0.0099   0.0174   0.0430   0.00    0.0
2020/03/01 01:47:30.000  -35.399197403  148.980007131   665.2937   6   8   0.0463   0.0610   0.0862   0.0099   0.0173   0.0429   0.00    0.0
2020/03/01 01:48:00.000  -35.399197400  148.980007116   665.2928   6   8   0.0460   0.0607   0.0860   0.0098   0.0171   0.0428   0.00    0.0
2020/03/01 01:48:30.000  -35.399197392  148.980007089   665.2928   6   8   0.0458   0.0604   0.0858   0.0098   0.0169   0.0427   0.00    0.0
2020/03/01 01:49:00.000  -35.399197387  148.980007054   665.2926   6   8   0.0455   0.0601   0.0856   0.0097   0.0168   0.0426   0.00    0.0
2020/03/01 01:49:30.000  -35.399197387  148.980007003   665.2912   6   8   0.0452   0.0598   0.0854   0.0097   0.0166   0.0425   0.00    0.0
2020/03/01 01:50:00.000  -35.399197383  148.980006964   665.2902   6   8   0.0450   0.0595   0.0852   0.0096   0.0164   0.0424   0.00    0.0
2020/03/01 01:50:30.000  -35.399197379  148.980006933   665.2883   6   8   0.0447   0.0592   0.0849   0.0096   0.0163   0.0422   0.00    0.0
2020/03/01 01:51:00.000  -35.399197377  148.980006907   665.2859   6   8   0.0444   0.0589   0.0847   0.0095   0.0161   0.0421   0.00    0.0
2020/03/01 01:51:30.000  -35.399197371  148.980006870   665.2835   6   8   0.0442   0.0586   0.0845   0.0094   0.0159   0.0420   0.00    0.0
2020/03/01 01:52:00.000  -35.399197366  148.980006833   665.2827   6   8   0.0440   0.0583   0.0843   0.0094   0.0158   0.0419   0.00    0.0
2020/03/01 01:52:30.000  -35.399197364  148.980006806   665.2818   6   8   0.0438   0.0581   0.0841   0.0093   0.0156   0.0418   0.00    0.0
2020/03/01 01:53:00.000  -35.399197361  148.980006780   665.2807   6   8   0.0435   0.0578   0.0839   0.0093   0.0154   0.0417   0.00    0.0
2020/03/01 01:53:30.000  -35.399197363  148.980006732   665.2782   6   8   0.0433   0.0575   0.0837   0.0092   0.0153   0.0416   0.00    0.0
2020/03/01 01:54:00.000  -35.399197364  148.980006694   665.2765   6   8   0.0431   0.0573   0.0834   0.0092   0.0151   0.0415   0.00    0.0
2020/03/01 01:54:30.000  -35.399197361  148.980006665   665.2750   6   8   0.0428   0.0570   0.0832   0.0091   0.0149   0.0414   0.00    0.0
2020/03/01 01:55:00.000  -35.399197358  148.980006631   665.2743   6   8   0.0426   0.0567   0.0830   0.0090   0.0147   0.0412   0.00    0.0
2020/03/01 01:55:30.000  -35.399197359  148.980006582   665.2721   6   8   0.0423   0.0564   0.0827   0.0090   0.0145   0.0411   0.00    0.0
2020/03/01 01:56:00.000  -35.399197358  148.980006562   665.2717   6   8   0.0421   0.0561   0.0825   0.0089   0.0143   0.0410   0.00    0.0
2020/03/01 01:56:30.000  -35.399197368  148.980006512   665.2679   6   8   0.0419   0.0558   0.0823   0.0089   0.0141   0.0409   0.00    0.0
2020/03/01 01:57:00.000  -35.399197369  148.980006458   665.2650   6   8   0.0417   0.0556   0.0821   0.0088   0.0139   0.0408   0.00    0.0
2020/03/01 01:57:30.000  -35.399197369  148.980006421   665.2633   6   8   0.0415   0.0554   0.0819   0.0087   0.0137   0.0407   0.00    0.0
2020/03/01 01:58:00.000  -35.399197360  148.980006381   665.2629   6   8   0.0413   0.0551   0.0817   0.0087   0.0135   0.0406   0.00    0.0
2020/03/01 01:58:30.000  -35.399197360  148.980006342   665.2609   6   8   0.0410   0.0548   0.0814   0.0086   0.0133   0.0405   0.00    0.0
2020/03/01 01:59:00.000  -35.399197358  148.980006298   665.2595   6   8   0.0408   0.0546   0.0812   0.0085   0.0131   0.0403   0.00    0.0
2020/03/01 01:59:30.000  -35.399197353  148.980006261   665.2588   6   8   0.0406   0.0543   0.0810   0.0085   0.0129   0.0402   0.00    0.0
2020/03/01 02:00:00.000  -35.399197350  148.980006230   665.2580   6   8   0.0404   0.0540   0.0807   0.0084   0.0126   0.0401   0.00    0.0
2020/03/01 02:00:30.000  -35.399197347  148.980006203   665.2566   6   8   0.0401   0.0538   0.0805   0.0083   0.0124   0.0400   0.00    0.0
2020/03/01 02:01:00.000  -35.399197346  148.980006160   665.2554   6   8   0.0399   0.0535   0.0802   0.0082   0.0122   0.0398   0.00    0.0
2020/03/01 02:01:30.000  -35.399197343  148.980006121   665.2545   6   8   0.0397   0.0533   0.0800   0.0082   0.0119   0.0397   0.00    0.0
2020/03/01 02:02:00.000  -35.399197336  148.980006088   665.2544   6   8   0.0395   0.0530   0.0798   0.0081   0.0117   0.0396   0.00    0.0
2020/03/01 02:02:30.000  -35.399197335  148.980006055   665.2531   6   8   0.0393   0.0528   0.0796   0.0080   0.0115   0.0395   0.00    0.0
2020/03/01 02:03:00.000  -35.399197334  148.980006024   665.2520   6   8   0.0392   0.0526   0.0793   0.0080   0.0113   0.0394   0.00    0.0
2020/03/01 02:03:30.000  -35.399197334  148.980006002   665.2512   6   8   0.0390   0.0523   0.0791   0.0079   0.0110   0.0393   0.00    0.0
2020/03/01 02:04:00.000  -35.399197334  148.980005952   665.2490   6   8   0.0388   0.0521   0.0789   0.0078   0.0108   0.0392   0.00    0.0
2020/03/01 02:04:30.000  -35.399197336  148.980005892   665.2465   6   8   0.0385   0.0518   0.0786   0.0077   0.0105   0.0391   0.00    0.0
2020/03/01 02:05:00.000  -35.399197339  148.980005846   665.2443   6   8   0.0383   0.0516   0.0784   0.0076   0.0102   0.0389   0.00    0.0
2020/03/01 02:05:30.000  -35.399197335  148.980005802   665.2434   6   8   0.0381   0.0513   0.0781   0.0075   0.0099   0.0388   0.00    0.0
2020/03/01 02:06:00.000  -35.399197336  148.980005758   665.2415   6   8   0.0379   0.0511   0.0779   0.0074   0.0096   0.0387   0.00    0.0
2020/03/01 02:06:30.000  -35.399197328  148.980005724   665.2415   6   8   0.0377   0.0509   0.0776   0.0074   0.0094   0.0386   0.00    0.0
2020/03/01 02:07:00.000  -35.399197325  148.980005678   665.2399   6   8   0.0376   0.0507   0.0774   0.0073   0.0091   0.0385   0.00    0.0
2020/03/01 02:07:30.000  -35.399197315  148.980005642   665.2402   6   8   0.0374   0.0504   0.0772   0.0072   0.0088   0.0383   0.00    0.0
2020/03/01 02:08:00.000  -35.399197311  148.980005593   665.2398   6   8   0.0372   0.0502   0.0770   0.0071   0.0085   0.0382   0.00    0.0
2020/03/01 02:08:30.000  -35.399197311  148.980005572   665.2396   6   8   0.0370   0.0500   0.0767   0.0070   0.0082   0.0381   0.00    0.0
2020/03/01 02:09:00.000  -35.399197316  148.980005537   665.2377   6   8   0.0369   0.0498   0.0765   0.0069   0.0079   0.0380   0.00    0.0
2020/03/01 02:09:30.000  -35.399197316  148.980005516   665.2366   6   8   0.0367   0.0495   0.0762   0.0068   0.0075   0.0379   0.00    0.0
2020/03/01 02:10:00.000  -35.399197315  148.980005493   665.2360   6   8   0.0365   0.0493   0.0760   0.0067   0.0071   0.0377   0.00    0.0
2020/03/01 02:10:30.000  -35.399197311  148.980005464   665.2363   6   8   0.0363   0.0491   0.0757   0.0066   0.0067   0.0376   0.00    0.0
2020/03/01 02:11:00.000  -35.399197306  148.980005454   665.2365   6   8   0.0361   0.0489   0.0755   0.0065   0.0062   0.0375   0.00    0.0
2020/03/01 02:11:30.000  -35.399197304  148.980005432   665.2357   6   8   0.0359   0.0486   0.0752   0.0064   0.0058   0.0374   0.00    0.0
2020/03/01 02:12:00.000  -35.399197304  148.980005399   665.2347   6   8   0.0358   0.0484   0.0750   0.0064   0.0054   0.0373   0.00    0.0
2020/03/01 02:12:30.000  -35.399197306  148.980005362   665.2328   6   8   0.0356   0.0482   0.0748   0.0063   0.0049   0.0372   0.00    0.0
2020/03/01 02:13:00.000  -35.399197300  148.980005337   665.2324   6   8   0.0354   0.0480   0.0746   0.0062   0.0044   0.0370   0.00    0.0
2020/03/01 02:13:30.000  -35.399197294  148.980005315   665.2326   6   8   0.0353   0.0478   0.0743   0.0061   0.0038   0.0369   0.00    0.0
2020/03/01 02:14:00.000  -35.399197292  148.980005285   665.2324   6   8   0.0351   0.0476   0.0741   0.0060   0.0030   0.0368   0.00    0.0
2020/03/01 02:14:30.000  -35.399197292  148.980005262   665.2317   6   8   0.0349   0.0474   0.0738   0.0058   0.0018   0.0367   0.00    0.0
2020/03/01 02:15:00.000  -35.399197291  148.980005236   665.2315   6   8   0.0347   0.0472   0.0736   0.0057  -0.0015   0.0365   0.00    0.0
2020/03/01 02:15:30.000  -35.399197291  148.980005212   665.2310   6   9   0.0346   0.0470   0.0733   0.0056  -0.0029   0.0364   0.00    0.0
2020/03/01 02:16:00.000  -35.399197295  148.980005183   665.2291   6   9   0.0344   0.0468   0.0730   0.0054  -0.0037   0.0363   0.00    0.0
2020/03/01 02:16:30.000  -35.399197300  148.980005149   665.2276   6   9   0.0342   0.0466   0.0728   0.0053  -0.0044   0.0362   0.00    0.0
2020/03/01 02:17:00.000  -35.399197301  148.980005119   665.2270   6   9   0.0341   0.0464   0.0726   0.0052  -0.0049   0.0360   0.00    0.0
2020/03/01 02:17:30.000  -35.399197301  148.980005087   665.2265   6   9   0.0339   0.0462   0.0723   0.0051  -0.0054   0.0359   0.00    0.0
2020/03/01 02:18:00.000  -35.399197303  148.980005057   665.2253   6   9   0.0338   0.0460   0.0721   0.0049  -0.0058   0.0358   0.00    0.0
2020/03/01 02:18:30.000  -35.399197304  148.980005023   665.2236   6   9   0.0336   0.0458   0.0719   0.0048  -0.0062   0.0357   0.00    0.0
2020/03/01 02:19:00.000  -35.399197308  148.980004995   665.2217   6   9   0.0335   0.0456   0.0716   0.0046  -0.0067   0.0356   0.00    0.0
2020/03/01 02:19:30.000  -35.399197311  148.980004967   665.2200   6   9   0.0333   0.0454   0.0713   0.0045  -0.0071   0.0354   0.00    0.0
2020/03/01 02:20:00.000  -35.399197312  148.980004931   665.2192   6   9   0.0331   0.0452   0.0711   0.0043  -0.0074   0.0353   0.00    0.0
2020/03/01 02:20:30.000  -35.399197316  148.980004892   665.2172   6   9   0.0329   0.0450   0.0708   0.0041  -0.0078   0.0352   0.00    0.0
2020/03/01 02:21:00.000  -35.399197321  148.980004865   665.2160   6   9   0.0328   0.0448   0.0706   0.0040  -0.0081   0.0350   0.00    0.0
2020/03/01 02:21:30.000  -35.399197321  148.980004836   665.2154   6   9   0.0326   0.0446   0.0703   0.0038  -0.0084   0.0349   0.00    0.0
2020/03/01 02:22:00.000  -35.399197322  148.980004803   665.2146   6   9   0.0325   0.0444   0.0701   0.0036  -0.0087   0.0348   0.00    0.0
2020/03/01 02:22:30.000  -35.399197323  148.980004762   665.2133   6   9   0.0324   0.0443   0.0699   0.0035  -0.0089   0.0347   0.00    0.0
2020/03/01 02:23:00.000  -35.399197319  148.980004732   665.2137   6   9   0.0322   0.0441   0.0696   0.0033  -0.0092   0.0346   0.00    0.0
2020/03/01 02:23:30.000  -35.399197314  148.980004696   665.2139   6   9   0.0321   0.0439   0.0694   0.0031  -0.0094   0.0345   0.00    0.0
2020/03/01 02:24:00.000  -35.399197320  148.980004657   665.2122   6   9   0.0319   0.0437   0.0691   0.0029  -0.0097   0.0343   0.00    0.0
2020/03/01 02:24:30.000  -35.399197318  148.980004639   665.2125   6   9   0.0318   0.0435   0.0689   0.0026  -0.0100   0.0342   0.00    0.0
2020/03/01 02:25:00.000  -35.399197322  148.980004607   665.2118   6   9   0.0316   0.0434   0.0686   0.0023  -0.0102   0.0341   0.00    0.0
2020/03/01 02:25:30.000  -35.399197323  148.980004586   665.2112   6   9   0.0314   0.0432   0.0683   0.0020  -0.0104   0.0339   0.00    0.0
2020/03/01 02:26:00.000  -35.399197327  148.980004544   665.2100   6   9   0.0313   0.0430   0.0681   0.0017  -0.0107   0.0338   0.00    0.0
2020/03/01 02:26:30.000  -35.399197322  148.980004520   665.2116   6   9   0.0312   0.0428   0.0678   0.0012  -0.0109   0.0337   0.00    0.0
2020/03/01 02:27:00.000  -35.399197321  148.980004492   665.2121   6   9   0.0310   0.0427   0.0676   0.0006  -0.0111   0.0336   0.00    0.0
2020/03/01 02:27:30.000  -35.399197322  148.980004460   665.2116   6   9   0.0309   0.0425   0.0674  -0.0008  -0.0112   0.0335   0.00    0.0
2020/03/01 02:28:00.000  -35.399197324  148.980004437   665.2107   6   9   0.0308   0.0423   0.0672  -0.0013  -0.0114   0.0333   0.00    0.0
2020/03/01 02:28:30.000  -35.399197326  148.980004417   665.2099   6   9   0.0306   0.0422   0.0669  -0.0017  -0.0116   0.0332   0.00    0.0
2020/03/01 02:29:00.000  -35.399197322  148.980004402   665.2104   6   9   0.0305   0.0420   0.0667  -0.0021  -0.0118   0.0331   0.00    0.0
2020/03/01 02:29:30.000  -35.399197316  148.980004392   665.2120   6   8   0.0304   0.0419   0.0665  -0.0019  -0.0118   0.0330   0.00    0.0
2020/03/01 02:30:00.000  -35.399197311  148.980004373   665.2131   6   8   0.0303   0.0417   0.0663  -0.0016  -0.0118   0.0330   0.00    0.0
2020/03/01 02:30:30.000  -35.399197309  148.980004355   665.2131   6   8   0.0302   0.0416   0.0661  -0.0014  -0.0119   0.0329   0.00    0.0
2020/03/01 02:31:00.000  -35.399197308  148.980004332   665.2127   6   8   0.0301   0.0414   0.0660  -0.0011  -0.0119   0.0329   0.00    0.0
2020/03/01 02:31:30.000  -35.399197307  148.980004316   665.2126   6   8   0.0300   0.0413   0.0658  -0.0008  -0.0119   0.0328   0.00    0.0
2020/03/01 02:32:00.000  -35.399197306  148.980004302   665.2123   6   8   0.0299   0.0411   0.0656  -0.0003  -0.0119   0.0328   0.00    0.0
2020/03/01 02:32:30.000  -35.399197305  148.980004284   665.2120   6   8   0.0298   0.0410   0.0655   0.0006  -0.0120   0.0327   0.00    0.0
2020/03/01 02:33:00.000  -35.399197300  148.980004266   665.2120   6   8   0.0297   0.0409   0.0653   0.0009  -0.0120   0.0327   0.00    0.0
2020/03/01 02:33:30.000  -35.399197298  148.980004245   665.2113   6   8   0.0296   0.0408   0.0651   0.0012  -0.0120   0.0326   0.00    0.0
2020/03/01 02:34:00.000  -35.399197297  148.980004221   665.2109   6   8   0.0295   0.0406   0.0649   0.0014  -0.0120   0.0325   0.00    0.0
2020/03/01 02:34:30.000  -35.399197298  148.980004198   665.2097   6   8   0.0294   0.0405   0.0648   0.0015  -0.0121   0.0325   0.00    0.0
2020/03/01 02:35:00.000  -35.399197299  148.980004172   665.2096   6   8   0.0293   0.0403   0.0646   0.0017  -0.0121   0.0324   0.00    0.0
2020/03/01 02:35:30.000  -35.399197298  148.980004159   665.2094   6   8   0.0292   0.0402   0.0644   0.0018  -0.0121   0.0324   0.00    0.0
2020/03/01 02:36:00.000  -35.399197297  148.980004147   665.2098   6   8   0.0291   0.0400   0.0642   0.0019  -0.0122   0.0323   0.00    0.0
2020/03/01 02:36:30.000  -35.399197295  148.980004136   665.2109   6   8   0.0290   0.0399   0.0640   0.0020  -0.0122   0.0322   0.00    0.0
2020/03/01 02:37:00.000  -35.399197295  148.980004129   665.2117   6   8   0.0290   0.0398   0.0639   0.0021  -0.0122   0.0322   0.00    0.0
2020/03/01 02:37:30.000  -35.399197299  148.980004113   665.2113   6   8   0.0289   0.0397   0.0637   0.0021  -0.0123   0.0321   0.00    0.0
2020/03/01 02:38:00.000  -35.399197299  148.980004096   665.2120   6   8   0.0288   0.0396   0.0635   0.0022  -0.0123   0.0320   0.00    0.0
2020/03/01 02:38:30.000  -35.399197297  148.980004086   665.2126   6   8   0.0287   0.0394   0.0633   0.0023  -0.0123   0.0320   0.00    0.0
2020/03/01 02:39:00.000  -35.399197294  148.980004067   665.2131   6   8   0.0286   0.0393   0.0632   0.0023  -0.0124   0.0319   0.00    0.0
2020/03/01 02:39:30.000  -35.399197294  148.980004054   665.2128   6   8   0.0285   0.0392   0.0630   0.0024  -0.0124   0.0318   0.00    0.0
2020/03/01 02:40:00.000  -35.399197294  148.980004032   665.2127   6   8   0.0284   0.0390   0.0628   0.0024  -0.0125   0.0318   0.00    0.0
2020/03/01 02:40:30.000  -35.399197293  148.980004011   665.2138   6   8   0.0283   0.0389   0.0626   0.0025  -0.0125   0.0317   0.00    0.0
2020/03/01 02:41:00.000  -35.399197294  148.980003985   665.2141   6   8   0.0282   0.0388   0.0624   0.0025  -0.0125   0.0316   0.00    0.0
2020/03/01 02:41:30.000  -35.399197292  148.980003970   665.2152   6   8   0.0281   0.0386   0.0622   0.0025  -0.0126   0.0316   0.00    0.0
2020/03/01 02:42:00.000  -35.399197289  148.980003959   665.2162   6   8   0.0280   0.0385   0.0620   0.0026  -0.0126   0.0315   0.00    0.0
2020/03/01 02:42:30.000  -35.399197288  148.980003951   665.2165   6   8   0.0280   0.0384   0.0619   0.0026  -0.0126   0.0314   0.00    0.0
2020/03/01 02:43:00.000  -35.399197284  148.980003941   665.2175   6   8   0.0279   0.0383   0.0617   0.0026  -0.0127   0.0314   0.00    0.0
2020/03/01 02:43:30.000  -35.399197280  148.980003921   665.2186   6   8   0.0278   0.0382   0.0615   0.0026  -0.0127   0.0313   0.00    0.0
2020/03/01 02:44:00.000  -35.399197274  148.980003910   665.2201   6   8   0.0277   0.0381   0.0613   0.0026  -0.0127   0.0312   0.00    0.0
2020/03/01 02:44:30.000  -35.399197270  148.980003901   665.2211   6   8   0.0276   0.0379   0.0611   0.0027  -0.0128   0.0311   0.00    0.0
2020/03/01 02:45:00.000  -35.399197269  148.980003889   665.2215   6   8   0.0275   0.0378   0.0609   0.0027  -0.0128   0.0310   0.00    0.0
2020/03/01 02:45:30.000  -35.399197268  148.980003877   665.2220   6   8   0.0274   0.0377   0.0607   0.0027  -0.0129   0.0310   0.00    0.0
2020/03/01 02:46:00.000  -35.399197267  148.980003869   665.2228   6   8   0.0273   0.0376   0.0606   0.0027  -0.0129   0.0309   0.00    0.0
2020/03/01 02:46:30.000  -35.399197267  148.980003843   665.2228   6   8   0.0272   0.0375   0.0604   0.0027  -0.0129   0.0308   0.00    0.0
2020/03/01 02:47:00.000  -35.399197268  148.980003820   665.2229   6   8   0.0271   0.0374   0.0602   0.0027  -0.0130   0.0307   0.00    0.0
2020/03/01 02:47:30.000  -35.399197268  148.980003796   665.2231   6   8   0.0271   0.0373   0.0600   0.0027  -0.0130   0.0307   0.00    0.0
2020/03/01 02:48:00.000  -35.399197268  148.980003777   665.2233   6   8   0.0270   0.0371   0.0599   0.0027  -0.0130   0.0306   0.00    0.0
2020/03/01 02:48:30.000  -35.399197268  148.980003750   665.2235   6   8   0.0269   0.0370   0.0597   0.0027  -0.0131   0.0305   0.00    0.0
2020/03/01 02:49:00.000  -35.399197267  148.980003725   665.2235   6   8   0.0268   0.0369   0.0595   0.0027  -0.0131   0.0304   0.00    0.0
2020/03/01 02:49:30.000  -35.399197267  148.980003707   665.2236   6   8   0.0267   0.0368   0.0593   0.0027  -0.0132   0.0303   0.00    0.0
2020/03/01 02:50:00.000  -35.399197264  148.980003690   665.2242   6   8   0.0266   0.0367   0.0591   0.0026  -0.0132   0.0303   0.00    0.0
2020/03/01 02:50:30.000  -35.399197260  148.980003677   665.2251   6   8   0.0265   0.0366   0.0589   0.0026  -0.0132   0.0302   0.00    0.0
2020/03/01 02:51:00.000  -35.399197260  148.980003658   665.2253   6   8   0.0264   0.0364   0.0587   0.0026  -0.0133   0.0301   0.00    0.0
2020/03/01 02:51:30.000  -35.399197258  148.980003649   665.2258   6   8   0.0264   0.0363   0.0585   0.0026  -0.0133   0.0300   0.00    0.0
2020/03/01 02:52:00.000  -35.399197258  148.980003641   665.2255   6   8   0.0263   0.0362   0.0583   0.0026  -0.0134   0.0299   0.00    0.0
2020/03/01 02:52:30.000  -35.399197256  148.980003629   665.2257   6   8   0.0262   0.0361   0.0582   0.0025  -0.0134   0.0298   0.00    0.0
2020/03/01 02:53:00.000  -35.399197255  148.980003623   665.2257   6   8   0.0261   0.0360   0.0580   0.0025  -0.0134   0.0298   0.00    0.0
2020/03/01 02:53:30.000  -35.399197254  148.980003618   665.2262   6   9   0.0260   0.0359   0.0578   0.0025  -0.0135   0.0297   0.00    0.0
2020/03/01 02:54:00.000  -35.399197251  148.980003603   665.2261   6   9   0.0259   0.0358   0.0576   0.0025  -0.0135   0.0296   0.00    0.0
2020/03/01 02:54:30.000  -35.399197250  148.980003590   665.2261   6   9   0.0259   0.0357   0.0574   0.0024  -0.0135   0.0295   0.00    0.0
2020/03/01 02:55:00.000  -35.399197246  148.980003575   665.2266   6   9   0.0258   0.0356   0.0572   0.0024  -0.0136   0.0294   0.00    0.0
2020/03/01 02:55:30.000  -35.399197244  148.980003561   665.2266   6   9   0.0257   0.0355   0.0570   0.0024  -0.0136   0.0293   0.00    0.0
2020/03/01 02:56:00.000  -35.399197242  148.980003544   665.2270   6   9   0.0256   0.0354   0.0568   0.0023  -0.0136   0.0292   0.00    0.0
2020/03/01 02:56:30.000  -35.399197241  148.980003533   665.2274   6   9   0.0255   0.0353   0.0566   0.0023  -0.0137   0.0291   0.00    0.0
2020/03/01 02:57:00.000  -35.399197237  148.980003520   665.2283   6   9   0.0254   0.0352   0.0564   0.0023  -0.0137   0.0291   0.00    0.0
2020/03/01 02:57:30.000  -35.399197235  148.980003514   665.2295   6   8   0.0254   0.0351   0.0563   0.0022  -0.0137   0.0290   0.00    0.0
2020/03/01 02:58:00.000  -35.399197232  148.980003502   665.2304   6   8   0.0253   0.0350   0.0561   0.0020  -0.0138   0.0289   0.00    0.0
2020/03/01 02:58:30.000  -35.399197228  148.980003485   665.2315   6   8   0.0252   0.0349   0.0559   0.0019  -0.0138   0.0288   0.00    0.0
2020/03/01 02:59:00.000  -35.399197225  148.980003474   665.2321   6   8   0.0252   0.0348   0.0557   0.0017  -0.0138   0.0287   0.00    0.0
2020/03/01 02:59:30.000  -35.399197220  148.980003460   665.2332   6   8   0.0251   0.0347   0.0555   0.0015  -0.0139   0.0286   0.00    0.0
2020/03/01 03:00:00.000  -35.399197221  148.980003444   665.2335   6   8   0.0250   0.0346   0.0553   0.0012  -0.0139   0.0285   0.00    0.0
2020/03/01 03:00:30.000  -35.399197222  148.980003429   665.2331   6   8   0.0249   0.0345   0.0551   0.0010  -0.0139   0.0284   0.00    0.0
2020/03/01 03:01:00.000  -35.399197223  148.980003413   665.2331   6   8   0.0249   0.0345   0.0549   0.0006  -0.0139   0.0283   0.00    0.0
2020/03/01 03:01:30.000  -35.399197222  148.980003401   665.2331   6   8   0.0248   0.0344   0.0547  -0.0005  -0.0140   0.0282   0.00    0.0
2020/03/01 03:02:00.000  -35.399197222  148.980003387   665.2333   6   8   0.0247   0.0343   0.0546  -0.0009  -0.0140   0.0282   0.00    0.0
2020/03/01 03:02:30.000  -35.399197224  148.980003374   665.2331   6   8   0.0247   0.0342   0.0544  -0.0011  -0.0140   0.0281   0.00    0.0
2020/03/01 03:03:00.000  -35.399197225  148.980003357   665.2329   6   8   0.0246   0.0341   0.0542  -0.0013  -0.0140   0.0280   0.00    0.0
2020/03/01 03:03:30.000  -35.399197224  148.980003344   665.2330   6   8   0.0245   0.0340   0.0541  -0.0015  -0.0141   0.0279   0.00    0.0
2020/03/01 03:04:00.000  -35.399197225  148.980003329   665.2330   6   8   0.0244   0.0339   0.0539  -0.0017  -0.0141   0.0278   0.00    0.0
2020/03/01 03:04:30.000  -35.399197227  148.980003315   665.2332   6   8   0.0244   0.0338   0.0537  -0.0018  -0.0141   0.0277   0.00    0.0
2020/03/01 03:05:00.000  -35.399197225  148.980003303   665.2338   6   8   0.0243   0.0337   0.0535  -0.0020  -0.0141   0.0276   0.00    0.0
2020/03/01 03:05:30.000  -35.399197222  148.980003289   665.2343   6   8   0.0242   0.0337   0.0533  -0.0021  -0.0142   0.0275   0.00    0.0
2020/03/01 03:06:00.000  -35.399197218  148.980003276   665.2355   6   8   0.0241   0.0336   0.0531  -0.0022  -0.0142   0.0274   0.00    0.0
2020/03/01 03:06:30.000  -35.399197215  148.980003267   665.2363   6   8   0.0241   0.0335   0.0529  -0.0023  -0.0142   0.0273   0.00    0.0
2020/03/01 03:07:00.000  -35.399197214  148.980003257   665.2368   6   8   0.0240   0.0334   0.0527  -0.0024  -0.0142   0.0272   0.00    0.0
2020/03/01 03:07:30.000  -35.399197212  148.980003249   665.2375   6   8   0.0239   0.0333   0.0525  -0.0025  -0.0143   0.0271   0.00    0.0
2020/03/01 03:08:00.000  -35.399197212  148.980003238   665.2376   6   8   0.0239   0.0332   0.0524  -0.0026  -0.0143   0.0271   0.00    0.0
2020/03/01 03:08:30.000  -35.399197212  148.980003231   665.2382   6   8   0.0238   0.0332   0.0522  -0.0027  -0.0143   0.0270   0.00    0.0
2020/03/01 03:09:00.000  -35.399197211  148.980003223   665.2385   6   8   0.0237   0.0331   0.0520  -0.0027  -0.0143   0.0269   0.00    0.0
2020/03/01 03:09:30.000  -35.399197210  148.980003214   665.2390   6   8   0.0237   0.0330   0.0518  -0.0028  -0.0143   0.0268   0.00    0.0
2020/03/01 03:10:00.000  -35.399197208  148.980003204   665.2395   6   8   0.0236   0.0329   0.0516  -0.0029  -0.0144   0.0267   0.00    0.0
2020/03/01 03:10:30.000  -35.399197211  148.980003194   665.2397   6   8   0.0235   0.0328   0.0514  -0.0030  -0.0144   0.0266   0.00    0.0
2020/03/01 03:11:00.000  -35.399197213  148.980003187   665.2401   6   8   0.0234   0.0327   0.0512  -0.0031  -0.0144   0.0265   0.00    0.0
2020/03/01 03:11:30.000  -35.399197214  148.980003172   665.2400   6   7   0.0234   0.0326   0.0511  -0.0031  -0.0144   0.0264   0.00    0.0
2020/03/01 03:12:00.000  -35.399197217  148.980003163   665.2397   6   7   0.0233   0.0326   0.0510  -0.0032  -0.0144   0.0263   0.00    0.0
2020/03/01 03:12:30.000  -35.399197219  148.980003152   665.2390   6   7   0.0233   0.0325   0.0509  -0.0032  -0.0144   0.0262   0.00    0.0
2020/03/01 03:13:00.000  -35.399197220  148.980003143   665.2385   6   7   0.0232   0.0324   0.0508  -0.0033  -0.0144   0.0261   0.00    0.0
2020/03/01 03:13:30.000  -35.399197220  148.980003127   665.2385   6   7   0.0231   0.0323   0.0507  -0.0033  -0.0145   0.0260   0.00    0.0
2020/03/01 03:14:00.000  -35.399197221  148.980003111   665.2381   6   7   0.0230   0.0323   0.0506  -0.0034  -0.0145   0.0259   0.00    0.0
2020/03/01 03:14:30.000  -35.399197223  148.980003096   665.2379   6   7   0.0230   0.0322   0.0505  -0.0034  -0.0145   0.0258   0.00    0.0
2020/03/01 03:15:00.000  -35.399197219  148.980003085   665.2387   6   7   0.0229   0.0321   0.0504  -0.0035  -0.0145   0.0257   0.00    0.0
2020/03/01 03:15:30.000  -35.399197215  148.980003073   665.2394   6   7   0.0228   0.0320   0.0503  -0.0035  -0.0145   0.0256   0.00    0.0
2020/03/01 03:16:00.000  -35.399197214  148.980003064   665.2394   6   7   0.0228   0.0319   0.0502  -0.0036  -0.0145   0.0256   0.00    0.0
2020/03/01 03:16:30.000  -35.399197212  148.980003053   665.2392   6   7   0.0227   0.0319   0.0501  -0.0036  -0.0145   0.0255   0.00    0.0
2020/03/01 03:17:00.000  -35.399197210  148.980003040   665.2394   6   7   0.0226   0.0318   0.0500  -0.0037  -0.0145   0.0254   0.00    0.0
2020/03/01 03:17:30.000  -35.399197209  148.980003030   665.2394   6   7   0.0226   0.0317   0.0499  -0.0037  -0.0145   0.0253   0.00    0.0
2020/03/01 03:18:00.000  -35.399197206  148.980003023   665.2401   6   7   0.0225   0.0317   0.0498  -0.0037  -0.0145   0.0252   0.00    0.0
2020/03/01 03:18:30.000  -35.399197203  148.980003011   665.2407   6   7   0.0224   0.0316   0.0497  -0.0038  -0.0145   0.0251   0.00    0.0
2020/03/01 03:19:00.000  -35.399197200  148.980003003   665.2413   6   7   0.0224   0.0315   0.0496  -0.0038  -0.0145   0.0250   0.00    0.0
2020/03/01 03:19:30.000  -35.399197198  148.980002994   665.2417   6   7   0.0223   0.0314   0.0495  -0.0038  -0.0145   0.0249   0.00    0.0
2020/03/01 03:20:00.000  -35.399197195  148.980002983   665.2423   6   7   0.0222   0.0313   0.0494  -0.0039  -0.0145   0.0248   0.00    0.0
2020/03/01 03:20:30.000  -35.399197193  148.980002974   665.2428   6   7   0.0222   0.0313   0.0493  -0.0039  -0.0145   0.0247   0.00    0.0
2020/03/01 03:21:00.000  -35.399197192  148.980002964   665.2431   6   7   0.0221   0.0312   0.0491  -0.0039  -0.0145   0.0246   0.00    0.0
2020/03/01 03:21:30.000  -35.399197188  148.980002951   665.2434   6   7   0.0220   0.0311   0.0490  -0.0040  -0.0145   0.0245   0.00    0.0
2020/03/01 03:22:00.000  -35.399197185  148.980002939   665.2436   6   7   0.0220   0.0310   0.0489  -0.0040  -0.0145   0.0245   0.00    0.0
2020/03/01 03:22:30.000  -35.399197183  148.980002927   665.2435   6   7   0.0219   0.0310   0.0488  -0.0040  -0.0145   0.0244   0.00    0.0
2020/03/01 03:23:00.000  -35.399197181  148.980002914   665.2437   6   7   0.0218   0.0309   0.0487  -0.0040  -0.0145   0.0243   0.00    0.0
2020/03/01 03:23:30.000  -35.399197178  148.980002905   665.2439   6   7   0.0218   0.0308   0.0486  -0.0040  -0.0145   0.0242   0.00    0.0
2020/03/01 03:24:00.000  -35.399197175  148.980002895   665.2446   6   7   0.0217   0.0308   0.0485  -0.0041  -0.0145   0.0241   0.00    0.0
2020/03/01 03:24:30.000  -35.399197171  148.980002885   665.2456   6   7   0.0216   0.0307   0.0484  -0.0041  -0.0145   0.0240   0.00    0.0
2020/03/01 03:25:00.000  -35.399197168  148.980002874   665.2462   6   7   0.0216   0.0306   0.0483  -0.0041  -0.0145   0.0239   0.00    0.0
2020/03/01 03:25:30.000  -35.399197164  148.980002865   665.2469   6   7   0.0215   0.0305   0.0482  -0.0041  -0.0145   0.0238   0.00    0.0
2020/03/01 03:26:00.000  -35.399197158  148.980002854   665.2479   6   7   0.0214   0.0305   0.0481  -0.0042  -0.0145   0.0237   0.00    0.0
2020/03/01 03:26:30.000  -35.399197153  148.980002841   665.2488   6   7   0.0214   0.0304   0.0480  -0.0042  -0.0145   0.0236   0.00    0.0
2020/03/01 03:27:00.000  -35.399197149  148.980002829   665.2495   6   7   0.0213   0.0303   0.0478  -0.0042  -0.0145   0.0235   0.00    0.0
2020/03/01 03:27:30.000  -35.399197144  148.980002816   665.2504   6   7   0.0212   0.0303   0.0478  -0.0042  -0.0145   0.0235   0.00    0.0
2020/03/01 03:28:00.000  -35.399197140  148.980002804   665.2513   6   7   0.0212   0.0302   0.0477  -0.0042  -0.0145   0.0234   0.00    0.0
2020/03/01 03:28:30.000  -35.399197137  148.980002792   665.2520   6   7   0.0211   0.0302   0.0475  -0.0042  -0.0145   0.0233   0.00    0.0
2020/03/01 03:29:00.000  -35.399197134  148.980002778   665.2526   6   7   0.0211   0.0301   0.0474  -0.0042  -0.0145   0.0232   0.00    0.0
