     2.11           OBSERVATION DATA    M (MIXED)           RINEX VERSION / TYPE
teqc  2017Aug18     UNAVCO Archive Ops  20170902 11:49:27UTCPGM / RUN BY / DATE
Solaris x86 5.10|AMD64|cc SC5.8 -xarch=amd64|=+|=+          COMMENT
BIT 2 OF LLI FLAGS DATA COLLECTED UNDER A/S CONDITION       COMMENT
TABL                                                        MARKER NAME
49901M001                                                   MARKER NUMBER
Ken Hudnut          U.S. Geological Survey                  OBSERVER / AGENCY
5303K57287          TRIMBLE NETR9       5.10                REC # / TYPE / VERS
5000115197          TRM57971.00     NONE                    ANT # / TYPE
 -2448550.1126 -4668099.0769  3582741.0240                  APPROX POSITION XYZ
        0.1256        0.0000        0.0000                  ANTENNA: DELTA H/E/N
     1     1                                                WAVELENGTH FACT L1/2
     7    L1    L2    C1    P2    P1    S1    S2            # / TYPES OF OBSERV
    30.0000                                                 INTERVAL
    18                                                      LEAP SECONDS
input file: tabl201709010000a.tgd                           COMMENT
Forced Modulo Decimation to 30 seconds                      COMMENT
RINEX file created by UNAVCO GPS Archive.                   COMMENT
For more information contact archive-gps@unavco.org         COMMENT
Monument ID: 19535                                          COMMENT
UNAVCO 4-char name:   TABL                                  COMMENT
4-char name from Log or data file: TABL                     COMMENT
Monument location: 34.38184887 -117.67828227 2228.0286      COMMENT
Visit ID: 114852                                            COMMENT
doi:10.7283/T5SN0763                                        COMMENT
End of DB comments                                          COMMENT
 SNR is mapped to RINEX snr flag value [0-9]                COMMENT
  L1 & L2: min(max(int(snr_dBHz/6), 0), 9)                  COMMENT
  2017     9     1     0     0    0.0000000     GPS         TIME OF FIRST OBS
                                                            END OF HEADER
 17  9  1  0  0  0.0000000  0 13G14G18G21G24G16G20G27G10G15G32S38S35
                                S33
 126923140.885 6  98901144.50543  24152652.102    24152659.668
        38.800          20.900
 109805346.751 8  85562666.41746  20895245.398    20895246.750
        48.200          38.400
 111492837.814 8  86877588.92746  21216370.961    21216372.633
        49.900          39.000
 125516786.099 6  97805277.65743  23885031.477    23885038.535
        40.800          22.600
 130568349.837 6 101741499.58543  24846313.000    24846316.570
        38.800          19.600
 128343954.072 6 100008342.55543  24423038.367    24423042.270
        37.900          20.400
 114236452.762 8  89015338.82946  21738445.359    21738449.578
        48.400          37.100
 109895330.128 8  85632798.00347  20912365.945    20912370.680
        51.900          42.100
 122054284.767 7  95107300.19644  23226138.305    23226141.539
        46.600          28.300
 119876717.473 7  93410505.00645  22811766.563    22811770.629
        46.300          31.700
 195312804.099 7                  37166817.750
        46.300
 195902350.005 7                  37278977.250
        46.600
 197527707.966 7                  37603760.688
        43.200
 17  9  1  0  0 30.0000000  0 13G14G18G21G24G16G20G27G10G15G32S38S35
                                S33
 126816118.476 6  98817750.45943  24132285.961    24132297.555
        37.900          19.300
 109827311.541 7  85579781.84046  20899425.211    20899426.496
        47.800          38.700
 111505944.810 8  86887802.18646  21218865.539    21218866.898
        49.600          39.200
 125469653.742 6  97768551.22443  23876062.258    23876069.367
        41.600          22.600
 130636586.844 6 101794671.24143  24859298.594    24859302.008
        39.800          20.900
 128428843.425 6 100074490.03543  24439191.930    24439196.289
        38.900          20.400
 114194874.424 7  88982940.13346  21730533.031    21730538.289
        47.100          37.900
 109872629.346 8  85615109.10346  20908046.086    20908051.023
        51.100          41.900
 122148620.824 7  95180808.78544  23244089.914    23244092.859
        46.500          29.300
 119777199.644 7  93332958.73345  22792828.578    22792834.133
        47.500          33.200
 195312870.461 7                  37166830.469
        47.900
 195902386.072 7                  37278984.594
        47.300
 197529149.268 7                  37604034.250
        44.100
 17  9  1  0  1  0.0000000  0 13G14G18G21G24G16G20G27G10G15G32S38S35
                                S33
 126709193.560 6  98734432.40443  24111938.961    24111951.902
        41.700          19.900
 109849431.975 8  85597018.54746  20903634.367    20903636.094
        48.000          37.800
 111519348.248 8  86898246.41546  21221416.438    21221417.867
        50.100          39.300
 125422876.466 7  97732101.50743  23867161.406    23867166.891
        42.200          23.500
 130704986.330 6 101847969.50943  24872314.195    24872318.414
        40.500          21.700
 128513711.800 6 100140621.18843  24455342.836    24455345.449
        38.600          18.600
 114153840.563 8  88950965.72246  21722724.094    21722729.645
        48.200          37.400
 109850189.478 8  85597623.50946  20903775.961    20903780.469
        50.700          41.800
 122243242.784 7  95254540.15544  23262095.766    23262098.797
        46.100          29.500
 119677931.415 7  93255606.94545  22773938.547    22773945.223
        45.400          32.400
 195312937.063 7                  37166842.984
        47.600
 195902422.234 7                  37278991.688
        47.200
 197530586.615 7                  37604309.656
        45.100
 17  9  1  0  1 30.0000000  0 13G14G18G21G24G16G20G27G10G15G32S38S35
                                S33
 126602367.882 7  98651191.71343  24091612.313    24091620.195
        43.800          20.100
 109871706.489 8  85614375.31146  20907872.844    20907874.957
        48.300          38.100
 111533048.656 8  86908922.04346  21224023.063    21224025.113
        50.000          39.700
 125376456.553 6  97695930.25843  23858326.883    23858333.773
        40.900          22.600
 130773544.953 6 101901391.80643  24885361.133    24885365.441
        39.400          20.100
 128598558.275 6 100206735.29443  24471488.539    24471491.645
        36.600          19.300
 114113352.285 8  88919416.43546  21715019.742    21715024.316
        48.100          38.400
 109828009.593 8  85580340.50346  20899555.125    20899559.707
        51.300          41.700
 122338147.664 7  95328491.98544  23280155.516    23280158.852
        46.500          29.200
 119578914.907 7  93178451.23845  22755096.109    22755102.555
        45.900          32.600
 195313004.284 8                  37166856.594
        48.000
 195902458.712 8                  37278998.453
        49.200
 197532018.197 7                  37604581.563
        44.600
 17  9  1  0  2  0.0000000  0 13G14G18G21G24G16G20G27G10G15G32S38S35
                                S33
 126495643.671 7  98568030.18543  24071303.844    24071302.938
        44.000          19.600
 109894133.138 8  85631850.62646  20912140.695    20912142.512
        48.800          38.100
 111547046.463 8  86919829.42646  21226686.617    21226688.746
        50.000          39.400
 125330396.542 6  97660039.42443  23849561.734    23849569.234
        41.100          22.600
 130842259.078 6 101954935.20543  24898436.305    24898440.586
        39.200          19.300
 128683382.280 6 100272831.85643  24487629.625    24487633.406
        36.100          19.000
 114073410.679 8  88888293.09746  21707419.039    21707424.055
        48.400          37.600
 109806088.534 8  85563259.17346  20895383.820    20895388.285
        51.900          41.600
 122433332.155 7  95402661.70044  23298268.383    23298271.461
        45.500          27.400
 119480151.890 8  93101493.10845  22736302.344    22736307.355
        48.700          33.200
 195313071.568 8                  37166868.813
        48.200
 195902495.315 8                  37279006.875
        48.700
 197533446.027 7                  37604851.859
        44.700
 17  9  1  0  2 30.0000000  0 13G14G18G21G24G16G20G27G10G15G32S38S35
                                S33
 126389023.546 7  98484949.68543  24051014.539    24051012.641
        43.600          19.000
 109916711.773 8  85649444.36746  20916437.242    20916439.043
        48.800          38.600
 111561343.039 8  86930969.61746  21229407.352    21229409.434
        50.000          39.200
 125284699.359 6  97624431.30143  23840866.477    23840872.945
        41.600          23.400
 130911125.896 6 102008597.62443  24911541.766    24911546.020
        38.900          20.900
 128768183.283 5 100338910.51042  24503766.484    24503770.828
        35.500          17.800
 114034017.438 7  88857597.07746  21699923.195    21699927.504
        47.800          37.500
 109784425.991 8  85546379.27747  20891261.602    20891266.582
        51.600          42.200
 122528793.960 7  95477047.49044  23316434.406    23316437.063
        45.200          28.700
 119381645.067 7  93024734.63345  22717557.133    22717562.277
        47.800          32.700
 195313137.316 8                  37166881.172
        48.800
 195902531.382 8                  37279012.328
        48.200
 197534868.722 7                  37605124.906
        42.600
 17  9  1  0  3  0.0000000  0 13G14G18G21G24G16G20G27G10G15G32S38S35
                                S33
 126282510.701 6  98401952.81543  24030743.938    24030744.773
        39.200          19.900
 109939442.239 8  85667156.42646  20920762.859    20920764.301
        48.500          37.700
 111575939.965 8  86942343.83346  21232185.047    21232186.750
        50.600          40.000
 125239367.685 7  97589108.00544  23832240.570    23832247.266
        42.100          24.800
 130980142.888 6 102062377.09343  24924675.430    24924679.633
        40.100          20.400
 128852961.118 6 100404971.12842  24519899.211    24519903.129
        36.000          16.300
 113995174.355 8  88827329.75246  21692531.352    21692535.594
        48.700          37.100
 109763021.652 8  85529700.59646  20887188.258    20887192.957
        51.200          41.700
 122624530.365 7  95551647.25344  23334652.289    23334655.992
        44.200          28.000
 119283397.242 7  92948177.91745  22698861.336    22698867.703
        45.200          32.700
 195313203.300 8                  37166893.906
        48.500
 195902567.250 8                  37279019.234
        48.800
 197536286.509 7                  37605392.719
        44.200
 17  9  1  0  3 30.0000000  0 13G14G18G21G24G16G20G27G10G15G32S38S35
                                S33
 126176107.098 5  98319041.00543  24010496.828    24010499.789
        33.700          20.100
 109962323.945 7  85684986.33346  20925117.141    20925119.148
        47.900          38.400
 111590838.692 8  86953953.22746  21235020.539    21235022.309
        50.900          40.100
 125194404.702 7  97554071.96243  23823684.047    23823690.492
        42.000          22.800
 131049307.004 6 102116271.13043  24937836.305    24937840.363
        38.500          18.600
 128937715.860 5 100471013.73642  24536028.281    24536031.652
        35.400          15.600
 113956883.170 8  88797492.47646  21685244.531    21685249.176
        48.600          37.600
 109741875.161 8  85513222.81947  20883164.375    20883168.785
        52.400          42.500
 122720538.845 7  95626459.00644  23352922.180    23352925.516
        45.100          29.100
 119185410.969 7  92871824.99645  22680214.852    22680222.094
        47.800          33.900
 195313270.106 8                  37166906.172
        48.400
 195902603.146 8                  37279026.672
        49.100
 197537700.293 7                  37605662.250
        43.900
 17  9  1  0  4  0.0000000  0 13G14G18G21G24G16G20G27G10G15G32S38S35
                                S33
 126069814.782 5  98236215.81043  23990269.953    23990275.344
        34.800          20.600
 109985354.829 8  85702932.48046  20929499.734    20929501.539
        49.200          38.100
 111606039.183 8  86965797.74946  21237913.109    21237914.633
        50.300          39.600
 125149811.659 7  97519324.22543  23815197.344    23815204.352
        42.000          22.800
 131118615.115 6 102170277.43043  24951026.008    24951028.957
        40.000          18.600
 129022446.361 6 100537037.43442  24552151.773    24552155.141
        36.100          16.300
 113919144.552 8  88768085.76546  21678063.289    21678068.145
        48.800          37.300
 109720985.188 8  85496944.93746  20879189.094    20879193.582
        52.200          41.900
 122816816.229 7  95701480.31344  23371243.234    23371246.785
        45.200          29.000
 119087687.891 8  92795677.21545  22661619.000    22661624.449
        48.900          33.800
 195313335.527 7                  37166918.969
        47.900
 195902639.828 8                  37279033.000
        48.600
 197539108.547 7                  37605931.953
        43.600
 17  9  1  0  4 30.0000000  0 13G14G18G21G24G16G20G27G10G15G32S38S35
                                S33
 125963636.084 6  98153479.24143  23970063.711    23970071.051
        39.500          21.300
 110008534.678 8  85720994.70446  20933910.648    20933912.258
        49.300          38.600
 111621542.720 8  86977878.41846  21240863.227    21240865.152
        50.000          39.400
 125105591.911 7  97484867.32344  23806783.344    23806790.051
        42.800          25.900
 131188063.883 6 102224393.27043  24964241.797    24964245.016
        40.400          18.600
 129107152.736 6 100603042.37242  24568270.203    24568274.430
        36.000          16.300
 113881960.144 8  88739110.91146  21670987.531    21670992.055
        49.300          37.500
 109700351.360 8  85480866.64947  20875262.500    20875267.344
        51.500          42.200
 122913359.926 7  95776709.12344  23389615.273    23389618.000
        45.300          29.300
 118990230.704 7  92719736.60345  22643073.188    22643078.289
        47.200          34.300
 195313401.649 7                  37166931.375
        47.100
 195902675.587 7                  37279040.125
        47.000
 197540513.099 7                  37606199.984
        42.200
 17  9  1  0  5  0.0000000  0 13G14G18G21G24G16G20G27G10G15G32S38S35
                                S33
 125857574.001 6  98070833.61243  23949881.773    23949884.832
        41.800          20.900
 110031862.646 8  85739172.34646  20938349.992    20938351.012
        49.300          38.400
 111637350.740 8  86990196.34146  21243871.195    21243872.930
        50.200          39.400
 125061747.834 6  97450703.19344  23798439.664    23798447.145
        41.300          24.500
 131257650.490 6 102278616.60743  24977483.250    24977487.563
        38.900          19.900
 129191834.534 6 100669028.20842  24584385.867    24584388.574
        38.000          15.600
 113845331.573 8  88710569.18746  21664017.148    21664021.676
        48.600          37.700
 109679973.303 8  85464987.66347  20871384.688    20871389.500
        51.600          42.300
 123010167.307 7  95852143.41745  23408036.984    23408039.973
        45.100          30.000
 118893041.993 7  92644005.16945  22624578.828    22624584.602
        47.500          34.300
 195313467.090 8                  37166944.406
        48.500
 195902711.683 8                  37279047.891
        48.300
 197541912.050 7                  37606463.313
        43.000
 17  9  1  0  5 30.0000000  0 13G14G18G21G24G16G20G27G10G15G32S38S35
                                S33
 125751630.267 6  97988280.20043  23929720.453    23929722.492
        40.500          19.300
 110055337.752 8  85757464.63346  20942817.258    20942818.473
        49.300          38.700
 111653463.717 8  87002751.89846  21246937.453    21246938.813
        50.000          40.000
 125018282.346 7  97416834.02644  23790168.891    23790175.586
        42.100          24.100
 131327371.604 6 102332944.67943  24990750.016    24990754.035
        38.100          18.300
 129276491.025 6 100734994.26442  24600495.477    24600498.586
        38.400          15.600
 113809259.767 8  88682461.28846  21657153.102    21657157.496
        48.400          38.600
 109659849.910 8  85449307.11947  20867555.453    20867559.805
        51.800          42.400
 123107235.256 7  95927780.75044  23426508.523    23426511.699
        45.600          29.900
 118796123.639 7  92568484.44545  22606135.742    22606141.723
        47.800          35.000
 195313532.573 7                  37166956.313
        46.200
 195902747.360 7                  37279054.359
        46.700
 197543306.449 7                  37606728.531
        42.000
 17  9  1  0  6  0.0000000  0 14G08G14G18G21G24G16G20G27G10G15G32S38
                                S35S33
 127452712.84215                  24253459.234
        31.900
 125645807.512 6  97905821.05443  23909582.742    23909585.262
        36.900          20.400
 110078959.401 8  85775871.11546  20947312.047    20947314.145
        49.300          38.900
 111669882.520 8  87015545.75846  21250061.984    21250063.559
        50.800          39.000
 124975197.202 7  97383261.22243  23781969.570    23781975.949
        42.100          22.500
 131397224.300 6 102387375.31343  25004043.602    25004046.484
        38.900          18.600
 129361122.231 6 100800940.59742  24616600.133    24616603.598
        38.200          16.300
 113773746.218 7  88654788.39346  21650394.711    21650399.484
        47.100          37.700
 109639980.773 8  85433824.68646  20863774.508    20863778.871
        52.000          41.200
 123204561.410 7  96003619.29644  23445028.953    23445032.336
        45.400          28.500
 118699478.151 7  92493176.34345  22587745.023    22587750.602
        47.600          33.500
 195313599.171 7                  37166969.750
        47.400
 195902783.764 8                  37279060.375
        48.500
 197544695.993 7                  37606994.281
        42.200
 17  9  1  0  6 30.0000000  0 13G14G18G21G24G16G20G27G10G15G32S38S35
                                S33
 125540108.457 6  97823458.19643  23889468.875    23889473.648
        38.400          21.500
 110102727.009 8  85794391.33546  20951834.914    20951836.680
        48.700          38.800
 111686608.606 8  87028579.05846  21253244.844    21253246.445
        50.300          39.900
 124932495.493 7  97349987.22143  23773844.383    23773850.125
        42.000          22.500
 131467205.660 6 102441906.17943  25017360.109    25017363.113
        36.200          18.600
 129445727.787 6 100866867.02242  24632700.047    24632704.090
        38.700          15.600
 113738792.338 8  88627551.62746  21643743.656    21643748.320
        48.000          38.200
 109620365.362 8  85418539.96646  20860041.781    20860046.332
        52.100          41.700
 123302142.670 7  96079656.61744  23463598.156    23463601.035
        44.900          28.900
 118603108.124 7  92418082.83045  22569406.563    22569411.590
        46.700          34.100
 195313664.333 8                  37166981.563
        48.000
 195902820.073 7                  37279067.000
        47.600
 197546080.637 7                  37607256.859
        42.100
 17  9  1  0  7  0.0000000  0 13G14G18G21G24G16G20G27G10G15G32S38S35
                                S33
 125434535.105 6  97741193.33943  23869379.016    23869384.148
        40.600          21.500
 110126639.933 8  85813024.77946  20956385.047    20956387.160
        48.000          37.900
 111703643.119 8  87041852.70146  21256486.344    21256487.805
        49.800          38.700
 124890180.048 6  97317014.19743  23765791.289    23765798.414
        41.400          22.800
 131537312.873 6 102496535.14643  25030702.297    25030705.148
        38.600          19.000
 129530307.147 6 100932773.01042  24648795.359    24648798.289
        37.800          13.900
 113704399.426 7  88600751.96646  21637198.805    21637203.039
        47.300          38.100
 109601003.024 8  85403452.43946  20856357.367    20856361.254
        52.100          41.600
 123399976.603 7  96155890.83244  23482215.016    23482218.172
        45.600          27.100
 118507015.764 8  92343205.69845  22551120.250    22551125.895
        48.300          34.800
 195313729.240 7                  37166993.859
        47.200
 195902856.111 7                  37279073.844
        47.900
 197547460.902 7                  37607520.000
        42.600
 17  9  1  0  7 30.0000000  0 13G14G18G21G24G16G20G27G10G15G32S38S35
                                S33
 125329089.446 7  97659028.04943  23849314.813    23849317.289
        42.200          21.500
 110150696.113 7  85831769.85246  20960963.148    20960964.277
        47.700          39.100
 111720986.204 8  87055366.78046  21259786.320    21259788.375
        48.800          39.400
 124848252.551 6  97284343.49843  23757812.789    23757819.844
        40.700          23.300
 131607542.058 6 102551259.15642  25044064.641    25044069.848
        37.200          17.400
 129614859.689 6 100998658.07752  24664884.820    24664888.004
        36.500          15.600
 113670568.380 7  88574390.11146  21630761.063    21630765.516
        46.500          38.300
 109581892.781 8  85388561.36647  20852721.047    20852724.926
        50.300          42.400
 123498060.109 7  96232319.50744  23500879.414    23500882.324
        44.200          27.800
 118411202.967 8  92268546.46045  22532887.539    22532893.750
        48.000          34.300
 195313794.797 7                  37167005.953
        47.300
 195902891.242 8                  37279081.031
        48.200
 197548837.516 7                  37607780.203
        44.400
 17  9  1  0  8  0.0000000  0 13G14G18G21G24G16G20G27G10G15G32S38S35
                                S33
 125223774.292 6  97576964.45643  23829272.945    23829273.551
        41.500          20.900
 110174895.680 8  85850626.65946  20965568.016    20965569.734
        48.100          38.200
 111738638.889 8  87069122.10646  21263145.820    21263147.324
        49.500          39.000
 124806715.790 6  97251977.25343  23749908.750    23749915.031
        40.500          23.000
 131677890.647 5 102606076.17642  25057452.141    25057456.160
        35.500          17.800
 129699385.109 5 101064522.01042  24680969.125    24680972.797
        35.400          14.800
 113637300.473 7  88548467.08846  21624430.242    21624434.406
        47.200          37.900
 109563034.010 8  85373866.22746  20849131.867    20849136.297
        50.700          41.800
 123596390.374 7  96308940.46944  23519591.039    23519594.727
        44.100          25.800
 118315672.225 7  92194106.97345  22514708.570    22514714.797
        46.200          34.100
 195313859.395 7                  37167018.313
        47.400
 195902927.163 7                  37279088.203
        47.500
 197550206.871 7                  37608040.031
        42.500
 17  9  1  0  8 30.0000000  0 13G14G18G21G24G16G20G27G10G15G32S38S35
                                S33
 125118592.383 5  97495004.66643  23809257.156    23809258.160
        34.600          19.600
 110199238.002 8  85869594.70446  20970200.258    20970201.984
        48.900          38.700
 111756603.092 8  87083120.17446  21266564.453    21266565.648
        50.500          38.800
 124765572.481 6  97219917.60643  23742079.391    23742085.609
        40.200          22.300
 131748356.006 5 102660984.18442  25070861.125    25070865.586
        35.400          17.400
 129783883.498 5 101130364.87442  24697048.594    24697051.426
        35.500          13.900
 113604597.430 7  88522984.21046  21618206.922    21618211.469
        47.200          38.400
 109544426.653 8  85359367.00046  20845591.227    20845595.559
        51.500          41.600
 123694965.145 7  96385751.96744  23538349.383    23538352.715
        44.000          26.500
 118220426.360 7  92119889.44945  22496584.008    22496589.215
        47.400          34.500
 195313925.001 8                  37167031.531
        48.500
 195902963.911 7                  37279094.844
        47.100
 197551572.917 7                  37608302.516
        42.400
 17  9  1  0  9  0.0000000  0 13G14G18G21G24G16G20G27G10G15G32S38S35
                                S33
 125013545.401 5  97413149.85043  23789266.828    23789269.020
        35.700          19.000
 110223721.578 8  85888672.81746  20974859.133    20974860.883
        49.300          37.900
 111774879.080 8  87097361.19646  21270041.953    21270044.090
        50.600          38.600
 124724824.838 6  97188166.26843  23734325.367    23734331.207
        40.000          21.800
 131818934.331 5 102715980.26842  25084291.164    25084295.656
        34.500          17.400
 129868354.248 5 101196186.15052  24713122.289    24713125.660
        35.000          14.800
 113572459.906 7  88497941.98946  21612091.219    21612095.527
        46.500          37.600
 109526069.419 8  85345062.66746  20842097.711    20842102.457
        51.500          41.700
 123793781.360 7  96462751.59344  23557153.711    23557157.332
        43.700          26.000
 118125467.073 8  92045895.26145  22478513.898    22478518.945
        48.100          34.500
 195313989.781 8                  37167043.328
        48.400
 195902998.509 7                  37279100.844
        47.300
 197552933.374 7                  37608560.297
        44.600
 17  9  1  0  9 30.0000000  0 13G14G18G21G24G16G20G27G10G15G32S38S35
                                S33
 124908636.062 6  97331402.43843  23769303.711    23769307.223
        40.900          21.300
 110248346.432 8  85907861.02446  20979545.195    20979546.816
        48.800          38.400
 111793467.975 8  87111846.05046  21273579.188    21273581.051
        49.600          39.400
 124684475.860 6  97156725.57543  23726646.836    23726653.711
        39.900          22.300
 131889623.28815 102771062.53952  25097744.539    25097747.344
        35.500          16.900
 129952797.103 5 101261985.72142  24729191.383    24729194.777
        34.800          14.800
 113540889.431 7  88473341.62346  21606083.656    21606088.383
        46.600          39.400
 109507962.143 8  85330953.12546  20838651.938    20838656.582
        51.100          41.900
 123892836.434 7  96539937.34944  23576003.195    23576006.852
        43.400          24.700
 118030797.023 7  91972126.44445  22460498.508    22460504.000
        46.600          34.100
 195314054.395 7                  37167056.031
        47.900
 195903035.235 7                  37279107.922
        47.600
 197554289.734 7                  37608819.281
        43.200
 17  9  1  0 10  0.0000000  0 13G14G18G21G24G16G20G27G10G15G32S38S35
                                S33
 124803866.710 7  97249764.09143  23749368.703    23749370.516
        44.700          22.600
 110273111.536 8  85927158.50346  20984258.250    20984259.934
        49.100          38.300
 111812370.808 8  87126575.52546  21277176.648    21277178.391
        49.800          38.700
 124644527.475 6  97125597.05043  23719044.992    23719051.852
        38.500          22.500
 131960419.568 5 102826228.41442  25111215.867    25111218.926
        35.400          16.900
 130037211.636 5 101327763.35342  24745254.563    24745258.957
        34.800          15.600
 113509887.032 8  88449183.92746  21600184.039    21600188.891
        49.000          38.000
 109490104.009 8  85317037.70547  20835253.711    20835258.648
        51.300          42.500
 123992127.598 7  96617307.08944  23594897.445    23594900.996
        43.800          25.300
 117936418.418 7  91898584.70045  22442538.938    22442545.027
        47.400          34.300
 195314119.103 7                  37167068.266
        47.000
 195903070.464 7                  37279114.813
        47.800
 197555640.995 7                  37609074.703
        42.400
 17  9  1  0 10 30.0000000  0 13G14G18G21G24G16G20G27G10G15G32S38S35
                                S33
 124699239.434 7  97168236.49843  23729457.023    23729459.883
        42.800          21.300
 110298015.929 8  85946564.52246  20988996.914    20988998.586
        48.800          38.400
 111831588.101 8  87141550.03346  21280833.508    21280834.766
        49.900          39.400
 124604981.946 6  97094782.40443  23711519.836    23711526.004
        39.200          22.800
 132031319.815 5 102881475.27342  25124707.539    25124710.688
        35.000          17.800
 130121597.61415 101393518.48652  24761313.359    24761316.883
        33.800          13.900
 113479453.675 8  88425469.61746  21594392.789    21594397.160
        48.900          38.700
 109472494.218 8  85303315.79547  20831902.766    20831907.152
        51.800          42.400
 124091652.000 7  96694858.55343  23613836.563    23613840.414
        42.800          23.600
 117842333.338 7  91825271.69745  22424635.281    22424640.820
        47.500          35.000
 195314183.945 7                  37167080.516
        47.800
 195903105.753 8                  37279121.859
        48.000
 197556986.670 7                  37609331.891
        43.200
 17  9  1  0 11  0.0000000  0 13G14G18G21G24G16G20G27G10G15G32S38S35
                                S33
 124594757.197 6  97086821.84143  23709573.508    23709576.965
        38.400          21.100
 110323059.221 8  85966078.77846  20993762.859    20993764.559
        48.900          38.300
 111851121.572 8  87156770.90546  21284550.383    21284551.645
        50.800          39.400
 124565841.980 6  97064283.77243  23704070.531    23704078.082
        37.900          22.600
 132102321.532 6 102936801.22742  25138219.430    25138222.223
        36.600          17.800
 130205954.863 5 101459251.41242  24777366.477    24777369.578
        34.200          14.800
 113449590.886 8  88402199.92046  21588710.031    21588714.555
        48.400          38.900
 109455132.543 8  85289787.22647  20828599.031    20828603.359
        52.100          42.000
 124191407.321 7  96772589.95644  23632819.961    23632822.895
        44.100          25.100
 117748544.528 7  91752189.55545  22406787.281    22406792.512
        47.200          35.100
 195314249.351 8                  37167093.359
        48.000
 195903142.034 8                  37279128.453
        48.000
 197558329.513 7                  37609587.375
        44.400
 17  9  1  0 11 30.0000000  0 13G14G18G21G24G16G20G27G10G15G32S38S35
                                S33
 124490421.896 6  97005521.61743  23689719.898    23689722.414
        37.300          21.300
 110348240.172 8  85985700.30546  20998554.648    20998556.328
        49.100          38.500
 111870971.298 8  87172238.21646  21288327.945    21288329.488
        50.300          39.100
 124527109.924 6  97034103.05943  23696700.938    23696706.836
        38.300          21.800
 132173421.375 6 102992203.68142  25151749.297    25151752.813
        37.800          17.800
 130290282.71515                  24793413.063
        32.200
 113420299.305 8  88379375.31946  21583136.672    21583141.109
        48.400          38.700
 109438017.910 8  85276451.15547  20825342.250    20825346.730
        51.800          42.400
 124291390.354 7  96850498.79344  23651845.883    23651848.656
        44.300          24.800
 117655053.790 7  91679339.67545  22388997.133    22389002.203
        46.000          34.800
 195314314.300 8                  37167105.281
        48.600
 195903177.772 7                  37279134.547
        46.800
 197559665.347 7                  37609842.609
        44.200
 17  9  1  0 12  0.0000000  0 13G14G18G21G24G16G20G27G10G15G32S38S35
                                S33
 124386235.510 6  96924337.48243  23669892.805    23669896.781
        39.500          21.500
 110373557.909 8  86005428.41446  21003372.234    21003373.742
        49.000          37.800
 111891137.945 8  87187952.47046  21292165.523    21292167.551
        50.300          39.100
 124488787.893 6  97004241.77243  23689408.398    23689415.156
        38.400          22.300
 132244616.063 6 103047680.01642  25165296.211    25165299.520
        38.100          16.900
 130374580.71515                  24809452.656
        31.300
 113391579.760 8  88356996.46546  21577671.086    21577675.879
        48.700          39.200
 109421149.430 8  85263306.89747  20822132.023    20822136.699
        50.800          42.100
 124391598.390 7  96928582.95844  23670914.297    23670917.434
        44.700          25.800
 117561863.129 7  91606723.61045  22371263.289    22371268.254
        46.600          34.200
 195314379.274 7                  37167118.766
        46.600
 195903213.023 7                  37279142.438
        47.500
 197560997.957 7                  37610095.969
        42.800
 17  9  1  0 12 30.0000000  0 13G14G18G21G24G16G20G27G10G15G32S38S35
                                S33
 124282200.884 6  96843271.62443  23650096.367    23650099.879
        41.300          22.500
 110399012.122 8  86025262.87146  21008215.969    21008217.660
        48.700          38.100
 111911622.895 8  87203914.77546  21296063.555    21296065.746
        50.000          39.400
 124450878.733 6  96974702.21043  23682194.680    23682201.871
        38.200          22.500
 132315902.684 6 103103227.98142  25178862.688    25178864.082
        38.000          16.300
 130458848.98315                  24825489.352
        34.000
 113363433.719 7  88335064.48946  21572314.813    21572319.809
        46.700          38.700
 109404526.926 8  85250354.30047  20818968.625    20818973.527
        50.700          42.200
 124492028.936 7  97006840.50244  23690025.633    23690028.973
        44.200          26.500
 117468975.284 7  91534343.50345  22353587.102    22353592.754
        47.100          34.200
 195314442.990 7                  37167129.906
        47.600
 195903249.437 7                  37279148.266
        47.300
 197562324.785 7                  37610346.656
        42.400
 17  9  1  0 13  0.0000000  0 13G14G18G21G24G16G20G27G10G15G32S38S35
                                S33
 124178320.961 6  96762326.30043  23630328.375    23630331.211
        41.600          22.500
 110424602.328 7  86045203.29446  21013085.383    21013087.438
        47.600          37.900
 111932427.559 8  87220126.19646  21300022.875    21300024.230
        50.200          38.900
 124413384.200 6  96945485.77543  23675059.195    23675066.223
        38.300          22.800
 132387278.822 6 103158845.69442  25192444.766    25192447.371
        36.400          16.300
 130543087.39715                  24841520.102
        33.900
 113335862.345 7  88313580.31146  21567068.148    21567072.813
        47.800          38.300
 109388149.918 8  85237592.99946  20815852.258    20815857.676
        50.700          41.900
 124592679.351 7  97085269.36844  23709179.531    23709182.652
        44.900          27.900
 117376392.610 7  91462201.20445  22335969.117    22335974.688
        47.500          34.600
 195314507.355 7                  37167142.875
        46.700
 195903283.864 7                  37279155.766
        47.400
 197563647.542 7                  37610600.391
        42.300
 17  9  1  0 13 30.0000000  0 13G14G18G21G24G16G20G27G10G15G32S38S35
                                S33
 124074597.415 6  96681502.83543  23610590.688    23610593.492
        41.800          22.500
 110450328.018 8  86065249.29246  21017981.094    21017982.457
        48.800          38.300
 111953552.464 8  87236587.14246  21304042.828    21304043.773
        50.800          39.000
 124376307.268 6  96916594.69744  23668004.484    23668010.016
        40.400          24.300
 132458741.369 5 103214530.74342  25206043.172    25206049.270
        35.800          16.300
 130627295.778 5 101787499.92742  24857544.891    24857548.129
        34.500          14.800
 113308866.622 8  88292544.68146  21561931.289    21561935.652
        48.700          39.700
 109372017.753 8  85225022.49447  20812782.602    20812787.305
        50.200          42.300
 124693546.966 7  97163867.45944  23728373.789    23728376.582
        45.000          27.600
 117284117.358 7  91390298.45745  22318410.227    22318415.309
        47.900          35.400
 195314572.437 8                  37167154.594
        48.200
 195903319.722 7                  37279162.500
        47.900
 197564964.189 7                  37610850.250
        44.000
 17  9  1  0 14  0.0000000  0 13G14G18G21G24G16G20G27G10G15G32S38S35
                                S33
 123971032.353 7  96600802.89343  23590883.414    23590886.594
        42.200          22.800
 110476187.532 8  86085399.57146  21022902.188    21022903.637
        49.100          37.600
 111974998.173 8  87253298.07346  21308123.383    21308124.910
        50.200          38.900
 124339649.670 6  96888030.43744  23661027.961    23661035.195
        38.300          24.200
 132530286.599 6 103270280.29342  25219657.859    25219663.172
        36.500          15.600
 130711473.175 5 101853092.66242  24873563.086    24873566.148
        35.500          16.300
 113282447.056 8  88271958.01746  21556903.766    21556907.879
        49.200          38.400
 109356129.249 8  85212641.84746  20809758.820    20809764.121
        51.500          41.700
 124794628.712 7  97242632.43844  23747609.078    23747612.156
        45.400          28.700
 117192151.271 7  91318636.61745  22300909.445    22300915.035
        47.100          34.800
 195314637.692 8                  37167166.469
        48.500
 195903355.688 8                  37279169.594
        48.100
 197566277.382 7                  37611100.188
        42.100
 17  9  1  0 14 30.0000000  0 13G14G18G21G24G16G20G27G10G15G32S38S35
                                S33
 123867628.176 6  96520228.32443  23571205.430    23571211.566
        41.800          22.200
 110502180.356 8  86105653.72246  21027848.727    21027850.023
        48.200          38.500
 111996765.504 8  87270259.61446  21312265.914    21312267.645
        49.100          38.500
 124303414.042 6  96859794.89643  23654133.078    23654139.406
        39.000          23.000
 132601911.578 6 103326091.91342  25233288.938    25233292.480
        39.200          16.300
 130795619.166 6 101918660.96442  24889575.656    24889578.957
        37.700          16.300
 113256604.631 8  88251821.06746  21551986.273    21551990.953
        49.000          39.100
 109340483.942 8  85200450.70747  20806781.695    20806786.582
        51.900          42.100
 124895921.841 7  97321562.12644  23766884.242    23766887.195
        45.300          27.600
 117100496.651 7  91247217.47146  22283468.391    22283473.594
        47.200          36.000
 195314701.655 7                  37167178.625
        47.300
 195903391.014 7                  37279176.359
        47.500
 197567586.093 7                  37611346.547
        42.900
 17  9  1  0 15  0.0000000  0 13G14G18G21G24G16G20G27G10G15G32S38S35
                                S33
 123764387.644 6  96439781.16643  23551558.781    23551564.699
        38.000          23.600
 110528306.149 8  86126011.48746  21032819.906    21032821.426
        48.200          38.100
 112018855.637 8  87287472.69446  21316469.297    21316470.918
        49.600          38.300
 124267602.453 6  96831889.79543  23647318.039    23647324.355
        40.600          23.800
 132673613.635 5 103381963.61542  25246932.461    25246934.020
        35.600          16.300
 130879734.258 6 101984205.18842  24905582.555    24905586.055
        36.000          17.800
 113231340.562 8  88232134.77946  21547178.523    21547182.996
        49.300          38.100
 109325081.390 8  85188448.73346  20803850.938    20803855.508
        51.500          41.800
 124997423.966 7  97400654.65044  23786199.625    23786202.719
        45.400          28.100
 117009155.993 7  91176042.97145  22266086.492    22266091.879
        47.700          35.500
 195314766.489 7                  37167191.109
        47.000
 195903426.661 8                  37279183.031
        48.200
 197568887.034 7                  37611597.250
        42.600
 17  9  1  0 15 30.0000000  0 14G08G14G18G21G24G16G20G27G10G15G32S38
                                S35S33
 125879220.05915                  23954035.570
        32.400
 123661312.870 6  96359463.20243  23531945.203    23531947.535
        38.900          22.200
 110554563.800 8  86146472.00046  21037816.367    21037818.262
        48.400          38.200
 112041269.251 8  87304937.84446  21320734.547    21320736.316
        49.800          39.400
 124232217.269 6  96804316.99343  23640584.609    23640591.520
        38.600          22.600
 132745389.494 5 103437892.74042  25260590.547    25260592.348
        32.900          14.800
 130963817.776 6 102049724.76842  24921582.625    24921586.594
        36.100          16.900
 113206655.395 8  88212899.58946  21542480.914    21542485.738
        49.600          38.400
 109309920.653 8  85176635.17047  20800965.891    20800970.527
        51.800          42.100
 125099132.227 7  97479907.81344  23805554.281    23805557.512
        45.700          28.700
 116918131.124 7  91105114.55445  22248765.117    22248770.184
        47.600          35.500
 195314830.562 7                  37167203.484
        46.600
 195903461.849 7                  37279189.203
        47.500
 197570184.793 7                  37611844.531
        42.200
 17  9  1  0 16  0.0000000  0 14G08G14G18G21G24G16G20G27G10G15G32S38
                                S35S33
 125799905.26615                  23938942.477
        32.000
 123558406.060 6  96279276.15443  23512362.359    23512363.227
        41.100          22.200
 110580953.038 8  86167035.04346  21042838.469    21042839.945
        48.500          37.700
 112064007.651 8  87322656.06546  21325061.570    21325062.969
        48.700          39.100
 124197260.917 6  96777078.30343  23633932.172    23633939.496
        39.600          23.600
 132817236.281 5 103493877.21042  25274263.133    25274266.340
        34.800          14.800
 131047869.274 5 102115219.43842  24937576.469    24937581.063
        35.500          16.300
 113182550.317 8  88194116.42346  21537893.961    21537898.574
        48.400          38.300
 109295001.382 8  85165009.77546  20798126.758    20798131.410
        49.500          41.800
 125201044.212 7  97559319.70844  23824947.734    23824950.676
        45.500          29.600
 116827424.686 7  91034434.23345  22231503.945    22231509.855
        47.900          35.500
 195314893.880 7                  37167215.438
        46.300
 195903497.557 7                  37279196.125
        46.800
 197571477.630 7                  37612087.969
        42.100
 17  9  1  0 16 30.0000000  0 14G08G14G18G21G24G16G20G27G10G15G32S38
                                S35S33
 125720956.94715                  23923917.359
        30.700
 123455669.386 6  96199221.71243  23492812.125    23492814.578
        41.300          22.800
 110607472.841 8  86187699.82846  21047884.500    21047886.598
        48.200          38.100
 112087070.570 8  87340627.14146  21329450.414    21329451.730
        49.500          39.400
 124162735.090 6  96750175.11043  23627362.461    23627368.305
        40.500          23.000
 132889151.072 6 103549914.72042  25287948.734    25287953.445
        37.400          15.600
 131131888.499 5 102180688.93242  24953564.875    24953569.227
        35.800          16.300
 113159025.842 8  88175785.65646  21533417.898    21533422.180
        50.300          38.900
 109280322.594 8  85153571.76746  20795333.219    20795338.434
        50.500          41.800
 125303156.781 7  97638887.90744  23844378.680    23844382.094
        46.100          29.900
 116737038.379 8  90964003.38346  22214304.203    22214309.914
        48.600          36.300
 195314958.238 7                  37167227.344
        47.600
 195903532.694 7                  37279202.828
        47.300
 197572765.417 7                  37612332.953
        43.300
 17  9  1  0 17  0.0000000  0 14G08G14G18G21G24G16G20G27G10G15G32S38
                                S35S33
 125642378.29315                  23908965.516
        32.200
 123353106.018 6  96119302.30244  23473294.797    23473300.309
        40.600          25.200
 110634122.957 7  86208466.14546  21052956.273    21052957.441
        47.700          37.000
 112110459.946 8  87358852.61746  21333900.953    21333903.094
        49.300          37.700
 124128642.593 6  96723609.58243  23620875.047    23620880.703
        39.800          23.600
 132961130.995 6 103606002.95642  25301645.164    25301651.824
        37.900          17.800
 131215875.764 6 102246133.52342  24969547.563    24969551.266
        37.200          16.300
 113136083.214 8  88157908.28346  21529051.555    21529055.891
        49.400          38.700
 109265884.092 8  85142320.99447  20792586.031    20792590.668
        51.700          42.000
 125405467.505 7  97718610.51944  23863848.125    23863851.383
        46.500          29.900
 116646974.852 8  90893824.07945  22197165.492    22197170.816
        48.900          35.200
 195315022.159 8                  37167240.344
        48.400
 195903567.879 8                  37279209.891
        48.300
 197574049.133 7                  37612578.484
        43.600
 17  9  1  0 17 30.0000000  0 14G08G14G18G21G24G16G20G27G10G15G32S38
                                S35S33
 125564171.518 5                  23894084.273
        33.200
 123250717.974 6  96039519.44444  23453810.602    23453817.816
        40.500          24.700
 110660902.768 7  86229333.52546  21058052.047    21058053.680
        47.500          37.900
 112134176.926 7  87377333.37746  21338414.484    21338416.617
        47.300          39.300
 124094985.766 6  96697383.52943  23614470.320    23614475.723
        40.500          22.900
 133033173.131 6 103662139.69543  25315354.305    25315358.555
        37.500          18.300
 131299830.778 6 102311553.00542  24985524.531    24985527.281
        37.600          16.900
 113113723.187 8  88140484.89646  21524796.805    21524801.270
        49.600          39.200
 109251685.230 8  85131256.94447  20789884.563    20789888.832
        51.100          43.000
 125507973.936 7  97798485.63344  23883354.484    23883357.359
        46.300          28.800
 116557236.313 8  90823897.96846  22180088.984    22180094.070
        48.300          36.100
 195315086.927 7                  37167252.000
        47.500
 195903603.524 7                  37279216.656
        47.800
 197575326.584 7                  37612821.422
        43.700
 17  9  1  0 18  0.0000000  0 14G08G14G18G21G24G16G20G27G10G15G32S38
                                S35S33
 125486338.974 5                  23879272.266
        34.500
 123148506.569 6  95959874.26344  23434360.828    23434365.633
        41.200          24.800
 110687810.611 7  86250300.68146  21063172.180    21063174.051
        46.900          37.600
 112158220.667 7  87396068.75146  21342989.563    21342991.488
        47.500          38.800
 124061765.921 6  96671497.97743  23608148.391    23608155.039
        39.500          23.600
 133105273.486 6 103718321.67442  25329074.555    25329077.352
        36.400          14.800
 131383752.330 6 102376946.39142  25001494.008    25001498.156
        37.300          16.300
 113091945.774 8  88123515.48546  21520652.508    21520656.980
        49.800          38.400
 109237724.515 8  85120378.47147  20787227.289    20787232.359
        51.100          42.400
 125610673.065 7  97878510.89344  23902897.359    23902900.277
        46.000          27.400
 116467824.020 7  90754226.09645  22163073.992    22163079.547
        47.800          35.800
 195315149.375 8                  37167263.609
        48.100
 195903638.207 7                  37279223.328
        47.900
 197576600.878 7                  37613063.203
        43.100
 17  9  1  0 18 30.0000000  0 14G08G14G18G21G24G16G20G27G10G15G32S38
                                S35S33
 125408883.185 5                  23864532.523
        33.100
 123046475.230 6  95880369.39443  23414944.367    23414947.008
        40.100          23.000
 110714846.860 8  86271367.88046  21068317.344    21068318.727
        48.100          37.900
 112182593.226 8  87415060.33146  21347627.906    21347629.195
        49.500          39.200
 124028986.072 6  96645955.27143  23601910.820    23601917.047
        40.000          21.500
 133177429.963 5 103774547.49842  25342805.680    25342807.766
        35.000          14.800
 131467641.196 6 102442314.32042  25017456.766    25017462.027
        36.200          16.300
 113070752.609 8  88107001.33046  21516619.477    21516624.051
        49.200          38.700
 109224002.301 8  85109685.84147  20784616.008    20784620.797
        51.100          42.600
 125713562.561 7  97958684.48644  23922476.391    23922478.816
        44.700          28.200
 116378741.116 8  90684810.88546  22146122.102    22146127.766
        48.100          36.000
 195315212.621 7                  37167276.172
        47.200
 195903673.362 7                  37279229.516
        47.800
 197577868.297 7                  37613305.219
        42.200
 17  9  1  0 19  0.0000000  0 14G08G14G18G21G24G16G20G27G10G15G32S38
                                S35S33
 125331806.254 5  97661218.44942  23849865.211    23849869.266
        32.800          15.600
 122944625.938 6  95801006.37643  23395563.281    23395565.922
        41.400          22.200
 110742010.401 8  86292534.27646  21073486.234    21073488.031
        48.100          37.000
 112207294.572 8  87434308.12946  21352328.148    21352330.367
        49.800          38.400
 123996647.906 6  96620756.76043  23595756.750    23595762.793
        38.100          22.300
 133249639.487 5 103830814.54142  25356546.719    25356549.945
        33.900          15.600
 131551496.757 5 102507656.28242  25033415.063    25033419.656
        34.900          15.600
 113050143.903 8  88090942.60746  21512697.813    21512702.699
        49.300          38.100
 109210517.412 8  85099178.14546  20782049.953    20782054.832
        51.200          41.700
 125816639.215 7  98039003.91844  23942091.063    23942093.961
        46.300          28.500
 116289989.258 7  90615653.63046  22129233.227    22129238.668
        47.100          36.000
 195315275.204 7                  37167288.078
        46.800
 195903708.727 7                  37279236.484
        47.500
 197579131.552 7                  37613545.719
        42.400
 17  9  1  0 19 30.0000000  0 13G08G14G18G21G24G16G27G10G15G32S38S35
                                S33
 125255111.189 5  97601456.13042  23835270.945    23835276.914
        34.600          15.600
 122842961.177 7  95721787.16644  23376217.227    23376221.426
        43.700          25.700
 110769301.131 8  86313799.77946  21078679.758    21078681.582
        48.800          38.100
 112232326.529 8  87453813.53846  21357091.578    21357093.426
        49.500          38.600
 123964754.281 6  96595904.61143  23589687.539    23589692.855
        39.900          22.200
 133321899.622 5 103887121.18842  25370296.680    25370301.465
        32.400          16.300
 113030120.925 8  88075340.28346  21508887.461    21508892.648
        48.400          38.600
 109197269.696 8  85088855.25747  20779528.930    20779533.852
        50.800          42.300
 125919901.194 7  98119467.77344  23961741.422    23961744.387
        45.800          28.900
 116201571.051 8  90546756.36146  22112407.625    22112412.891
        48.200          36.100
 195315338.863 7                  37167300.313
        47.600
 195903744.098 7                  37279243.531
        47.400
 197580391.387 7                  37613785.484
        42.600
 17  9  1  0 20  0.0000000  0 13G08G14G18G21G24G16G27G10G15G32S38S35
                                S33
 125178800.016 5  97541992.89642  23820749.211    23820754.883
        34.600          17.400
 122741482.793 7  95642713.20044  23356906.945    23356912.207
        42.900          25.500
 110796717.846 7  86335163.45446  21083896.836    21083898.430
        46.800          37.800
 112257689.333 7  87473576.75546  21361918.297    21361919.703
        47.300          37.900
 123933306.699 6  96571400.08043  23583703.563    23583709.441
        39.800          22.800
 133394206.395 6 103943463.99742  25384056.859    25384060.199
        36.500          15.600
 113010683.886 8  88060194.54346  21505188.609    21505193.762
        48.800          37.700
 109184258.175 8  85078716.42446  20777052.906    20777057.410
        50.800          41.700
 126023345.142 7  98200073.41244  23981426.227    23981429.047
        45.200          27.800
 116113488.214 8  90478120.42446  22095646.266    22095651.418
        48.000          36.200
 195315402.111 8                  37167311.781
        48.300
 195903779.737 7                  37279249.781
        46.500
 197581643.313 7                  37614023.344
        42.200
 17  9  1  0 20 30.0000000  0 13G08G14G18G21G24G16G27G10G15G32S38S35
                                S33
 125102874.724 6  97482830.33042  23806302.445    23806307.711
        37.400          17.800
 122640193.297 6  95563786.40144  23337630.961    23337636.348
        39.900          24.700
 110824259.990 7  86356624.85446  21089138.164    21089139.160
        47.000          37.700
 112283383.677 8  87493598.29446  21366807.625    21366809.414
        48.500          39.300
 123902307.182 6  96547244.62243  23577804.234    23577810.238
        39.700          22.900
 133466557.047 6 103999841.06242  25397825.766    25397826.766
        38.900          15.600
 112991833.363 8  88045505.82346  21501601.789    21501606.137
        49.200          38.400
 109171482.104 8  85068761.05947  20774621.891    20774626.465
        51.400          42.200
 126126968.605 7  98280818.93944  24001144.914    24001148.281
        45.200          27.200
 116025742.821 7  90409747.42646  22078948.672    22078953.930
        47.300          36.300
 195315465.030 7                  37167324.484
        47.900
 195903815.389 7                  37279255.656
        46.500
 197582892.066 7                  37614259.609
        42.200
 17  9  1  0 21  0.0000000  0 13G08G14G18G21G24G16G27G10G15G32S38S35
                                S33
 125027337.734 6  97423970.35843  23791927.383    23791932.934
        36.900          18.600
 122539094.639 6  95485008.26143  23318393.391    23318395.121
        38.300          23.200
 110851926.424 8  86378183.11546  21094402.953    21094404.320
        48.800          38.100
 112309409.855 8  87513878.41646  21371760.125    21371762.648
        49.200          39.100
 123871757.797 6  96523439.97243  23571991.055    23571996.621
        40.900          21.700
 133538948.419 6 104056249.85242  25411601.164    25411602.832
        38.100          16.900
 112973569.699 8  88031274.39646  21498126.313    21498130.641
        48.800          38.200
 109158940.519 8  85058988.40047  20772235.188    20772239.793
        52.000          42.100
 126230768.703 7  98361702.09744  24020897.305    24020900.742
        44.200          26.400
 115938336.595 8  90341638.71846  22062316.305    22062321.133
        49.300          36.800
 195315527.215 7                  37167336.359
        47.300
 195903850.118 7                  37279263.063
        47.200
 197584135.062 7                  37614499.016
        42.200
 17  9  1  0 21 30.0000000  0 13G08G14G18G21G24G16G27G10G15G32S38S35
                                S33
 124952191.749 5  97365415.08143  23777627.422    23777632.289
        34.500          18.600
 122438189.796 7  95406381.16944  23299191.438    23299193.602
        42.600          25.200
 110879717.332 8  86399838.36346  21099691.203    21099693.008
        48.000          38.300
 112335769.388 8  87534418.29646  21376776.117    21376778.516
        49.300          39.600
 123841660.691 6  96499987.73743  23566263.516    23566269.348
        39.500          23.000
 133611378.126 5 104112688.57742  25425382.828    25425387.199
        35.600          16.900
 112955894.180 8  88017501.26746  21494762.602    21494766.922
        49.500          38.700
 109146633.534 8  85049398.56547  20769893.586    20769898.270
        51.800          42.400
 126334743.386 7  98442721.28544  24040683.852    24040687.078
        44.200          25.600
 115851272.377 7  90273796.51446  22045748.148    22045752.973
        47.800          36.500
 195315589.930 7                  37167347.547
        46.400
 195903885.518 8                  37279270.047
        48.000
 197585373.470 7                  37614733.547
        42.200
 17  9  1  0 22  0.0000000  0 13G08G14G18G21G24G16G27G10G15G32S38S35
                                S33
 124877438.786 5  97307166.06343  23763402.469    23763407.160
        35.700          19.300
 122337480.514 7  95327906.51944  23280028.117    23280031.660
        44.400          24.600
 110907631.557 7  86421589.69646  21105003.039    21105004.641
        47.500          37.500
 112362463.213 8  87555218.67546  21381856.125    21381857.434
        49.600          38.400
 123812018.060 6  96476889.61644  23560622.797    23560628.875
        41.200          24.400
 133683842.685 5 104169154.47842  25439174.141    25439176.820
        34.800          16.900
 112938806.888 8  88004186.49646  21491511.016    21491515.824
        50.200          38.400
 109134560.030 8  85039990.66247  20767595.773    20767600.559
        51.600          42.200
 126438889.604 7  98523874.15544  24060501.930    24060505.328
        44.500          24.400
 115764551.784 7  90206222.06946  22029245.766    22029250.719
        46.800          36.400
 195315652.621 7                  37167360.047
        46.600
 195903920.170 7                  37279276.672
        47.900
 197586606.584 7                  37614968.234
        42.200
 17  9  1  0 22 30.0000000  0 13G08G14G18G21G24G16G27G10G15G32S38S35
                                S33
 124803081.293 6  97249225.16843  23749252.023    23749257.066
        36.300          18.300
 122236969.524 7  95249586.35044  23260900.313    23260907.156
        42.000          24.700
 110935669.048 8  86443437.08746  21110338.508    21110340.180
        48.300          37.300
 112389490.915 8  87576279.20446  21386999.625    21387000.516
        50.200          39.000
 123782831.619 6  96454146.99644  23555068.531    23555075.004
        40.500          24.300
 133756339.580 6 104225645.57842  25452970.125    25452971.762
        38.400          16.900
 112922308.642 8  87991330.73046  21488371.492    21488375.914
        49.300          38.000
 109122719.539 8  85030764.31947  20765342.641    20765347.281
        51.400          42.500
 126543204.747 7  98605158.63343  24080352.258    24080355.672
        44.200          22.900
 115678177.089 8  90138917.15046  22012809.063    22012815.000
        50.100          36.800
 195315715.186 8                  37167371.188
        48.300
 195903954.616 7                  37279283.094
        47.600
 197587835.365 7                  37615202.359
        43.100
 17  9  1  0 23  0.0000000  0 13G08G14G18G21G24G16G27G10G15G32S38S35
                                S33
 124729121.625 6  97191594.31743  23735178.414    23735183.504
        36.800          20.400
 122136659.017 6  95171422.32843  23241812.734    23241817.016
        39.500          23.500
 110963828.874 8  86465379.80146  21115696.945    21115698.793
        48.300          36.800
 112416853.999 8  87597601.06646  21392206.313    21392207.938
        48.500          38.900
 123754103.641 6  96431761.58543  23549602.195    23549608.371
        40.000          23.900
 133828865.573 6 104282159.14442  25466769.891    25466772.707
        36.500          14.800
