     2.11           OBSERVATION DATA    G (GPS)             RINEX VERSION / TYPE
teqc  2017Jul18     gpsops              20170902 00:32:16UTCPGM / RUN BY / DATE
Linux 2.6.32-573.12.1.x86_64|x86_64|gcc -static|Linux 64|=+ COMMENT
BIT 2 OF LLI FLAGS DATA COLLECTED UNDER A/S CONDITION       COMMENT
TIDB                                                        MARKER NAME
50103M108                                                   MARKER NUMBER
GGN                 JPL                                     OBSERVER / AGENCY
UC2200524011        ASHTECH UZ-12       CQ00                REC # / TYPE / VERS
402                 AOAD/M_T        NONE                    ANT # / TYPE
 -4460996.4047  2682557.0885 -3674443.3930                  APPROX POSITION XYZ
        0.0614        0.0000        0.0000                  ANTENNA: DELTA H/E/N
     1     1                                                WAVELENGTH FACT L1/2
     7    L1    L2    P1    P2    C1    S1    S2            # / TYPES OF OBSERV
    30.0000                                                 INTERVAL
                                                            COMMENT
This data is provided as a public service by NASA/JPL.      COMMENT
No warranty is expressed or implied regarding suitability   COMMENT
for use.  For further information, contact:                 COMMENT
Dave Stowers, NASA/JPL m/s 238-600                          COMMENT
4800 Oak Grove Drive, Pasadena CA 91109 USA                 COMMENT
                                                            COMMENT
Forced Modulo Decimation to 30 seconds                      COMMENT
 SNR is mapped to RINEX snr flag value [0-9]                COMMENT
  L1 & L2: min(max(int(snr_dBHz/6), 0), 9)                  COMMENT
pseudorange smoothing corrections not applied               COMMENT
  2017     9     1     0     0    0.0000000     GPS         TIME OF FIRST OBS
                                                            END OF HEADER
 17  9  1  0  0  0.0000000  0  9G31G03G16G23G22G14G01G09G26
 -13801084.77248 -10743236.75147  22686037.9614   22686039.6884   22686037.881
        51.0004         46.0004
 -25081857.67849 -19503017.22548  20707932.5934   20707937.2654   20707931.946
        57.0004         52.0004
  -8307332.31448  -6467760.30547  23269099.2864   23269101.9714   23269098.590
        48.0004         44.0004
 -16873329.67648 -13100020.00348  21788637.2384   21788637.8834   21788637.497
        52.0004         48.0004
 -23416417.15049 -18204789.70148  20542566.0724   20542567.1714   20542566.607
        57.0004         53.0004
  -1821200.34347  -1363851.93546  24700321.0974   24700323.3494   24700319.962
        42.0004         37.0004
  -4828720.56748  -3728009.07047  22976648.1864   22976653.8294   22976647.414
        48.0004         44.0004
  -6046429.88447  -4671140.80146  24075616.1264   24075620.5524   24075614.978
        45.0004         41.0004
 -13322700.91448 -10341871.03847  22523658.3874   22523664.9064   22523657.588
        52.0004         47.0004
 17  9  1  0  0 30.0000000  0  9G31G03G16G23G22G14G01G09G26
 -13718009.98448 -10678503.16647  22701846.6904   22701848.4524   22701846.605
        51.0004         46.0004
 -25111912.42549 -19526436.51048  20702213.2824   20702217.9524   20702212.686
        57.0004         52.0004
  -8387391.85648  -6530144.32247  23253863.6374   23253867.0344   23253864.023
        48.0004         44.0004
 -16923547.94148 -13139151.10548  21779080.8884   21779081.4124   21779081.213
        52.0004         48.0004
 -23387129.20749 -18181967.93848  20548139.1134   20548140.3444   20548139.821
        57.0004         52.0004
  -1739988.86747  -1300570.27946  24715773.8594   24715777.0594   24715773.962
        42.0004         37.0004
  -4743244.78648  -3661404.57647  22992913.6044   22992919.8634   22992913.011
        48.0004         44.0004
  -6119335.51147  -4727950.36946  24061741.2424   24061746.5744   24061741.104
        45.0004         41.0004
 -13358126.62748 -10369475.47947  22516917.2124   22516923.1544   22516916.676
        52.0004         47.0004
 17  9  1  0  1  0.0000000  0  9G31G03G16G23G22G14G01G09G26
 -13634713.89748 -10613597.14547  22717697.5384   22717699.1864   22717696.521
        50.0004         46.0004
 -25141496.93149 -19549489.37448  20696583.7454   20696588.2764   20696582.829
        57.0004         52.0004
  -8467204.72348  -6592336.12547  23238675.8074   23238679.8344   23238676.206
        48.0004         44.0004
 -16973577.71148 -13178135.33948  21769560.4424   21769561.4984   21769560.807
        52.0004         48.0004
 -23357324.90249 -18158743.81548  20553811.0114   20553811.9594   20553811.467
        57.0004         52.0004
  -1658759.17147  -1237274.53846  24731232.4874   24731235.6854   24731231.834
        42.0004         38.0004
  -4657516.51248  -3594603.35747  23009226.9364   23009232.8954   23009226.296
        48.0004         44.0004
  -6192196.86447  -4784725.42646  24047875.9764   24047881.9744   24047876.275
        45.0004         41.0004
 -13393044.24548 -10396683.99547  22510272.0474   22510278.6484   22510271.726
        52.0004         47.0004
 17  9  1  0  1 30.0000000  0  9G31G03G16G23G22G14G01G09G26
 -13551198.76048 -10548520.43547  22733590.1634   22733591.6554   22733589.056
        50.0004         46.0004
 -25170609.41849 -19572174.43048  20691043.7624   20691048.2784   20691042.981
        57.0004         52.0004
  -8546767.90648  -6654333.35747  23223535.1154   23223538.9834   23223535.226
        48.0004         44.0004
 -17023418.74748 -13216972.50248  21760076.4344   21760076.9614   21760076.094
        53.0004         48.0004
 -23327004.37649 -18135117.44648  20559580.9044   20559581.8994   20559581.325
        57.0004         52.0004
  -1577511.52647  -1173964.70646  24746693.8864   24746695.8104   24746692.230
        42.0004         36.0004
  -4571538.96648  -3527607.89147  23025587.1284   23025594.2254   23025587.636
        48.0004         44.0004
  -6265013.80047  -4841465.87546  24034020.4504   24034025.6374   24034019.487
        46.0004         41.0004
 -13427451.87248 -10423495.11947  22503724.7074   22503731.3034   22503724.612
        52.0004         47.0004
 17  9  1  0  2  0.0000000  0  9G31G03G16G23G22G14G01G09G26
 -13467466.65448 -10483274.65247  22749523.1184   22749525.0924   22749523.650
        50.0004         46.0004
 -25199248.23949 -19594490.39548  20685593.9944   20685598.5324   20685592.997
        57.0004         52.0004
  -8626078.62848  -6716133.87547  23208443.2324   23208445.0464   23208443.127
        48.0004         44.0004
 -17073070.86948 -13255662.46248  21750627.7784   21750628.4674   21750627.913
        53.0004         48.0004
 -23296167.96249 -18111089.08448  20565448.9394   20565449.7754   20565449.217
        57.0004         52.0004
  -1496245.89546  -1110640.79646  24762155.4184   24762159.1184   24762156.394
        41.0004         36.0004
  -4485315.42348  -3460420.74347  23041996.5134   23042002.2664   23041994.947
        48.0004         44.0004
  -6337786.34247  -4898171.71946  24020172.1634   24020176.7294   24020171.619
        46.0004         41.0004
 -13461347.81248 -10449907.52947  22497274.6924   22497280.9304   22497274.395
        52.0004         47.0004
 17  9  1  0  2 30.0000000  0  9G31G03G16G23G22G14G01G09G26
 -13383519.78548 -10417861.52647  22765497.8814   22765500.2784   22765497.735
        50.0004         46.0004
 -25227411.62349 -19616435.89248  20680234.6304   20680239.2174   20680233.786
        57.0004         52.0004
  -8705133.85448  -6777735.31847  23193399.2714   23193402.8144   23193399.198
        49.0004         44.0004
 -17122533.70348 -13294204.92448  21741215.1564   21741216.2624   21741215.299
        53.0004         48.0004
 -23264815.86149 -18086658.88848  20571415.0844   20571415.9864   20571415.530
        57.0004         52.0004
  -1414962.34047  -1047303.05946  24777624.6254   24777627.9124   24777624.598
        42.0004         38.0004
  -4398849.00848  -3393044.35247  23058450.7334   23058456.0864   23058449.748
        48.0004         44.0004
  -6410514.41947  -4954842.92846  24006332.2034   24006336.8784   24006330.872
        46.0004         41.0004
 -13494730.19948 -10475919.75947  22490922.5094   22490928.1674   22490921.348
        52.0004         47.0004
 17  9  1  0  3  0.0000000  0  9G31G03G16G23G22G14G01G09G26
 -13299360.56248 -10352282.92847  22781513.1654   22781514.8634   22781512.535
        50.0004         46.0004
 -25255097.75149 -19638009.49548  20674966.0784   20674970.6814   20674965.270
        57.0004         52.0004
  -8783930.31148  -6839135.11647  23178405.4144   23178407.8294   23178405.270
        49.0004         44.0004
 -17171806.97648 -13332599.66948  21731839.0154   21731839.6914   21731838.630
        53.0004         48.0004
 -23232948.31349 -18061827.04448  20577479.1254   20577480.1044   20577479.756
        57.0004         52.0004
  -1333660.50347   -983951.09446  24793094.7524   24793098.9554   24793094.342
        42.0004         37.0004
  -4312142.89448  -3325481.17647  23074949.7594   23074955.8734   23074948.866
        48.0004         43.0004
  -6483197.79447  -5011479.31046  23992502.4094   23992507.6454   23992500.321
        46.0004         41.0004
 -13527597.14848 -10501530.34247  22484668.0194   22484674.0364   22484667.363
        52.0004         47.0004
 17  9  1  0  3 30.0000000  0  9G31G03G16G23G22G14G01G09G26
 -13214991.57548 -10286540.88347  22797568.0474   22797570.0294   22797566.974
        50.0004         45.0004
 -25282305.21649 -19659210.12248  20669788.6494   20669793.3464   20669788.042
        57.0004         52.0004
  -8862465.52848  -6900331.35747  23163460.2514   23163463.7524   23163460.363
        49.0004         44.0004
 -17220890.57548 -13370846.62648  21722498.3544   21722499.5274   21722498.922
        53.0004         48.0004
 -23200566.17249 -18036594.22348  20583641.2544   20583642.3494   20583641.748
        57.0004         52.0004
  -1252341.38146   -920585.60746  24808570.6554   24808572.9474   24808570.350
        41.0004         36.0004
  -4225200.52048  -3257733.91047  23091493.9784   23091500.5224   23091492.999
        48.0004         43.0004
  -6555836.73947  -5068081.05846  23978678.3374   23978684.1694   23978676.648
        46.0004         41.0004
 -13559947.21648 -10526738.17047  22478511.6414   22478518.4724   22478511.623
        52.0004         47.0004
 17  9  1  0  4  0.0000000  0  9G31G03G16G23G22G14G01G09G26
 -13130414.77148 -10220636.89947  22813662.0304   22813664.3744   22813662.198
        50.0004         45.0004
 -25309032.09149 -19680036.26148  20664702.6714   20664707.3374   20664702.034
        57.0004         52.0004
  -8940735.91648  -6961321.24347  23148565.6284   23148568.4094   23148565.620
        49.0004         44.0004
 -17269783.81248 -13408945.24548  21713194.4564   21713195.0674   21713194.569
        53.0004         48.0004
 -23167669.13549 -18010960.18048  20589901.2974   20589902.4134   20589901.864
        57.0004         52.0004
  -1171004.63146   -857206.24546  24824047.8234   24824050.3004   24824048.149
        40.0004         36.0004
  -4138024.93148  -3189804.90947  23108083.6594   23108089.6744   23108082.593
        48.0004         44.0004
  -6628430.88547  -5124647.90846  23964864.3414   23964867.9974   23964863.753
        46.0004         41.0004
 -13591778.45748 -10551541.71747  22472454.6544   22472461.1414   22472454.233
        52.0004         47.0004
 17  9  1  0  4 30.0000000  0  9G31G03G16G23G22G14G01G09G26
 -13045632.63848 -10154572.91147  22829795.9424   22829797.6984   22829795.085
        50.0004         45.0004
 -25335276.95349 -19700486.80848  20659708.6074   20659713.0634   20659707.846
        57.0004         52.0004
  -9018739.07848  -7022102.89547  23133721.6334   23133726.2744   23133722.231
        49.0004         44.0004
 -17318487.08848 -13446895.84948  21703926.6364   21703927.1354   21703926.479
        53.0004         48.0004
 -23134258.08449 -17984925.61248  20596259.2584   20596260.4294   20596260.023
        57.0004         52.0004
  -1089650.65646   -793813.61746  24839527.5484   24839532.8784   24839527.841
        41.0004         36.0004
  -4050619.55648  -3121696.85347  23124716.1874   23124722.3174   23124714.865
        48.0004         43.0004
  -6700980.45047  -5181180.01246  23951058.3024   23951063.4854   23951058.225
        46.0004         41.0004
 -13623089.39048 -10575939.83448  22466496.2024   22466502.1694   22466495.586
        52.0004         48.0004
 17  9  1  0  5  0.0000000  0  9G31G03G16G23G22G14G01G09G26
 -12960646.87548 -10088350.26047  22845968.3954   22845970.3134   22845967.472
        50.0004         46.0004
 -25361037.83049 -19720560.21848  20654806.3484   20654811.0274   20654805.617
        57.0004         52.0004
  -9096471.72648  -7082673.76147  23118929.9294   23118933.6894   23118929.972
        49.0004         45.0004
 -17366999.38948 -13484697.63348  21694694.8744   21694695.8394   21694695.170
        53.0004         48.0004
 -23100332.87049 -17958490.39248  20602715.1434   20602716.0374   20602715.642
        57.0004         52.0004
  -1008278.83246   -730407.15445  24855011.5684   24855016.6864   24855013.306
        40.0004         35.0004
  -3962987.28948  -3053412.00747  23141391.7854   23141398.4584   23141391.063
        48.0004         43.0004
  -6773484.99947  -5237677.04046  23937259.5504   23937265.1964   23937259.318
        46.0004         41.0004
 -13653877.99548 -10599930.94448  22460637.6984   22460643.4084   22460637.049
        52.0004         48.0004
 17  9  1  0  5 30.0000000  0  9G31G03G16G23G22G14G01G09G26
 -12875460.00748 -10021970.90547  22862179.1014   22862180.0534   22862177.776
        50.0004         45.0004
 -25386313.43149 -19740255.49448  20649996.4004   20650001.3624   20649995.779
        57.0004         52.0004
  -9173931.25448  -7143031.81347  23104189.9014   23104193.8674   23104190.582
        49.0004         45.0004
 -17415321.00048 -13522350.83448  21685499.6694   21685500.4704   21685499.795
        53.0004         48.0004
 -23065894.38949 -17931655.22548  20609268.4094   20609269.4864   20609269.178
        57.0004         52.0004
   -926890.10346   -666987.34746  24870501.5464   24870503.4054   24870502.911
        40.0004         36.0004
  -3875131.75148  -2984953.17247  23158110.1494   23158115.9844   23158109.873
        48.0004         43.0004
  -6845944.76447  -5294139.17046  23923471.9544   23923476.8264   23923471.371
        46.0004         41.0004
 -13684142.99148 -10623514.04748  22454878.2804   22454883.9194   22454877.745
        52.0004         48.0004
 17  9  1  0  6  0.0000000  0  9G31G03G16G23G22G14G01G09G26
 -12790074.20248  -9955436.52047  22878426.8184   22878429.1074   22878426.576
        50.0004         45.0004
 -25411102.00749 -19759571.27048  20645279.3214   20645284.1674   20645278.681
        57.0004         52.0004
  -9251114.61248  -7203174.65947  23089502.0364   23089505.6734   23089503.107
        49.0004         45.0004
 -17463451.20048 -13559854.88548  21676340.7634   21676341.4724   21676340.869
        53.0004         48.0004
 -23030942.69149 -17904420.15148  20615919.4904   20615920.6644   20615920.129
        57.0004         52.0004
   -845484.25146   -603554.19346  24885991.9334   24885996.3544   24885993.076
        41.0004         36.0004
  -3787055.96848  -2916322.72247  23174870.6744   23174876.3584   23174869.521
        48.0004         43.0004
  -6918359.60547  -5350566.29446  23909693.5074   23909698.7724   23909691.856
        46.0004         41.0004
 -13713882.57748 -10646687.74648  22449218.1824   22449224.9144   22449218.609
        52.0004         48.0004
 17  9  1  0  6 30.0000000  0  9G31G03G16G23G22G14G01G09G26
 -12704491.74048  -9888748.91147  22894713.2284   22894715.0774   22894712.384
        50.0004         45.0004
 -25435401.81649 -19778506.18748  20640655.2434   20640660.1304   20640654.581
        57.0004         52.0004
  -9328018.77448  -7263099.95547  23074867.7064   23074871.2284   23074868.412
        49.0004         45.0004
 -17511389.88948 -13597209.70048  21667218.3184   21667219.0384   21667218.225
        53.0004         48.0004
 -22995478.09949 -17876785.41948  20622668.2834   20622669.3454   20622668.879
        57.0004         52.0004
   -764060.99446   -540107.67546  24901487.9984   24901492.0534   24901487.336
        40.0004         36.0004
  -3698763.17248  -2847523.17847  23191672.2764   23191678.6114   23191671.369
        48.0004         43.0004
  -6990729.28247  -5406958.23546  23895921.4854   23895926.2834   23895920.216
        46.0004         41.0004
 -13743095.05648 -10669450.69948  22443659.9714   22443665.9154   22443659.116
        52.0004         48.0004
 17  9  1  0  7  0.0000000  0  9G31G03G16G23G22G14G01G09G26
 -12618714.95148  -9821909.87147  22911036.0084   22911037.7374   22911035.437
        50.0004         45.0004
 -25459211.52849 -19797059.21248  20636124.4464   20636129.1214   20636123.714
        57.0004         52.0004
  -9404640.75148  -7322805.36247  23060287.5864   23060290.6104   23060287.454
        49.0004         45.0004
 -17559136.64748 -13634414.96448  21658132.7344   21658133.5834   21658132.226
        53.0004         48.0004
 -22959501.18149 -17848751.47048  20629514.5044   20629515.4204   20629515.036
        57.0004         52.0004
   -682621.00046   -476648.02846  24916985.3294   24916989.3844   24916984.786
        40.0004         36.0004
  -3610256.73648  -2778557.14747  23208513.8024   23208520.7454   23208514.109
        48.0004         43.0004
  -7063053.91647  -5463315.07246  23882158.5794   23882162.1994   23882158.910
        46.0004         41.0004
 -13771779.01548 -10691801.83448  22438201.4744   22438207.5624   22438201.049
        52.0004         48.0004
 17  9  1  0  7 30.0000000  0  9G31G03G16G23G22G14G01G09G26
 -12532745.71748  -9754920.87847  22927395.4304   22927396.6504   22927394.510
        50.0004         45.0004
 -25482529.36149 -19815228.95348  20631687.1484   20631691.9654   20631686.466
        57.0004         52.0004
  -9480977.86048  -7382288.79847  23045761.2054   23045764.3644   23045761.216
        50.0004         45.0004
 -17606691.29848 -13671470.53248  21649083.1144   21649083.7434   21649083.234
        53.0004         48.0004
 -22923012.63849 -17820318.85248  20636457.9344   20636459.0794   20636458.685
        57.0004         52.0004
   -601164.19946   -413175.15245  24932485.5604   24932489.2444   24932485.628
        40.0004         35.0004
  -3521539.71448  -2709427.04547  23225396.8724   23225402.8584   23225395.858
        48.0004         43.0004
  -7135333.27547  -5519636.63246  23868402.4404   23868406.9214   23868403.610
        46.0004         41.0004
 -13799932.74948 -10713739.79648  22432843.4794   22432850.3934   22432843.075
        52.0004         48.0004
 17  9  1  0  8  0.0000000  0  9G31G03G16G23G22G14G01G09G26
 -12446586.63248  -9687783.94947  22943790.9784   22943792.3704   22943790.016
        50.0004         45.0004
 -25505353.90249 -19833014.31148  20627344.0524   20627348.5714   20627343.218
        57.0004         52.0004
  -9557026.97748  -7441547.83247  23031288.7934   23031292.1234   23031289.523
        50.0004         45.0004
 -17654053.66848 -13708376.26948  21640070.2654   21640070.9224   21640070.543
        53.0004         48.0004
 -22886012.88449 -17791487.89148  20643498.7634   20643499.8984   20643499.341
        57.0004         52.0004
   -519690.34746   -349689.07946  24947989.1544   24947994.1024   24947989.524
        40.0004         36.0004
  -3432615.53948  -2640135.49847  23242318.5424   23242324.0854   23242317.779
        48.0004         43.0004
  -7207567.38147  -5575922.93447  23854655.4744   23854661.5624   23854655.306
        46.0004         42.0004
 -13827554.82648 -10735263.48648  22427587.6194   22427593.7964   22427587.340
        52.0004         48.0004
 17  9  1  0  8 30.0000000  0  9G31G03G16G23G22G14G01G09G26
 -12360239.89748  -9620500.79047  22960221.4954   22960223.4354   22960221.336
        50.0004         45.0004
 -25527683.48949 -19850413.99248  20623094.8224   20623099.6604   20623093.905
        57.0004         52.0004
  -9632785.19048  -7500580.18747  23016873.2924   23016875.4294   23016873.385
        50.0004         45.0004
 -17701223.25948 -13745131.79348  21631094.4224   21631094.8214   21631094.193
        53.0004         48.0004
 -22848502.27849 -17762258.86248  20650636.9744   20650637.9294   20650637.501
        56.0004         52.0004
   -438199.77447   -286190.05446  24963496.5694   24963501.4454   24963497.119
        42.0004         37.0004
  -3343487.30747  -2570684.96947  23259278.9524   23259285.3164   23259278.249
        47.0004         43.0004
  -7279756.00347  -5632173.78146  23840920.6584   23840926.5374   23840918.205
        46.0004         41.0004
 -13854643.62248 -10756371.62448  22422432.8244   22422438.8944   22422432.428
        52.0004         48.0004
 17  9  1  0  9  0.0000000  0  9G31G03G16G23G22G14G01G09G26
 -12273707.31448  -9553072.82847  22976688.8034   22976690.7614   22976688.300
        50.0004         45.0004
 -25549516.70949 -19867426.89548  20618940.1104   20618944.7824   20618939.373
        57.0004         52.0004
  -9708249.85148  -7559383.78947  23002513.0254   23002516.0324   23002513.266
        50.0004         45.0004
 -17748199.66648 -13781736.78248  21622154.9644   21622155.6024   21622154.686
        53.0004         48.0004
 -22810481.41549 -17732632.23048  20657871.8894   20657873.0344   20657872.536
        56.0004         52.0004
   -356692.86046   -222678.21746  24979006.6404   24979008.6594   24979006.711
        41.0004         36.0004
  -3254158.41148  -2501078.07047  23276277.9554   23276284.2684   23276277.304
        48.0004         43.0004
  -7351899.12747  -5688389.17847  23827193.1854   23827197.5684   23827191.845
        46.0004         42.0004
 -13881197.72848 -10777063.13148  22417379.2984   22417386.0044   22417379.421
        52.0004         48.0004
 17  9  1  0  9 30.0000000  0  9G31G03G16G23G22G14G01G09G26
 -12186991.57048  -9485502.13947  22993189.6464   22993192.2484   22993189.857
        50.0004         45.0004
 -25570851.87049 -19884051.69748  20614879.9164   20614884.8024   20614879.432
        57.0004         52.0004
  -9783417.68448  -7617956.10847  22988209.3774   22988211.5884   22988209.349
        50.0004         45.0004
 -17794982.62248 -13818191.03048  21613251.9084   21613252.8164   21613252.687
        53.0004         48.0004
 -22771950.74049 -17702608.34248  20665204.1134   20665205.1284   20665204.757
        56.0004         52.0004
   -275169.06746   -159153.29245  24994521.3684   24994524.3634   24994521.628
        39.0004         33.0004
  -3164631.90147  -2431317.19547  23293313.3304   23293320.6444   23293313.258
        47.0004         43.0004
  -7423996.52247  -5744568.95047  23813473.0234   23813478.2324   23813472.954
        46.0004         42.0004
 -13907215.52948 -10797336.73248  22412428.7744   22412434.9624   22412428.230
        52.0004         48.0004
 17  9  1  0 10  0.0000000  0  9G31G03G16G23G22G14G01G09G26
 -12100094.65348  -9417790.27447  23009726.2704   23009728.6654   23009725.561
        50.0004         45.0004
 -25591687.69449 -19900287.40748  20610915.1914   20610919.8824   20610914.355
        57.0004         52.0004
  -9858286.08648  -7676295.09347  22973961.5004   22973964.5654   22973962.085
        50.0004         45.0004
 -17841571.90548 -13854494.36148  21604386.6704   21604387.7394   21604386.618
        53.0004         48.0004
 -22732911.10449 -17672187.86248  20672633.0844   20672634.3254   20672633.739
        56.0004         52.0004
   -193628.91546    -95615.48845  25010038.6444   25010038.2934   25010037.273
        39.0004         34.0004
  -3074911.16547  -2361404.97347  23310386.8414   23310393.9624   23310386.607
        47.0004         43.0004
  -7496048.26547  -5800713.15247  23799761.3194   23799766.2804   23799760.930
        46.0004         42.0004
 -13932695.72048 -10817191.40948  22407579.9844   22407586.3854   22407579.219
        52.0004         48.0004
 17  9  1  0 10 30.0000000  0  9G31G03G16G23G22G14G01G09G26
 -12013018.69248  -9349938.90247  23026296.0324   23026297.9534   23026296.006
        50.0004         45.0004
 -25612022.50849 -19916132.72048  20607045.5694   20607050.1734   20607044.998
        57.0004         52.0004
  -9932852.15748  -7734398.51247  22959772.1844   22959775.9234   22959772.840
        50.0004         45.0004
 -17887967.12548 -13890646.48348  21595558.1534   21595558.6534   21595558.307
        53.0004         48.0004
 -22693362.79349 -17641371.01448  20680158.8874   20680160.2124   20680159.517
        56.0004         52.0004
   -112072.42446    -32064.96946  25025557.9004   25025561.7304   25025557.194
        41.0004         37.0004
  -2984999.40247  -2291343.90047  23327497.5384   23327503.6144   23327496.961
        47.0004         43.0004
  -7568054.12247  -5856821.60047  23786058.7654   23786063.9664   23786058.574
        46.0004         42.0004
 -13957636.78248 -10836625.99348  22402833.7354   22402840.1054   22402833.599
        52.0004         48.0004
 17  9  1  0 11  0.0000000  0  9G31G03G16G23G22G14G01G09G26
 -11925765.86648  -9281949.72347  23042899.8234   23042901.3584   23042899.028
        50.0004         45.0004
 -25631854.99849 -19931586.61048  20603271.7054   20603276.1704   20603270.857
        57.0004         52.0004
 -10007113.08348  -7792264.15047  22945640.3014   22945643.6624   22945640.545
        50.0004         45.0004
 -17934168.00848 -13926647.16348  21586766.1414   21586767.0414   21586766.395
        53.0004         48.0004
 -22653306.52749 -17610158.35548  20687781.5704   20687782.4964   20687782.126
        56.0004         52.0004
    -30499.66646     31498.15846  25041080.0584   25041085.2864   25041079.719
        41.0004         36.0004
  -2894899.89547  -2221136.52947  23344642.3084   23344648.4504   23344641.189
        47.0004         42.0004
  -7640014.06247  -5912894.25947  23772365.8114   23772370.6964   23772365.208
        47.0004         42.0004
 -13982037.38848 -10855639.44048  22398190.4024   22398196.5684   22398189.926
        52.0004         48.0004
 17  9  1  0 11 30.0000000  0  8G31G03G16G23G22G01G09G26
 -11838338.18948  -9213824.28147  23059536.9364   23059538.5164   23059535.833
        50.0004         45.0004
 -25651183.64249 -19946647.89148  20599593.5534   20599597.9944   20599592.723
        57.0004         52.0004
 -10081065.72348  -7849889.55947  22931567.0844   22931570.7054   22931568.256
        50.0004         45.0004
 -17980174.22948 -13962496.15948  21578011.4104   21578011.8264   21578011.679
        53.0004         48.0004
 -22612742.85149 -17578550.31248  20695500.4464   20695501.4384   20695501.119
        56.0004         52.0004
  -2804615.84247  -2150785.38247  23361823.1334   23361829.0234   23361822.823
        47.0004         43.0004
  -7711927.83547  -5968930.95547  23758680.9714   23758686.0774   23758681.713
        47.0004         42.0004
 -14005896.08548 -10874230.62948  22393650.2634   22393656.7104   22393649.850
        52.0004         48.0004
 17  9  1  0 12  0.0000000  0  8G31G03G16G23G22G01G09G26
 -11750737.90348  -9145564.34347  23076206.6384   23076208.0914   23076205.429
        49.0004         45.0004
 -25670006.97249 -19961315.42148  20596011.5254   20596016.0344   20596010.837
        57.0004         52.0004
 -10154707.24648  -7907272.53947  22917554.3784   22917557.1844   22917554.538
        50.0004         45.0004
 -18025985.15348 -13998192.97848  21569294.1184   21569294.5554   21569294.210
        53.0004         48.0004
 -22571672.56449 -17546547.50748  20703315.8614   20703317.0264   20703316.578
        56.0004         52.0004
  -2714150.48647  -2080292.94747  23379037.7284   23379044.1394   23379037.293
        47.0004         42.0004
  -7783795.38447  -6024931.62547  23745005.0134   23745009.6474   23745004.559
        47.0004         42.0004
 -14029211.49448 -10892398.46248  22389213.3134   22389219.9514   22389213.428
        52.0004         48.0004
 17  9  1  0 12 30.0000000  0  8G31G03G16G23G22G01G09G26
 -11662967.30948  -9077171.69247  23092908.2254   23092910.5984   23092907.944
        49.0004         45.0004
 -25688323.60249 -19975588.12348  20592525.9954   20592530.5054   20592525.441
        57.0004         52.0004
 -10228035.14448  -7964411.14947  22903600.6264   22903602.9084   22903600.457
        50.0004         45.0004
 -18071600.76848 -14033737.60748  21560614.0674   21560614.3254   21560613.747
        53.0004         49.0004
 -22530096.11449 -17514150.29248  20711227.7684   20711228.8774   20711228.289
        56.0004         52.0004
  -2623507.06647  -2009661.77447  23396286.9544   23396293.2924   23396285.858
        47.0004         42.0004
  -7855616.56447  -6080896.17047  23731337.7974   23731342.6114   23731337.375
        47.0004         42.0004
 -14051982.30748 -10910141.94048  22384880.3854   22384886.6094   22384880.090
        52.0004         48.0004
 17  9  1  0 13  0.0000000  0  9G31G03G16G23G22G14G01G09G26
 -11575028.49548  -9008647.97547  23109642.6494   23109644.5944   23109642.691
        49.0004         45.0004
 -25706132.13849 -19989464.90748  20589137.0434   20589141.6804   20589136.308
        57.0004         52.0004
 -10301046.09448  -8021302.78347  22889707.0064   22889709.7184   22889707.202
        50.0004         45.0004
 -18117020.56148 -14069129.64748  21551970.7874   21551970.9404   21551970.860
        53.0004         49.0004
 -22488014.39549 -17481359.36048  20719235.6534   20719236.8744   20719236.315
        56.0004         52.0004
    126993.96448     85737.40745  25103201.8054   25103203.6354   25103202.610
        50.0004         35.0004
  -2532688.82347  -1938894.37447  23413569.5934   23413575.2424   23413568.605
        47.0004         42.0004
  -7927391.22647  -6136824.45747  23717679.7904   23717683.9114   23717678.936
        47.0004         42.0004
 -14074207.19148 -10927460.01848  22380651.6534   22380657.5564   22380650.931
        52.0004         48.0004
 17  9  1  0 13 30.0000000  0  9G31G03G16G23G22G14G01G09G26
 -11486923.60548  -8939994.83347  23126408.3344   23126410.5384   23126408.839
        49.0004         45.0004
 -25723431.17049 -20002944.67248  20585845.2464   20585849.8454   20585844.600
        57.0004         52.0004
 -10373737.50548  -8077945.42047  22875874.5754   22875877.2804   22875874.823
        50.0004         45.0004
 -18162244.47248 -14104369.05148  21543364.6324   21543365.6114   21543365.028
        53.0004         49.0004
 -22445428.07749 -17448175.23248  20727339.2914   20727340.5724   20727340.094
        56.0004         52.0004
    208647.59847    149363.51945  25118737.9234   25118743.3944   25118740.408
        44.0004         35.0004
  -2441699.08047  -1867993.35547  23430884.0894   23430890.6984   23430883.045
        47.0004         42.0004
  -7999119.24147  -6192716.39747  23704030.1044   23704035.2994   23704029.428
        47.0004         42.0004
 -14095884.87148 -10944351.69148  22376526.3394   22376532.1474   22376525.492
        53.0004         48.0004
 17  9  1  0 14  0.0000000  0 10G31G03G16G23G07G22G14G01G09G26
 -11398654.89248  -8871214.05047  23143205.9864   23143208.2564   23143205.512
        49.0004         45.0004
 -25740219.30749 -20016026.34048  20582650.7424   20582655.0764   20582649.996
        57.0004         52.0004
 -10446106.48248  -8134336.81247  22862102.4754   22862105.6604   22862103.037
        50.0004         45.0004
 -18207271.94848 -14139455.38848  21534796.2474   21534797.2934   21534796.274
        53.0004         49.0004
   -258893.83948   -145165.37646  25334248.7834   25334254.0324   25334249.385
        50.0004         37.0004
 -22402337.62649 -17414598.27448  20735539.4074   20735540.5544   20735539.891
        56.0004         52.0004
    290317.18346    213002.13645  25134279.9644   25134282.1704   25134281.078
        41.0004         34.0004
  -2350540.85147  -1796961.01247  23448231.2674   23448237.3544   23448229.988
        47.0004         42.0004
  -8070800.47847  -6248571.89147  23690389.6634   23690394.4694   23690389.043
        47.0004         42.0004
 -14117014.04348 -10960815.97548  22372505.4194   22372511.1214   22372504.646
        53.0004         48.0004
 17  9  1  0 14 30.0000000  0 10G31G03G16G23G07G22G14G01G09G26
 -11310224.33048  -8802307.14447  23160033.8594   23160036.6614   23160033.369
        49.0004         45.0004
 -25756495.27649 -20028708.91648  20579553.4724   20579558.0044   20579552.623
        57.0004         52.0004
 -10518150.39548  -8190474.90547  22848393.8494   22848396.5654   22848393.492
        50.0004         45.0004
 -18252102.59848 -14174388.35848  21526265.7454   21526265.9734   21526265.328
        53.0004         49.0004
   -367611.14647   -229880.11246  25313561.3354   25313565.4554   25313561.577
        45.0004         37.0004
 -22358744.06149 -17380629.28048  20743834.8644   20743835.8164   20743835.624
        56.0004         52.0004
    372002.54846    276653.03245  25149823.8164   25149829.2144   25149825.121
        39.0004         34.0004
  -2259217.60047  -1725800.07247  23465609.0364   23465615.4794   23465608.023
        47.0004         42.0004
  -8142434.79547  -6304390.82747  23676758.0254   23676762.9994   23676758.468
        47.0004         42.0004
 -14137593.52648 -10976851.92948  22368589.4194   22368595.2574   22368588.994
        53.0004         48.0004
 17  9  1  0 15  0.0000000  0 10G31G03G16G23G07G22G14G01G09G26
 -11221634.17948  -8733275.88647  23176891.5624   23176893.2644   23176891.257
        49.0004         45.0004
 -25772257.65249 -20040991.29248  20576553.9324   20576558.5004   20576553.220
        57.0004         52.0004
 -10589866.28548  -8246357.39247  22834746.4144   22834749.1554   22834746.574
        50.0004         45.0004
 -18296735.87348 -14209167.52948  21517772.0134   21517772.6054   21517771.993
        53.0004         49.0004
   -476213.68447   -314505.39346  25292895.9934   25292899.1744   25292896.355
        43.0004         37.0004
 -22314647.68849 -17346268.48848  20752226.2964   20752227.3474   20752226.776
        56.0004         52.0004
    453703.83456    340316.31355  25165373.8195   25165379.3995   25165374.362
        39.0004         34.0004
  -2167732.40447  -1654512.94147  23483017.6134   23483024.3334   23483017.637
        46.0004         42.0004
  -8214022.00747  -6360173.05747  23663136.2154   23663140.4984   23663134.975
        47.0004         43.0004
 -14157622.00648 -10992458.51948  22364778.4204   22364783.7904   22364777.421
        53.0004         48.0004
 17  9  1  0 15 30.0000000  0 10G31G03G16G23G07G22G14G01G09G26
 -11132886.54048  -8664121.91647  23193780.0784   23193781.3084   23193779.346
        49.0004         45.0004
 -25787505.14349 -20052872.45648  20573652.4574   20573657.1294   20573651.598
        57.0004         52.0004
 -10661251.31248  -8301982.07747  22821162.9984   22821165.5094   22821162.930
        50.0004         45.0004
 -18341171.71448 -14243792.85748  21509315.9954   21509316.6644   21509316.065
        53.0004         49.0004
   -584699.97246   -399040.01446  25272248.9854   25272256.7284   25272247.284
        41.0004         36.0004
 -22270049.88449 -17311516.96948  20760712.9964   20760714.1664   20760713.520
        56.0004         52.0004
    535421.09756    403992.04455  25180922.6075   25180926.3265   25180922.965
        38.0004         33.0004
  -2076088.61047  -1583102.22647  23500458.2154   23500463.5894   23500457.009
        46.0004         42.0004
  -8285561.95847  -6415918.46347  23649522.4414   23649527.0154   23649521.921
        47.0004         42.0004
 -14177098.34348 -11007634.87248  22361071.7524   22361077.9984   22361071.251
        53.0004         48.0004
 17  9  1  0 16  0.0000000  0  8G31G03G16G23G22G01G09G26
 -11043983.61548  -8594846.93047  23210698.0474   23210699.2354   23210697.257
        49.0004         45.0004
 -25802236.45849 -20064351.40648  20570849.0754   20570853.7884   20570848.516
        57.0004         52.0004
 -10732302.90848  -8357346.94447  22807641.7644   22807644.3474   22807641.939
        50.0004         45.0004
 -18385409.76448 -14278264.06448  21500898.0554   21500898.3344   21500897.904
        53.0004         49.0004
 -22224951.25749 -17276375.19948  20769294.9724   20769296.0654   20769295.424
        56.0004         52.0004
  -1984289.45247  -1511570.46447  23517925.6624   23517932.0484   23517925.652
        46.0004         42.0004
  -8357054.47247  -6471626.89147  23635917.8664   23635922.4794   23635917.052
        47.0004         42.0004
 -14196021.34848 -11022380.05848  22357470.5494   22357476.7544   22357470.165
        53.0004         48.0004
 17  9  1  0 16 30.0000000  0  8G31G03G16G23G22G01G09G26
 -10954927.23248  -8525452.37347  23227643.8904   23227646.4954   23227644.181
        49.0004         45.0004
 -25816450.32249 -20075427.15248  20568144.4294   20568148.9764   20568143.431
        57.0004         52.0004
 -10803017.75848  -8412449.38747  22794183.9804   22794188.1304   22794184.459
        50.0004         46.0004
 -18429449.32648 -14312580.59948  21492517.5744   21492518.3734   21492517.625
        53.0004         49.0004
 -22179352.59649 -17240843.79348  20777972.0704   20777973.1484   20777972.419
        56.0004         52.0004
  -1892338.14747  -1439920.15647  23535424.0714   23535430.8714   23535423.611
        47.0004         42.0004
  -8428499.42047  -6527298.25947  23622321.5664   23622327.1284   23622321.443
        47.0004         42.0004
 -14214389.88748 -11036693.20148  22353975.4924   22353981.4214   22353975.277
        53.0004         48.0004
 17  9  1  0 17  0.0000000  0  8G31G03G16G23G22G01G09G26
 -10865719.50148  -8455939.88847  23244619.9624   23244622.0714   23244619.395
        49.0004         44.0004
 -25830145.42049 -20086098.66148  20565538.2334   20565542.9684   20565537.396
        57.0004         52.0004
 -10873393.49648  -8467287.61047  22780792.8774   22780796.0304   22780793.009
        50.0004         46.0004
 -18473290.42848 -14346742.49848  21484174.8904   21484175.2434   21484174.914
        53.0004         49.0004
 -22133254.52449 -17204923.23248  20786744.1774   20786745.4934   20786744.920
        56.0004         52.0004
  -1800237.84547  -1368153.73547  23552950.4344   23552957.1444   23552949.226
        46.0004         42.0004
  -8499896.58847  -6582932.40247  23608734.8434   23608740.3524   23608734.638
        47.0004         42.0004
 -14232202.80148 -11050573.38548  22350585.8134   22350591.7054   22350585.168
        53.0004         48.0004
 17  9  1  0 17 30.0000000  0  8G31G03G16G23G22G01G09G26
 -10776362.60848  -8386311.16747  23261624.0624   23261626.6604   23261623.473
        49.0004         44.0004
 -25843320.53149 -20096364.98948  20563031.0714   20563035.6614   20563030.502
        57.0004         52.0004
 -10943427.11748  -8521859.23847  22767465.8964   22767469.2524   22767465.433
        50.0004         46.0004
 -18516932.37448 -14380749.20748  21475870.2334   21475870.6754   21475869.995
        53.0004         49.0004
 -22086657.94249 -17168614.22148  20795611.3164   20795612.5074   20795611.961
        56.0004         52.0004
  -1707991.84547  -1296273.75647  23570504.0144   23570509.9514   23570503.887
        46.0004         42.0004
  -8571245.80147  -6638529.17547  23595158.3884   23595163.3304   23595157.742
        47.0004         42.0004
 -14249458.99348 -11064019.75948  22347302.1514   22347307.9374   22347301.371
        53.0004         48.0004
 17  9  1  0 18  0.0000000  0  8G31G03G16G23G22G01G09G26
 -10686858.80048  -8316567.96147  23278656.0264   23278658.3604   23278656.257
        49.0004         45.0004
 -25855974.43949 -20106225.18748  20560623.2274   20560627.8364   20560622.413
        57.0004         52.0004
 -11013116.08948  -8576162.31747  22754204.9844   22754207.5674   22754204.933
        50.0004         46.0004
 -18560374.98048 -14414600.58848  21467603.2204   21467603.3484   21467602.951
        53.0004         49.0004
 -22039563.81749 -17131917.51848  20804573.1074   20804574.1754   20804573.599
        56.0004         52.0004
  -1615603.38947  -1224282.79847  23588085.5134   23588091.7844   23588084.598
        46.0004         42.0004
  -8642546.91347  -6694088.46147  23581589.5404   23581594.4224   23581589.942
        47.0004         42.0004
 -14266157.40248 -11077031.49948  22344124.2754   22344130.0854   22344123.629
        53.0004         48.0004
 17  9  1  0 18 30.0000000  0  8G31G03G16G23G22G01G09G26
 -10597210.36048  -8246712.07447  23295715.7284   23295717.4474   23295715.872
        49.0004         44.0004
 -25868105.91749 -20115678.29748  20558314.6984   20558318.9204   20558314.261
        57.0004         52.0004
 -11082457.69648  -8630194.72747  22741009.5964   22741011.2984   22741009.292
        51.0004         46.0004
 -18603617.83648 -14448296.31848  21459374.2094   21459374.5214   21459374.433
        53.0004         49.0004
 -21991973.01449 -17094833.79348  20813629.2984   20813630.1524   20813630.063
        56.0004         51.0004
  -1523075.69047  -1152183.34847  23605693.1234   23605699.2384   23605691.586
        46.0004         42.0004
  -8713799.74547  -6749610.14247  23568030.6114   23568035.2964   23568030.282
        47.0004         42.0004
 -14282296.95648 -11089607.77148  22341053.0404   22341058.9554   22341052.698
        53.0004         48.0004
 17  9  1  0 19  0.0000000  0  8G31G03G16G23G22G01G09G26
 -10507419.09748  -8176744.89247  23312802.7484   23312804.3964   23312802.077
        49.0004         44.0004
 -25879713.73249 -20124723.36548  20556105.9434   20556110.2504   20556105.237
        57.0004         52.0004
 -11151448.75348  -8683953.98947  22727880.8914   22727883.0524   22727881.255
        51.0004         46.0004
 -18646660.35448 -14481835.95248  21451183.9564   21451183.7974   21451184.048
        53.0004         49.0004
 -21943886.54749 -17057363.84348  20822780.0854   20822780.6594   20822780.923
        56.0004         52.0004
  -1430411.99647  -1079977.93347  23623326.5694   23623332.2454   23623325.911
        46.0004         42.0004
  -8785004.05347  -6805094.00247  23554481.2834   23554486.2494   23554480.543
        47.0004         42.0004
 -14297876.71348 -11101747.84148  22338088.8194   22338093.9494   22338088.271
        53.0004         48.0004
 17  9  1  0 19 30.0000000  0  8G31G03G16G23G22G01G09G26
 -10417486.81948  -8106667.82247  23329916.7294   23329917.4014   23329915.902
        49.0004         44.0004
 -25890796.72249 -20133359.46648  20553996.9264   20554001.0774   20553996.289
        57.0004         52.0004
 -11220086.50448  -8737437.92847  22714819.8214   22714821.9564   22714819.514
        51.0004         46.0004
 -18689502.29648 -14515219.28548  21443031.4044   21443031.2114   21443031.344
        53.0004         49.0004
 -21895305.22149 -17019508.27948  20832024.8404   20832025.2994   20832025.256
        56.0004         51.0004
  -1337615.44747  -1007668.97246  23640985.2744   23640991.8734   23640984.286
        46.0004         41.0004
  -8856159.62547  -6860539.87347  23540940.6214   23540945.1324   23540940.032
        47.0004         42.0004
 -14312895.48948 -11113450.77748  22335230.7484   22335236.2584   22335229.942
        53.0004         48.0004
 17  9  1  0 20  0.0000000  0  8G31G03G16G23G22G01G09G26
 -10327415.87748  -8036482.67247  23347055.2734   23347057.7784   23347055.639
        49.0004         44.0004
 -25901353.74949 -20141585.71548  20551988.0414   20551992.3334   20551987.285
        57.0004         52.0004
 -11288368.80048  -8790644.89047  22701825.7814   22701828.7744   22701825.881
        51.0004         46.0004
 -18732143.46348 -14548446.15248  21434916.8384   21434917.2284   21434917.081
        53.0004         49.0004
 -21846229.80849 -16981267.70148  20841363.3554   20841364.3444   20841363.986
        56.0004         51.0004
  -1244689.30647   -935259.03046  23658667.9774   23658674.3754   23658667.335
        46.0004         41.0004
  -8927266.31947  -6915947.66747  23527409.7834   23527414.3384   23527409.588
        47.0004         42.0004
 -14327352.38948 -11124715.86848  22332479.3574   22332485.1814   22332479.112
        53.0004         48.0004
 17  9  1  0 20 30.0000000  0  8G31G03G16G23G22G01G09G26
 -10237208.24448  -7966191.05147  23364221.8824   23364223.4394   23364221.958
        49.0004         44.0004
 -25911383.66449 -20149401.24848  20550079.2384   20550083.6344   20550078.740
        57.0004         52.0004
 -11356292.73548  -8843572.62247  22688900.5254   22688902.7494   22688900.397
        51.0004         46.0004
 -18774583.00448 -14581515.93548  21426840.8454   21426841.1814   21426840.853
        53.0004         49.0004
 -21796661.34049 -16942642.95148  20850796.2874   20850796.7874   20850796.668
        56.0004         51.0004
  -1151636.73047   -862750.58046  23676375.4404   23676381.7274   23676374.769
        46.0004         41.0004
  -8998323.90647  -6971317.20647  23513887.7354   23513892.3974   23513887.673
        47.0004         42.0004
 -14341246.47148 -11135542.42748  22329835.4284   22329841.1114   22329835.275
        53.0004         48.0004
 17  9  1  0 21  0.0000000  0  8G31G03G16G23G22G01G09G26
 -10146865.82048  -7895794.37747  23381412.4894   23381415.7524   23381412.197
        49.0004         44.0004
 -25920885.19549 -20156805.02948  20548271.1194   20548275.7104   20548270.263
        57.0004         52.0004
 -11423855.26248  -8896218.71947  22676043.5254   22676046.5234   22676043.300
        51.0004         46.0004
 -18816820.74349 -14614428.44548  21418803.5894   21418803.6214   21418803.268
        54.0004         49.0004
 -21746601.03149 -16903634.92348  20860322.0554   20860323.1584   20860322.439
        56.0004         51.0004
  -1058460.95347   -790146.10546  23694106.1434   23694112.9244   23694105.678
        46.0004         41.0004
  -9069332.09047  -7026648.23747  23500375.1934   23500379.7654   23500373.191
        47.0004         42.0004
 -14354576.69948 -11145929.59948  22327298.5964   22327304.6544   22327298.461
        53.0004         48.0004
 17  9  1  0 21 30.0000000  0  9G31G03G16G06G23G22G01G09G26
 -10056391.07248  -7825294.59447  23398630.6054   23398632.6394   23398628.693
        49.0004         44.0004
 -25929857.53849 -20163796.46848  20546563.7624   20546568.2654   20546563.126
        57.0004         52.0004
 -11491053.92248  -8948581.29547  22663256.0244   22663258.6104   22663256.258
        51.0004         46.0004
   -121437.76548    -71340.21046  24941035.8174   24941041.5684   24941034.448
        49.0004         38.0004
 -18858856.47249 -14647183.55648  21410804.1774   21410804.4124   21410804.067
        54.0004         49.0004
 -21696049.86849 -16864244.42448  20869941.7174   20869942.7034   20869942.366
        56.0004         51.0004
   -965165.32847   -717448.27246  23711859.4904   23711866.0904   23711858.596
        46.0004         41.0004
  -9140290.81747  -7081940.72947  23486872.3154   23486877.2894   23486871.500
        47.0004         42.0004
 -14367342.36948 -11155876.86948  22324868.9194   22324875.2564   22324868.855
        53.0004         48.0004
 17  9  1  0 22  0.0000000  0  9G31G03G16G06G23G22G01G09G26
  -9965785.54348  -7754692.91147  23415871.9264   23415874.2314   23415870.941
        49.0004         44.0004
 -25938299.34949 -20170374.51048  20544957.5974   20544961.7304   20544956.599
        57.0004         52.0004
 -11557885.96148  -9000658.18647  22650537.9134   22650541.0364   22650537.950
        51.0004         46.0004
   -168635.77647   -108117.87446  24932055.3574   24932061.5094   24932054.482
        45.0004         39.0004
 -18900689.65849 -14679780.84248  21402843.5694   21402843.8064   21402843.396
        54.0004         49.0004
 -21645008.46549 -16824471.92648  20879654.6594   20879655.5694   20879655.441
        56.0004         51.0004
   -871752.91547   -644659.43446  23729635.5304   23729641.1924   23729634.704
        46.0004         41.0004
  -9211199.71347  -7137194.40247  23473378.5574   23473383.0324   23473378.776
        47.0004         42.0004
 -14379542.42548 -11165383.40448  22322547.7644   22322553.8984   22322547.440
        53.0004         48.0004
 17  9  1  0 22 30.0000000  0  9G31G03G16G06G23G22G01G09G26
  -9875051.60348  -7683991.17047  23433138.5924   23433140.5214   23433137.109
        48.0004         44.0004
 -25946209.63649 -20176538.36748  20543451.9764   20543456.5854   20543451.426
        57.0004         52.0004
 -11624348.54948  -9052447.20747  22637890.9594   22637893.6684   22637891.266
        51.0004         46.0004
   -215347.07447   -144516.25046  24923166.2594   24923173.1774   24923165.347
        44.0004         38.0004
 -18942319.57849 -14712219.73048  21394921.6514   21394921.6184   21394921.466
        54.0004         49.0004
 -21593478.14049 -16784318.44148  20889460.3144   20889461.3784   20889461.058
        56.0004         51.0004
   -778226.91647   -571782.06046  23747432.6424   23747439.2304   23747432.320
        46.0004         41.0004
  -9282058.62047  -7192409.10847  23459894.3304   23459899.2544   23459893.710
        47.0004         42.0004
 -14391176.06148 -11174448.56248  22320334.3864   22320339.7074   22320333.701
        53.0004         48.0004
 17  9  1  0 23  0.0000000  0  9G31G03G16G06G23G22G01G09G26
  -9784191.22148  -7613190.89347  23450428.5814   23450430.8404   23450428.182
        48.0004         44.0004
 -25953587.23649 -20182287.14548  20542048.0564   20542052.7874   20542047.327
        57.0004         52.0004
 -11690439.32148  -9103946.48447  22625313.8734   22625317.2614   22625314.397
        51.0004         46.0004
   -261570.15147   -180534.22546  24914370.1084   24914376.7934   24914368.816
        43.0004         39.0004
 -18983746.01049 -14744500.05748  21387038.3284   21387038.5834   21387038.213
        54.0004         49.0004
 -21541459.93949 -16743784.79048  20899359.2224   20899360.3924   20899360.029
        56.0004         51.0004
   -684590.45147   -498818.63846  23765251.5684   23765257.7624   23765250.608
        46.0004         41.0004
  -9352867.20147  -7247584.60447  23446419.6984   23446425.5984   23446418.835
        47.0004         42.0004
 -14402242.30448 -11183071.59848  22318227.8844   22318234.0544   22318227.610
        53.0004         48.0004
 17  9  1  0 23 30.0000000  0 10G31G03G16G06G23G07G22G01G09G26
  -9693206.39648  -7542293.65047  23467742.1634   23467744.4904   23467741.070
        48.0004         44.0004
 -25960431.36349 -20187620.23348  20540745.6304   20540750.3464   20540744.973
        57.0004         52.0004
 -11756155.69648  -9155154.02947  22612808.5214   22612811.1474   22612808.876
        51.0004         46.0004
   -307304.03647   -216171.00246  24905665.9974   24905672.3804   24905666.204
        43.0004         38.0004
 -19024968.61849 -14776621.56648  21379193.7404   21379194.2794   21379193.702
        54.0004         49.0004
                                                                  24945200.295

 -21488954.81349 -16702871.72648  20909350.5484   20909351.5554   20909351.179
        56.0004         51.0004
   -590846.96947   -425771.83046  23783089.9614   23783096.6034   23783089.929
        46.0004         41.0004
  -9423625.39647  -7302720.84447  23432955.8754   23432960.9044   23432955.160
        47.0004         42.0004
 -14412740.61948 -11191252.09648  22316229.9734   22316236.1834   22316229.563
        53.0004         48.0004
 17  9  1  0 24  0.0000000  0 10G31G03G16G06G23G07G22G01G09G26
  -9602099.01948  -7471300.91647  23485079.1854   23485080.7784   23485077.893
        48.0004         43.0004
 -25966740.93849 -20192536.79048  20539545.0974   20539549.6454   20539544.394
        57.0004         52.0004
 -11821494.77948  -9206067.57847  22600374.8154   22600377.3954   22600375.117
        51.0004         46.0004
   -352547.37247   -251425.52246  24897056.7314   24897062.8194   24897056.547
        43.0004         39.0004
 -19065987.04549 -14808583.97448  21371388.5734   21371388.5804   21371388.326
        54.0004         49.0004
                                                                  24924980.399

 -21435964.14149 -16661580.31048  20919434.4394   20919435.5814   20919434.987
        56.0004         51.0004
   -496999.55947   -352644.04846  23800948.9484   23800955.0434   23800948.259
        46.0004         41.0004
  -9494332.91747  -7357817.59447  23419500.3294   23419505.7994   23419499.726
        47.0004         42.0004
 -14422670.14548 -11198989.38448  22314340.6784   22314347.0644   22314340.437
        53.0004         48.0004
 17  9  1  0 24 30.0000000  0 10G31G03G16G06G23G07G22G01G09G26
  -9510871.19548  -7400214.31947  23502438.5734   23502441.0484   23502438.201
        48.0004         43.0004
 -25972514.88449 -20197035.97348  20538446.3064   20538451.1594   20538445.611
        57.0004         52.0004
 -11886453.80648  -9256684.98747  22588014.2744   22588016.3464   22588014.173
        51.0004         46.0004
   -397298.88247   -286296.83346  24888541.0304   24888548.7894   24888539.471
        43.0004         38.0004
 -19106800.51849 -14840386.67348  21363621.7534   21363622.3794   21363622.001
        54.0004         49.0004
                                                                  24904786.548

 -21382488.78549 -16619911.22348  20929610.3364   20929611.6404   20929610.860
        56.0004         51.0004
   -403051.32447   -279437.66046  23818827.3594   23818832.8914   23818826.156
        46.0004         41.0004
  -9564989.48547  -7412874.63947  23406054.5764   23406059.9534   23406053.279
        47.0004         43.0004
 -14432030.01748 -11206282.78448  22312559.7454   22312565.4934   22312559.287
        53.0004         48.0004
 17  9  1  0 25  0.0000000  0 10G31G03G16G06G23G07G22G01G09G26
  -9419524.75948  -7329035.31847  23519822.1564   23519823.7974   23519821.639
        48.0004         43.0004
 -25977752.13049 -20201116.94648  20537449.5784   20537454.2274   20537448.941
        57.0004         52.0004
 -11951030.38648  -9307004.37547  22575725.4304   22575728.3414   22575725.448
        51.0004         46.0004
   -441557.30947   -320783.88646  24880118.6674   24880124.8254   24880117.723
        43.0004         38.0004
 -19147408.83649 -14872029.51548  21355894.3894   21355894.8794   21355894.188
        54.0004         49.0004
                                                                  24884619.707

 -21328529.78649 -16577865.26448  20939878.3944   20939879.7464   20939878.896
        56.0004         51.0004
   -309005.38547   -206155.15246  23836722.2224   23836729.5434   23836722.222
        45.0004         41.0004
  -9635594.70147  -7467891.67647  23392618.5064   23392623.3714   23392618.284
        47.0004         43.0004
 -14440819.44348 -11213131.67848  22310886.8984   22310893.5974   22310886.633
        53.0004         48.0004
 17  9  1  0 25 30.0000000  0 10G31G03G16G06G23G07G22G01G09G26
  -9328061.92648  -7257765.59847  23537227.7034   23537228.9394   23537226.075
        48.0004         43.0004
 -25982451.98549 -20204779.17648  20536555.4694   20536560.0784   20536554.648
        57.0004         52.0004
 -12015221.90648  -9357023.71847  22563509.7204   22563512.7574   22563509.982
        51.0004         47.0004
   -485321.60647   -354885.95046  24871789.2654   24871795.6024   24871790.365
        43.0004         38.0004
 -19187811.50449 -14903512.11248  21348205.9894   21348206.2454   21348206.069
        54.0004         49.0004
   -486306.43948   -115850.10746  24864483.2284   24864488.6274   24864482.945
        52.0004         37.0004
 -21274088.30749 -16535443.35148  20950238.2944   20950239.7474   20950238.918
        56.0004         51.0004
   -214865.17747   -132799.21346  23854637.1714   23854644.2234   23854636.488
        45.0004         41.0004
  -9706148.54847  -7522868.68047  23379192.7854   23379198.2054   23379192.879
        47.0004         43.0004
 -14449037.94148 -11219535.70148  22309323.0544   22309328.7864   22309322.857
        53.0004         48.0004
 17  9  1  0 26  0.0000000  0 10G31G03G16G06G23G07G22G01G09G26
  -9236484.75348  -7186406.79447  23554654.0804   23554655.0674   23554652.023
        48.0004         43.0004
 -25986613.32949 -20208021.78348  20535763.4344   20535768.1504   20535762.684
        57.0004         52.0004
 -12079025.61548  -9406740.87547  22551368.6174   22551371.4134   22551368.968
        51.0004         47.0004
   -528590.52447   -388601.96946  24863557.0844   24863564.1174   24863556.877
        43.0004         39.0004
 -19228008.04349 -14934834.08248  21340556.5654   21340557.5154   21340556.792
        54.0004         49.0004
   -591982.46447   -198195.00946  24844373.5544   24844377.8834   24844371.846
        46.0004         37.0004
 -21219165.49149 -16492646.36648  20960689.7444   20960691.2114   20960690.427
        56.0004         51.0004
   -120633.67247    -59372.13346  23872569.5164   23872575.6624   23872568.666
        46.0004         41.0004
  -9776650.59048  -7577805.31947  23365776.9654   23365781.8424   23365776.666
        48.0004         43.0004
 -14456684.63348 -11225494.15248  22307868.3044   22307873.8824   22307867.569
        53.0004         48.0004
 17  9  1  0 26 30.0000000  0 10G31G03G16G06G23G07G22G01G09G26
  -9144794.86248  -7114960.14347  23572101.6704   23572104.4324   23572101.464
        48.0004         43.0004
 -25990235.25949 -20210844.07048  20535074.1444   20535078.9654   20535073.467
        57.0004         52.0004
 -12142438.90948  -9456153.81947  22539300.6344   22539303.9894   22539301.076
        51.0004         46.0004
   -571362.88047   -421931.06746  24855419.0824   24855424.6774   24855416.607
        43.0004         38.0004
 -19267998.18349 -14965995.22548  21332946.8184   21332947.4014   21332946.871
        54.0004         49.0004
   -697507.53647   -280422.27746  24824294.3424   24824297.1984   24824292.885
        43.0004         37.0004
 -21163762.72649 -16449475.40148  20971232.6404   20971233.9684   20971233.218
        56.0004         51.0004
    -26314.10647     14123.59646  23890517.0194   23890524.0834   23890516.174
        45.0004         41.0004
  -9847100.62648  -7632701.43747  23352370.3254   23352375.2084   23352370.066
        48.0004         43.0004
 -14463758.91848 -11231006.56748  22306521.8424   22306527.7864   22306521.417
        53.0004         48.0004
 17  9  1  0 27  0.0000000  0 10G31G03G16G06G23G07G22G01G09G26
  -9052994.51247  -7043427.43847  23589570.4924   23589573.1014   23589569.613
        47.0004         43.0004
 -25993316.96149 -20213245.40348  20534487.7034   20534492.5394   20534486.997
        57.0004         52.0004
 -12205459.48848  -9505260.74747  22527308.9574   22527311.4694   22527309.111
        51.0004         46.0004
   -613637.61247   -454872.40546  24847373.0364   24847379.4904   24847372.271
        43.0004         38.0004
 -19307781.33749 -14996995.08448  21325376.6314   21325376.9294   21325376.643
        54.0004         49.0004
   -802880.27347   -362530.83546  24804240.3024   24804243.7124   24804242.421
        42.0004         37.0004
 -21107881.04649 -16405931.25248  20981866.5134   20981867.7764   20981867.074
        56.0004         51.0004
     68090.38047     87685.47546  23908482.3944   23908488.8644   23908481.565
        45.0004         41.0004
  -9917498.31348  -7687556.76147  23338973.9744   23338978.8334   23338974.408
        48.0004         43.0004
 -14470260.17148 -11236072.47048  22305284.4554   22305290.7564   22305284.243
        53.0004         48.0004
 17  9  1  0 27 30.0000000  0 10G31G03G16G06G23G07G22G01G09G26
  -8961085.35247  -6971809.94247  23607059.1944   23607062.8194   23607059.300
