     2.11           OBSERVATION DATA    G (GPS)             RINEX VERSION / TYPE
teqc  2019Feb25     UNAVCO Archive Ops  20200902 03:31:57UTCPGM / RUN BY / DATE
Solaris x86 5.10|AMD64|cc SC5.8 -xarch=amd64|=+|=+          COMMENT
BIT 2 OF LLI FLAGS DATA COLLECTED UNDER A/S CONDITION       COMMENT
CRFP                                                        MARKER NAME
40481M001                                                   MARKER NUMBER
Ken Hudnut          U.S. Geological Survey                  OBSERVER / AGENCY
5251K41042          TRIMBLE NETR9       5.37                REC # / TYPE / VERS
5000115161          TRM57971.00     NONE                    ANT # / TYPE
 -2410446.7968 -4710490.3879  3550422.4952                  APPROX POSITION XYZ
        0.0355        0.0000        0.0000                  ANTENNA: DELTA H/E/N
     1     1                                                WAVELENGTH FACT L1/2
     7    L1    L2    C1    P2    P1    S1    S2            # / TYPES OF OBSERV
    30.0000                                                 INTERVAL
Forced Modulo Decimation to 30 seconds                      COMMENT
input file: crfp200901.bnx                                  COMMENT
RINEX file created by UNAVCO GPS Archive.                   COMMENT
For more information contact archive-gps@unavco.org         COMMENT
Monument ID: 19483                                          COMMENT
UNAVCO 4-char name:   CRFP                                  COMMENT
4-char name from Log or data file: CRFP                     COMMENT
Monument location: 34.03905197 -117.0996827 688.8201        COMMENT
Visit ID: 126156                                            COMMENT
doi:10.7283/T5QC01SV                                        COMMENT
End of DB comments                                          COMMENT
 SNR is mapped to RINEX snr flag value [0-9]                COMMENT
  L1 & L2: min(max(int(snr_dBHz/6), 0), 9)                  COMMENT
  2020     9     1     0     0    0.0000000     GPS         TIME OF FIRST OBS
                                                            END OF HEADER
 20  9  1  0  0  0.0000000  0 11G22G23G01G31G32G10G08G20G11G27G21
 124498142.838 7  97011546.87544  23691208.859    23691210.5434
        43.700          28.5004
 128234832.378 5  99923268.81543  24402277.148    24402282.7974
        35.900          18.3004
 117934336.537 7  91896915.66445  22442158.102    22442165.4224
        42.800          31.1004
 112226057.893 7  87448892.24146  21355908.828    21355912.5704
        47.300          37.9004
 109134474.514 8  85039873.88346  20767600.055    20767605.8714
        51.000          40.9004
 116810029.598 7  91020828.91545  22228209.641    22228216.0314
        47.400          35.0004
 126059273.538 6  98228038.90543  23988282.086    23988290.4494
        38.000          21.3004
 128233600.024 6  99922305.16143  24402042.648    24402047.5274
        38.000          19.6004
 112873520.474 7  87953408.54545  21479116.844    21479120.6804
        46.900          34.0004
 131129107.915 6 102178560.60444  24953039.500    24953048.1954
        38.900          25.3004
 110732362.685 7  86284971.91546  21071667.977    21071671.3484
        47.700          38.2004
 20  9  1  0  0 30.0000000  0 11G22G23G01G31G32G10G08G20G11G27G21
 124423161.458 7  96953119.86344  23676940.344    23676942.0784
        44.600          28.1004
 128310600.817 6  99982309.10042  24416695.375    24416701.0904
        36.300          16.3004
 117853606.456 7  91834009.14945  22426795.664    22426803.0044
        43.800          31.8004
 112149280.976 8  87389066.10846  21341298.641    21341302.4224
        48.400          37.9004
 109178348.684 8  85074061.55146  20775949.031    20775954.8204
        50.700          41.4004
 116860205.790 7  91059927.24645  22237757.867    22237764.2544
        47.900          34.6004
 126128324.005 6  98281844.42043  24001421.953    24001430.3714
        37.500          21.7004
 128316967.347 6  99987266.69743  24417906.914    24417911.8524
        36.900          21.3004
 112869280.216 7  87950104.45245  21478309.945    21478313.7774
        47.500          32.8004
 131217080.660 6 102247110.69143  24969780.188    24969788.8954
        37.900          22.6004
 110772628.550 7  86316347.90646  21079330.336    21079333.7074
        47.600          37.7004
 20  9  1  0  1  0.0000000  0 11G22G23G01G31G32G10G08G20G11G27G21
 124348199.495 7  96894707.99544  23662675.531    23662677.2854
        44.200          28.4004
 128386491.220 5 100041444.41642  24431136.797    24431142.5434
        35.900          17.8004
 117773241.120 7  91771386.82745  22411502.641    22411509.9964
        42.600          31.4004
 112072948.495 7  87329586.29646  21326773.016    21326776.8054
        47.200          38.4004
 109222481.923 8  85108451.09146  20784347.313    20784353.0864
        51.300          41.1004
 116910597.125 7  91099193.20945  22247347.031    22247353.4184
        47.600          34.2004
 126197562.486 6  98335796.47643  24014597.625    24014606.1374
        36.600          21.3004
 128400474.202 6 100052336.94843  24433797.742    24433802.7464
        38.500          20.9004
 112865670.327 7  87947291.56145  21477623.008    21477626.8284
        45.200          33.8004
 131304966.805 6 102315593.35843  24986504.438    24986513.2074
        38.000          22.2004
 110813351.446 7  86348080.02646  21087079.664    21087083.0514
        46.800          38.1004
 20  9  1  0  1 30.0000000  0 11G22G23G01G31G32G10G08G20G11G27G21
 124273257.554 7  96836311.71144  23648414.531    23648416.2464
        44.700          27.9004
 128462503.303 5 100100674.55442  24445601.492    24445607.1334
        34.300          17.8004
 117693242.878 7  91709050.57745  22396279.469    22396286.8284
        44.100          32.5004
 111997062.963 7  87270454.74346  21312332.445    21312336.2304
        47.700          38.4004
 109266872.254 8  85143040.96346  20792794.508    20792800.2624
        50.200          40.9004
 116961203.669 7  91138626.86945  22256977.148    22256983.5164
        47.400          34.5004
 126266985.272 6  98389892.10243  24027808.359    24027816.9454
        37.300          21.1004
 128484119.906 6 100117515.35843  24449715.063    24449719.9844
        39.400          22.3004
 112862690.626 8  87944969.71345  21477055.992    21477059.7774
        48.200          33.1004
 131392763.346 6 102384006.16943  25003211.500    25003220.4614
        38.600          22.5004
 110854530.622 7  86380167.69246  21094915.813    21094919.2234
        46.100          38.1004
 20  9  1  0  2  0.0000000  0 11G22G23G01G31G32G10G08G20G11G27G21
 124198336.271 7  96777931.52944  23634157.469    23634159.1564
        44.100          28.0004
 128538636.911 5 100159999.39542  24460089.383    24460094.9574
        35.200          17.4004
 117613614.364 7  91647002.40945  22381126.672    22381134.0164
        43.500          31.9004
 111921627.237 8  87211673.68446  21297977.477    21297981.2584
        48.600          38.4004
 109311517.915 8  85177829.79246  20801290.297    20801296.0514
        48.000          40.5004
 117012025.698 7  91178228.45145  22266648.273    22266654.6644
        47.200          34.8004
 126336589.609 6  98444129.18243  24041053.641    24041062.1884
        38.200          20.6004
 128567903.973 6 100182801.61544  24465658.727    24465663.6954
        40.200          24.2004
 112860340.669 7  87943138.58245  21476608.820    21476612.5664
        46.800          33.9004
 131480467.466 6 102452346.99144  25019901.023    25019910.0594
        38.100          24.0004
 110896164.947 7  86412610.00846  21102838.578    21102842.0314
        45.200          38.2004
 20  9  1  0  2 30.0000000  0 12G22G23G01G31G32G10G08G20G11G03G27G21
 124123436.206 7  96719567.88544  23619904.445    23619906.0554
        44.700          27.6004
                                  24474599.945
        32.400          16.9004
 117534358.085 7  91585244.29045  22366044.695    22366052.0044
        42.800          31.9004
 111846643.833 7  87153245.09146  21283708.586    21283712.3594
        47.800          38.8004
 109356417.125 8  85212816.18746  20809834.328    20809840.0864
        48.200          40.1004
 117063063.481 7  91217998.13945  22276360.461    22276366.8444
        47.800          35.6004
 126406372.551 6  98498505.48543  24054332.938    24054341.4024
        37.500          20.4004
 128651825.885 6 100248195.25243  24481628.594    24481633.6134
        39.600          22.3004
 112858619.732 7  87941797.58845  21476281.344    21476285.0474
        46.000          33.2004
 132575885.394 6 103305915.44654  25228352.250    25228359.5904
        37.200          28.1004
 131568076.424 6 102520613.61243  25036572.375    25036581.5944
        37.400          22.2004
 110938253.150 7  86445406.00546  21110847.703    21110851.1724
        44.900          38.0004
 20  9  1  0  3  0.0000000  0 12G22G23G01G31G32G10G08G20G11G03G27G21
 124048558.581 7  96661221.72244  23605655.695    23605657.2304
        44.000          28.9004
 128691268.663 5 100278933.21542  24489134.102    24489140.1564
        33.800          16.9004
 117455477.019 7  91523778.56445  22351034.125    22351041.4344
        43.600          32.6004
 111772115.863 7  87095171.37546  21269526.359    21269530.1334
        46.000          38.3004
 109401568.494 8  85247999.07246  20818426.352    20818432.0984
        49.100          39.9004
 117114317.642 7  91257936.43345  22286113.820    22286120.2114
        46.300          34.9004
 126476331.421 6  98553018.85143  24067645.711    24067654.1684
        37.100          20.6004
 128735885.711 6 100313696.35344  24497624.672    24497629.7544
        39.400          24.2004
 112857528.346 7  87940947.16245  21476073.672    21476077.3714
        44.700          33.6004
 132492816.997 6 103241186.94544  25212544.758    25212552.0984
        37.600          27.4004
 131655587.868 6 102588804.31643  25053225.375    25053234.5434
        36.500          21.8004
 110980795.366 7  86478555.76546  21118943.227    21118946.6724
        45.400          37.3004
 20  9  1  0  3 30.0000000  0 12G22G23G01G31G32G10G08G20G11G03G27G21
 123973703.816 7  96602893.38544  23591411.281    23591412.7814
        43.700          28.7004
 128767766.710 5 100338542.08642  24503691.266    24503697.9654
        33.300          16.3004
 117376973.507 7  91462607.01245  22336095.391    22336102.6914
        42.600          31.4004
 111698046.029 7  87037454.65146  21255431.320    21255435.0554
        46.500          38.5004
 109446970.049 7  85283376.90446  20827065.977    20827071.7424
        47.600          40.4004
 117165788.238 7  91298043.37845  22295908.359    22295914.7664
        46.300          34.2004
 126546462.622 6  98607666.50943  24080991.305    24080999.7424
        37.400          21.5004
 128820082.465 6 100379304.16944  24513646.813    24513651.9494
        40.600          24.0004
 112857065.649 7  87940586.61445  21475985.625    21475989.3094
        45.700          33.3004
 132409697.576 6 103176418.63944  25196727.602    25196734.9574
        38.200          28.7004
 131742998.759 6 102656916.61343  25069859.117    25069868.3914
        36.300          22.3004
 111023789.744 7  86512057.85246  21127124.789    21127128.2034
        44.600          37.7004
 20  9  1  0  4  0.0000000  0 12G22G23G01G31G32G10G08G20G11G03G27G21
 123898872.253 7  96544583.12344  23577171.281    23577172.7664
        43.300          28.6004
 128844385.914 5 100398245.42442  24518271.086    24518277.9104
        34.700          16.3004
 117298850.079 7  91401731.64445  22321228.984    22321236.2544
        43.700          32.1004
 111624436.809 7  86980096.84846  21241423.938    21241427.6414
        47.900          38.6004
 109492620.008 8  85318948.29846  20835752.859    20835758.6294
        49.400          40.0004
 117217475.513 7  91338319.16945  22305744.141    22305750.5434
        46.600          34.4004
 126616763.412 6  98662446.29543  24094369.172    24094377.5554
        38.700          20.9004
 128904415.761 6 100445018.37844  24529694.945    24529700.1254
        40.300          25.8004
 112857230.346 7  87940714.95545  21476016.969    21476020.6294
        46.200          33.4004
 132326527.311 6 103111610.74244  25180900.758    25180908.3364
        36.700          28.0004
 131830306.399 6 102724948.48443  25086473.297    25086482.5314
        37.800          22.5004
 111067235.503 7  86545911.68146  21135392.242    21135395.6134
        45.400          37.5004
 20  9  1  0  4 30.0000000  0 12G22G23G01G31G32G10G08G20G11G03G27G21
 123824064.879 7  96486291.70244  23562935.883    23562937.3284
        44.200          28.3004
 128921126.630 5 100458043.26042  24532874.469    24532881.1604
        35.200          17.4004
 117221109.697 7  91341154.75745  22306435.469    22306442.7424
        43.000          32.9004
 111551291.158 7  86923100.26646  21227504.766    21227508.4344
        47.600          38.6004
 109538516.999 8  85354712.19446  20844486.766    20844492.5594
        49.200          40.1004
 117269380.141 7  91378764.33545  22315621.281    22315627.6994
        45.500          34.5004
 126687230.809 6  98717355.93043  24107778.758    24107787.0784
        38.400          21.5004
 128988886.072 6 100510839.36544  24545769.133    24545774.3324
        40.000          24.7004
 112858022.956 7  87941332.56845  21476167.797    21476171.4454
        44.700          33.6004
 132243306.794 6 103046763.65444  25165064.391    25165072.0594
        37.900          28.1004
 131917508.482 6 102792898.07243  25103067.383    25103076.6174
        36.300          22.0004
 111111132.311 7  86580116.97646  21143745.531    21143748.8754
        45.700          37.3004
 20  9  1  0  5  0.0000000  0 12G22G23G01G31G32G10G08G20G11G03G27G21
 123749282.533 7  96428019.78644  23548705.250    23548706.6954
        42.200          28.1004
 128997988.600 5 100517935.69842  24547501.000    24547507.3634
        35.900          15.6004
 117143754.866 7  91280878.29445  22291715.320    22291722.5824
        43.300          32.6004
 111478611.852 7  86866467.06646  21213674.336    21213677.9454
        47.900          38.2004
 109584659.253 8  85390667.19646  20853267.344    20853273.1644
        48.000          40.1004
 117321502.317 7  91419379.00145  22325539.813    22325546.2704
        47.100          34.9004
 126757861.956 6  98772393.15443  24121219.477    24121227.8444
        38.500          21.7004
 129073492.195 6 100576766.19044  24561869.188    24561874.3714
        41.700          26.9004
 112859442.830 7  87942438.96345  21476437.984    21476441.6174
        45.900          33.0004
 132160036.216 6 102981877.58244  25149218.461    25149226.1884
        37.600          29.4004
 132004602.214 6 102860763.24144  25119640.961    25119650.0314
        38.900          24.9004
 111155478.824 7  86614672.70046  21152184.391    21152187.7344
        44.900          37.2004
 20  9  1  0  5 30.0000000  0 12G22G23G01G31G32G10G08G20G11G03G27G21
 123674525.772 7  96369767.81244  23534479.477    23534480.9144
        42.400          28.5004
 129074971.699 6 100577922.49242  24562150.555    24562156.6454
        36.400          16.9004
 117066788.134 7  91220904.24345  22277069.023    22277076.2934
        43.500          33.5004
 111406401.484 7  86810199.27946  21199933.125    21199936.6804
        46.000          37.9004
 109631045.038 8  85426811.96246  20862094.266    20862100.0984
        48.300          40.4004
 117373842.315 7  91460163.41145  22335499.805    22335506.2934
        46.700          33.8004
 126828653.875 6  98827555.65943  24134690.805    24134699.1294
        38.100          21.1004
 129158233.825 6 100642798.59744  24577995.047    24578000.2114
        41.800          25.3004
 112861489.594 7  87944033.83745  21476827.461    21476831.0984
        46.600          33.2004
 132076715.859 6 102916952.72044  25133363.102    25133370.8484
        38.300          29.3004
 132091584.840 6 102928541.86944  25136193.305    25136202.3554
        39.000          24.0004
 111200273.980 7  86649578.01346  21160708.617    21160711.9924
        44.800          37.2004
 20  9  1  0  6  0.0000000  0 12G22G23G01G31G32G10G08G20G11G03G27G21
 123599795.829 6  96311536.72344  23520258.805    23520260.2344
        41.100          28.1004
                                  24576822.930
        34.300          17.4004
 116990212.372 7  91161234.83845  22262497.125    22262504.3634
        43.200          33.3004
 111334663.002 7  86754299.19346  21186281.727    21186285.2584
        47.000          38.7004
 109677672.888 8  85463145.34746  20870967.258    20870973.0904
        49.800          40.8004
 117426400.655 7  91501117.95245  22345501.352    22345507.8484
        47.300          35.2004
 126899603.512 6  98882841.04243  24148192.109    24148200.4104
        38.100          20.6004
 129243110.873 6 100708936.52744  24594146.680    24594151.8094
        40.800          25.8004
 112864162.875 7  87946116.90345  21477336.172    21477339.8014
        46.900          33.8004
 131993346.215 6 102851989.45145  25117498.352    25117506.1094
        36.800          30.1004
 132178454.008 6 102996232.05544  25152724.117    25152733.1054
        40.100          25.2004
 111245517.413 7  86684832.62946  21169318.164    21169321.5434
        46.000          37.8004
 20  9  1  0  6 30.0000000  0 12G22G23G01G31G32G10G08G20G11G03G27G21
 123525093.119 7  96253326.86744  23506043.313    23506044.7584
        42.700          28.7004
 129229301.436 5 100698179.27742  24591518.445    24591524.1954
        34.100          17.4004
 116914029.945 7  91101871.93045  22248000.078    22248007.3094
        43.900          32.9004
 111263398.785 7  86698768.65646  21172720.570    21172724.1174
        46.800          38.6004
 109724540.903 8  85499665.88046  20879885.945    20879891.7894
        50.200          40.8004
 117479177.471 7  91542242.73145  22355544.469    22355550.9774
        47.000          34.7004
 126970707.424 6  98938246.65343  24161722.797    24161731.0514
        38.400          19.9004
 129328123.000 6 100775179.74644  24610323.844    24610329.0824
        40.900          26.7004
 112867461.855 7  87948687.53445  21477963.938    21477967.5784
        46.700          33.5004
 131909927.434 6 102786987.88945  25101624.227    25101632.0704
        38.400          31.1004
 132265206.831 6 103063831.58944  25169232.766    25169241.6884
        40.400          25.3004
 111291207.280 7  86720435.11146  21178012.656    21178016.0394
        46.800          37.2004
 20  9  1  0  7  0.0000000  0 12G22G23G01G31G32G10G08G20G11G03G27G21
 123450418.361 6  96195138.78544  23491833.141    23491834.5634
        41.400          28.5004
 129306647.831 5 100758449.20342  24606236.867    24606243.1174
        34.100          17.4004
 116838243.603 7  91042817.66345  22233578.391    22233585.6454
        43.200          32.8004
 111192611.718 7  86643609.94246  21159250.211    21159253.7774
        47.200          38.8004
 109771647.563 8  85536372.36546  20888850.055    20888855.9224
        49.800          41.1004
 117532173.203 7  91583538.10945  22365629.227    22365635.7584
        46.600          34.3004
 127041963.130 6  98993770.57943  24175282.336    24175290.6374
        38.800          20.6004
 129413269.490 6 100841527.66144  24626526.633    24626532.0004
        41.200          24.2004
 112871385.917 7  87951745.24645  21478710.664    21478714.3134
        46.600          33.8004
 131826459.976 6 102721948.38944  25085740.852    25085748.7624
        38.000          29.9004
 132351840.907 6 103131338.59444  25185718.734    25185727.6914
        41.000          25.9004
 111337343.215 7  86756385.17846  21186792.031    21186795.4064
        46.400          37.5004
 20  9  1  0  7 30.0000000  0 12G22G23G01G31G32G10G08G20G11G03G27G21
 123375772.718 6  96136973.39944  23477628.500    23477629.9494
        41.700          29.1004
 129384115.411 5 100818813.52542  24620978.484    24620985.3484
        33.200          16.3004
 116762856.159 7  90984074.21845  22219232.609    22219239.8954
        43.400          33.2004
 111122304.691 7  86588825.27346  21145871.195    21145874.7774
        47.000          39.4004
 109818991.454 8  85573263.71646  20897859.313    20897865.1524
        49.700          40.9004
 117585388.423 7  91625004.50645  22375755.750    22375762.2734
        46.800          34.6004
 127113367.380 6  99049410.21543  24188870.094    24188878.4024
        38.200          20.4004
 129498550.214 6 100907980.14944  24642755.047    24642760.3714
        40.600          26.6004
 112875934.886 7  87955289.89845  21479576.313    21479579.9614
        47.600          33.6004
 131742944.375 6 102656871.38345  25069848.305    25069856.2154
        37.700          30.4004
 132438353.787 6 103198751.16644  25202181.766    25202190.5634
        40.300          26.9004
 111383924.075 7  86792681.94046  21195656.078    21195659.4224
        45.800          36.8004
 20  9  1  0  8  0.0000000  0 12G22G23G01G31G32G10G08G20G11G03G27G21
 123301156.566 6  96078830.97344  23463429.469    23463430.9344
        40.900          28.0004
 129461703.596 5 100879271.80342  24635742.906    24635749.7384
        33.600          17.4004
 116687869.695 7  90925643.21945  22204963.148    22204970.4494
        44.000          33.1004
 111052479.857 7  86534416.34546  21132583.945    21132587.5554
        47.300          38.8004
 109866570.405 8  85610338.21646  20906913.289    20906919.1334
        50.000          41.7004
 117638822.899 7  91666641.75045  22385923.992    22385930.5354
        45.300          33.9004
 127184917.452 6  99105163.46943  24202485.609    24202493.9494
        38.500          19.6004
 129583964.165 6 100974536.46744  24659008.773    24659014.0864
        41.200          25.1004
 112881107.503 7  87959320.49745  21480560.625    21480564.2814
        47.500          33.6004
 131659380.486 6 102591756.72645  25053946.547    25053954.4654
        38.200          30.4004
 132524742.438 6 103266066.91244  25218621.109    25218629.8714
        40.800          26.8004
 111430948.495 7  86829324.33046  21204604.539    21204607.8324
        46.000          36.9004
 20  9  1  0  8 30.0000000  0 12G22G23G01G31G32G10G08G20G11G03G27G21
 123226571.015 7  96020712.41544  23449236.273    23449237.7624
        42.300          29.3004
 129539412.738 5 100939830.38443  24650530.586    24650537.6604
        32.500          18.3004
 116613287.323 7  90867527.09545  22190770.570    22190777.8874
        44.300          33.5004
 110983140.267 7  86480385.53046  21119389.031    21119392.6334
        47.000          38.8004
 109914383.237 8  85647594.96846  20916011.781    20916017.5944
        49.900          40.6004
 117692477.476 7  91708450.49945  22396134.117    22396140.6804
        45.700          33.8004
 127256610.445 6  99161028.10643  24216128.352    24216136.7074
        37.500          20.6004
 129669511.406 6 101041196.63944  24675287.813    24675293.2074
        41.100          26.8004
 112886903.945 8  87963837.20445  21481663.656    21481667.3134
        48.000          33.4004
 131575769.160 6 102526605.13145  25038035.750    25038043.6994
        37.700          31.3004
 132611004.741 6 103333284.22044  25235036.352    25235045.1334
        40.800          25.6004
 111478416.063 7  86866312.02946  21213637.328    21213640.5984
        46.400          37.8004
 20  9  1  0  9  0.0000000  0 12G22G23G01G31G32G10G08G20G11G03G27G21
 123152016.571 6  95962618.06944  23435049.000    23435050.5204
        41.800          29.3004
 129617242.420 5 101000476.82343  24665341.258    24665347.7274
        35.900          19.6004
 116539111.118 7  90809727.47645  22176655.289    22176662.6374
        43.700          32.7004
 110914288.001 7  86426734.44246  21106286.859    21106290.4574
        47.300          38.7004
 109962427.854 8  85685032.32246  20925154.375    20925160.2234
        49.800          40.3004
 117746351.959 7  91750430.60645  22406386.094    22406392.6564
        45.900          34.3004
 127328442.658 6  99217001.23843  24229797.547    24229805.8674
        37.300          20.6004
 129755191.420 6 101107960.25644  24691592.258    24691597.6024
        41.200          26.0004
 112893322.702 7  87968838.83045  21482885.109    21482888.7544
        47.500          33.3004
 131492110.329 6 102461416.51345  25022115.945    25022123.8594
        38.500          30.9004
 132697137.616 6 103400400.67344  25251426.945    25251435.7544
        41.100          26.0004
 111526324.963 7  86903643.62046  21222754.102    21222757.3444
        46.400          37.1004
 20  9  1  0  9 30.0000000  0 12G22G23G01G31G32G10G08G20G11G03G27G21
 123077494.322 6  95904548.84144  23420867.867    23420869.4264
        41.700          28.6004
 129695192.796 6 101061217.32243  24680174.867    24680181.1994
        37.300          20.9004
 116465344.036 7  90752246.64545  22162617.859    22162625.2424
        44.100          33.0004
 110845926.146 7  86373465.49346  21093278.008    21093281.6174
        47.300          38.7004
 110010702.943 8  85722649.27246  20934340.828    20934346.6884
        50.300          40.2004
 117800446.978 7  91792582.56045  22416680.055    22416686.6374
        46.100          33.9004
 127400411.658 6  99273080.96143  24243492.828    24243500.9964
        37.800          18.6004
 129841003.849 6 101174827.03544  24707921.875    24707927.1604
        40.800          26.0004
 112900363.664 7  87974325.27745  21484224.969    21484228.6294
        47.100          33.4004
 131408404.662 6 102396191.37245  25006187.195    25006195.0554
        37.800          30.0004
 132783138.940 6 103467414.60544  25267792.438    25267801.3484
        41.500          27.3004
 111574674.639 7  86941318.67746  21231954.750    21231957.9734
        46.800          37.5004
 20  9  1  0 10  0.0000000  0 12G22G23G01G31G32G10G08G20G11G03G27G21
 123003004.350 7  95846504.72744  23406692.875    23406694.4224
        42.100          28.7004
 129773263.164 6 101122051.30743  24695031.383    24695037.5004
        37.600          20.4004
 116391987.982 7  90695086.10445  22148658.648    22148666.0704
        43.300          33.6004
 110778056.560 7  86320580.13546  21080362.836    21080366.4184
        47.600          39.2004
 110059206.253 8  85760444.05646  20943570.703    20943576.4964
        50.000          40.8004
 117854762.242 7  91834906.13745  22427015.906    22427022.4774
        45.600          33.6004
 127472513.870 6  99329264.44243  24257213.430    24257221.5124
        38.200          20.4004
 129926947.627 6 101241796.15244  24724276.359    24724281.6914
        40.200          25.0004
 112908025.292 7  87980295.37745  21485682.938    21485686.6024
        46.700          33.5004
 131324651.956 6 102330929.59845  24990249.484    24990257.3204
        36.400          30.0004
 132869005.471 6 103534323.52744  25284132.344    25284141.2934
        40.600          26.0004
 111623463.086 7  86979335.63346  21241238.898    21241242.1134
        47.100          37.5004
 20  9  1  0 10 30.0000000  0 12G22G23G01G31G32G10G08G20G11G03G27G21
 122928548.000 6  95788486.83144  23392524.281    23392525.8444
        41.400          29.9004
 129851453.798 6 101182979.03343  24709910.695    24709916.7734
        38.400          19.6004
 116319045.933 7  90638248.15945  22134778.211    22134785.6484
        42.800          32.6004
 110710682.174 7  86268080.64246  21067541.898    21067545.4774
        47.600          39.6004
 110107936.514 8  85798415.68046  20952843.773    20952849.6174
        49.300          40.7004
 117909298.391 7  91877401.83345  22437393.797    22437400.3634
        46.000          33.6004
 127544746.847 6  99385549.86143  24270958.891    24270967.0084
        38.100          19.9004
 130013022.591 6 101308867.52744  24740655.875    24740661.2544
        40.400          25.3004
 112916307.035 7  87986748.68045  21487258.898    21487262.5514
        45.800          33.3004
 131240852.936 6 102265631.75145  24974302.953    24974310.8134
        36.700          31.4004
 132954735.085 6 103601125.73244  25300446.172    25300455.1844
        40.600          26.7004
 111672689.586 7  87017693.92646  21250606.391    21250609.6254
        45.500          37.4004
 20  9  1  0 11  0.0000000  0 12G22G23G01G31G32G10G08G20G11G03G27G21
 122854126.453 7  95730496.05044  23378362.320    23378363.8754
        43.700          29.6004
 129929764.894 6 101244000.60943  24724812.805    24724818.9024
        37.500          19.9004
 116246520.762 7  90581735.06245  22120977.102    22120984.5434
        43.600          33.5004
 110643806.025 8  86215969.38446  21054815.773    21054819.3554
        48.400          39.4004
 110156892.430 8  85836563.14546  20962159.773    20962165.6374
        49.800          40.4004
 117964056.086 7  91920070.15545  22447813.859    22447820.4184
        46.700          33.6004
 127617107.368 6  99441934.64243  24284728.672    24284736.7424
        37.100          20.6004
 130099228.447 6 101376040.85943  24757060.328    24757065.6644
        40.100          23.9004
 112925208.595 7  87993684.95445  21488952.820    21488956.4734
        46.500          33.5004
 131157008.333 6 102200298.37145  24958347.758    24958355.5554
        37.500          30.7004
 133040325.516 6 103667819.46344  25316733.547    25316742.5394
        40.000          25.2004
 111722353.578 7  87056393.12646  21260057.141    21260060.3984
        46.300          36.7004
 20  9  1  0 11 30.0000000  0 12G22G23G01G31G32G10G08G20G11G03G27G21
 122779740.072 7  95672532.67845  23364207.039    23364208.5904
        42.700          30.2004
 130008195.805 6 101305115.58642  24739737.602    24739743.7584
        36.600          17.8004
 116174414.457 7  90525548.35045  22107255.703    22107263.1214
        43.700          33.3004
 110577429.975 7  86164247.82046  21042184.805    21042188.3794
        47.400          39.4004
 110206071.824 8  85874884.75046  20971518.305    20971524.1454
        50.300          40.7004
 118019035.056 7  91962910.89745  22458276.016    22458282.5234
        45.500          34.0004
 127689592.303 6  99498416.36843  24298522.117    24298530.1414
        37.500          20.4004
 130185564.717 6 101443315.84843  24773489.633    24773494.9694
        39.600          22.9004
 112934728.623 7  88001103.15745  21490764.422    21490768.0514
        47.300          33.7004
 131073118.050 6 102134929.38745  24942383.852    24942391.6604
        38.400          31.4004
 133125773.721 6 103734402.38844  25332993.828    25333002.8714
        41.300          26.5004
 111772453.112 7  87095431.70946  21269590.773    21269594.0514
        46.500          37.4004
 20  9  1  0 12  0.0000000  0 12G22G23G01G31G32G10G08G20G11G03G27G21
 122705390.057 7  95614597.62945  23350058.688    23350060.1884
        43.900          30.4004
 130086746.946 6 101366324.19943  24754685.469    24754691.4224
        36.900          20.1004
 116102730.056 7  90469690.39645  22093614.594    22093621.9924
        44.500          33.0004
 110511556.777 7  86112918.08446  21029649.539    21029653.0704
        47.600          39.3004
 110255473.524 8  85913379.57346  20980919.133    20980924.9844
        50.500          40.6004
 118074236.045 7  92005924.63745  22468780.430    22468786.9304
        46.100          33.2004
 127762198.977 6  99554992.97843  24312338.773    24312346.7424
        38.300          21.1004
 130272031.017 6 101510692.13643  24789943.656    24789949.0314
        38.900          22.6004
 112944866.837 7  88009003.05245  21492693.672    21492697.2814
        46.800          33.1004
 130989182.926 6 102069525.47145  24926411.438    24926419.2194
        38.000          31.9004
 133211077.616 6 103800872.87044  25349226.625    25349235.7274
        41.300          25.7004
 111822987.617 7  87134809.23046  21279207.172    21279210.4774
        47.600          37.0004
 20  9  1  0 12 30.0000000  0 12G22G23G01G31G32G10G08G20G11G03G27G21
 122631077.190 7  95556691.51944  23335917.406    23335918.8594
        44.000          29.6004
 130165417.939 6 101427626.22043  24769656.117    24769661.9184
        38.800          19.9004
 116031469.736 7  90414162.89945  22080054.172    22080061.5744
        43.900          33.0004
 110446188.980 8  86061982.17546  21017210.430    21017213.9344
        48.500          39.9004
 110305095.621 8  85952046.14146  20990361.906    20990367.7584
        48.600          40.0004
 118129659.018 7  92049111.35645  22479327.070    22479333.5164
        45.300          33.9004
 127834923.924 6  99611661.75443  24326177.938    24326185.8244
        37.300          21.8004
 130358626.591 6 101578169.15743  24806422.391    24806427.6684
        40.200          22.9004
 112955621.756 7  88017383.50845  21494740.266    21494743.8244
        46.700          33.1004
 130905203.071 6 102004086.71145  24910430.500    24910438.3134
        38.100          32.4004
 133296234.367 6 103867228.67444  25365431.406    25365440.5514
        40.400          24.0004
 111873955.647 7  87174524.56846  21288906.063    21288909.3674
        45.100          36.9004
 20  9  1  0 13  0.0000000  0 12G22G23G01G31G32G10G08G20G11G03G27G21
 122556802.208 7  95498814.94544  23321783.328    23321784.7704
        44.500          29.6004
 130244208.435 6 101489021.38343  24784649.273    24784655.2074
        36.900          21.3004
 115960636.068 7  90358967.84845  22066574.953    22066582.3404
        43.700          33.6004
 110381328.760 8  86011441.77646  21004867.922    21004871.4224
        48.300          39.6004
 110354936.551 7  85990883.21946  20999846.320    20999852.2154
        47.700          40.5004
 118185304.319 7  92092471.31645  22489916.023    22489922.4734
        45.000          33.5004
 127907764.373 6  99668420.48643  24340039.102    24340046.8914
        38.300          21.5004
 130445351.143 6 101645746.68243  24822925.563    24822930.8094
        39.900          22.5004
 112966992.744 7  88026244.01645  21496904.102    21496907.6254
        47.000          32.9004
 130821178.972 6 101938613.45745  24894441.172    24894448.9384
        39.000          32.1004
 133381241.641 6 103933467.98844  25381607.781    25381616.9304
        40.900          26.1004
 111925355.864 7  87214576.67346  21298687.211    21298690.5474
        45.300          37.0004
 20  9  1  0 13 30.0000000  0 12G22G23G01G31G32G10G08G20G11G03G27G21
 122482565.762 7  95440968.38644  23307656.578    23307658.0084
        44.100          29.9004
 130323118.476 6 101550509.69643  24799665.539    24799671.3554
        39.700          22.2004
 115890231.611 7  90304107.24045  22053177.406    22053184.7774
        44.600          32.3004
 110316978.702 8  85961298.90146  20992622.492    20992626.0274
        48.300          39.2004
 110404994.722 8  86029889.58246  21009372.063    21009377.9454
        49.500          39.9004
 118241172.190 7  92136004.70645  22500547.313    22500553.8054
        45.500          33.2004
 127980717.634 6  99725267.16443  24353921.727    24353929.4694
        37.500          20.9004
 130532204.158 6 101713424.28643  24839453.219    24839458.4104
        39.300          22.9004
 112978978.606 7  88035583.64245  21499184.930    21499188.4264
        47.300          32.7004
 130737111.058 6 101873106.07745  24878443.484    24878451.2894
        38.700          32.4004
 133466096.848 6 103999588.82244  25397755.219    25397764.3954
        38.700          24.0004
 111977186.999 7  87254964.55046  21308550.344    21308553.7154
        46.400          37.5004
 20  9  1  0 14  0.0000000  0 12G22G23G01G31G32G10G08G20G11G03G27G21
 122408368.844 7  95383152.63244  23293537.359    23293538.7814
        43.400          29.7004
 130402147.847 6 101612091.02343  24814704.398    24814710.2384
        39.000          22.8004
 115820258.784 7  90249582.97945  22039861.992    22039869.3404
        44.500          32.7004
 110253141.220 7  85911555.43546  20980474.594    20980478.1414
        47.400          39.7004
 110455268.441 7  86069063.90946  21018938.828    21018944.7154
        47.300          39.8004
 118297262.882 7  92179711.72245  22511221.008    22511227.5124
        44.100          33.7004
 128053780.743 6  99782199.39143  24367825.203    24367832.9064
        38.500          21.3004
 130619185.129 6 101781201.64543  24856005.039    24856010.4654
        39.500          22.3004
 112991578.463 7  88045401.69945  21501582.609    21501586.0944
        46.800          32.7004
 130652999.708 6 101807564.84645  24862437.563    24862445.3714
        38.700          32.2004
 133550797.535 6 104065589.22144  25413873.242    25413882.4804
        38.700          24.0004
 112029447.952 7  87295687.34746  21318495.289    21318498.6994
        45.400          37.3004
 20  9  1  0 14 30.0000000  0 12G22G23G01G31G32G10G08G20G11G03G27G21
 122334212.815 7  95325368.73144  23279425.922    23279427.3364
        44.100          29.4004
 130481296.723 6 101673765.45743  24829765.898    24829771.8714
        38.600          22.5004
 115750720.336 7  90195397.19845  22026629.242    22026636.5944
        43.900          32.6004
 110189819.100 7  85862213.56246  20968424.773    20968428.3634
        47.500          39.3004
 110505756.365 8  86108405.14246  21028546.359    21028552.2974
        48.500          40.4004
 118353576.902 7  92223592.76545  22521937.195    22521943.7304
        44.900          33.0004
 128126949.914 6  99839214.28543  24381748.836    24381756.5864
        38.400          21.3004
 130706293.758 6 101849078.45243  24872581.352    24872586.7114
        39.200          22.3004
 113004791.605 7  88055697.65245  21504096.984    21504100.4534
        46.700          32.3004
 130568845.651 6 101741990.32245  24846423.492    24846431.1914
        39.000          31.4004
 133635341.426 6 104131467.50743  25429961.422    25429970.7194
        38.100          23.0004
 112082137.447 7  87336744.07046  21328521.773    21328525.2424
        45.400          37.7004
 20  9  1  0 15  0.0000000  0 12G22G23G01G31G32G10G08G20G11G03G27G21
 122260098.166 7  95267617.07044  23265322.367    23265323.7664
        44.100          29.9004
 130560564.442 6 101735532.49643  24844850.117    24844856.0514
        39.300          22.6004
 115681618.337 7  90141551.49545  22013479.555    22013486.9104
        44.500          33.3004
 110127014.237 7  85813274.73446  20956473.391    20956477.0234
        47.200          38.5004
 110556456.443 8  86147911.68646  21038194.250    21038200.2304
        49.900          40.2004
 118410114.072 7  92267647.68945  22532695.859    22532702.4344
        44.600          33.1004
 128200223.123 6  99896310.25443  24395692.273    24395700.1454
        37.700          20.4004
 130793529.054 6 101917053.97643  24889181.531    24889187.0354
        38.200          21.3004
 113018616.707 7  88066470.44645  21506727.820    21506731.2664
        47.000          32.6004
 130484648.890 6 101676382.54345  24830401.297    24830408.9804
        39.800          32.6004
 133719725.710 6 104197221.35943  25446019.367    25446028.5784
        38.500          22.9004
 112135253.915 7  87378133.50246  21338629.508    21338633.0044
        45.800          37.3004
 20  9  1  0 15 30.0000000  0 12G22G23G01G31G32G10G08G20G11G03G27G21
 122186026.134 7  95209898.61744  23251226.914    23251228.2974
        44.000          29.9004
 130639951.370 6 101797392.41543  24859957.000    24859962.8244
        39.000          22.3004
 115612955.687 7  90088048.14545  22000413.469    22000420.8594
        44.700          33.3004
 110064729.434 7  85764741.15046  20944620.953    20944624.5594
        47.700          38.9004
 110607367.546 7  86187582.67846  21047882.313    21047888.2774
        47.800          39.8004
 118466875.052 7  92311877.02245  22543497.117    22543503.6994
        44.300          33.3004
 128273596.883 6  99953484.58943  24409654.859    24409662.7734
        38.400          21.7004
 130880891.157 6 101985128.31443  24905806.094    24905811.5164
        38.900          20.6004
 113033053.079 7  88077719.56245  21509474.969    21509478.3984
        46.700          33.3004
 130400410.354 6 101610742.18845  24814371.156    24814378.8164
        38.900          33.2004
 133803948.322 6 104262849.24543  25462046.453    25462055.6684
        37.400          21.7004
 112188796.678 7  87419855.12446  21348818.367    21348821.8714
        45.400          37.4004
 20  9  1  0 16  0.0000000  0 12G22G23G01G31G32G10G08G20G11G03G27G21
 122111997.255 7  95152213.79745  23237139.656    23237141.0664
        45.200          30.2004
 130719457.141 6 101859344.95943  24875086.438    24875092.0704
        38.900          21.8004
 115544734.698 7  90034888.95545  21987431.422    21987438.8524
        44.200          33.1004
 110002966.784 8  85716614.43646  20932867.891    20932871.4884
        48.000          39.7004
 110658487.924 8  86227416.74146  21057610.195    21057616.1414
        48.900          39.9004
 118523859.960 7  92356280.83145  22554340.961    22554347.5554
        43.800          32.3004
 128347068.565 6 100010735.21943  24423636.047    24423644.0434
        38.200          22.2004
 130968379.030 6 102053300.64443  24922454.617    24922459.8794
        38.200          20.6004
 113048099.356 7  88089443.92845  21512338.180    21512341.5984
        47.400          33.0004
 130316130.321 6 101545069.52145  24798333.148    24798340.7504
        40.000          33.1004
 133888006.573 6 104328349.04843  25478042.367    25478051.5124
        38.700          22.2004
 112242764.144 7  87461907.67846  21359088.047    21359091.5394
        45.500          37.4004
 20  9  1  0 16 30.0000000  0 12G22G23G01G31G32G10G08G20G11G03G27G21
 122038012.503 7  95094563.36244  23223060.813    23223062.2034
        45.000          29.2004
 130799081.457 6 101921389.84043  24890238.391    24890244.0274
        39.200          21.8004
 115476957.702 7  89982075.72545  21974533.875    21974541.3444
        43.900          33.2004
 109941728.856 8  85668896.60246  20921214.688    20921218.2814
        48.200          39.2004
 110709815.841 8  86267412.52146  21067377.578    21067383.5474
        50.200          40.1004
 118581068.896 7  92400859.21445  22565227.453    22565234.0704
        42.600          32.2004
 128420634.861 6 100068059.55343  24437635.219    24437643.3134
        38.000          22.0004
 131055992.447 6 102121570.79843  24939126.930    24939132.2384
        37.900          19.6004
 113063754.312 7  88101642.58745  21515317.227    21515320.6564
        46.800          33.0004
 130231809.196 6 101479364.81945  24782287.375    24782294.8794
        40.400          33.9004
 133971897.941 6 104393718.84643  25494006.445    25494015.6214
        36.800          21.7004
 112297154.856 7  87504290.03846  21369438.273    21369441.7734
        46.800          37.6004
 20  9  1  0 17  0.0000000  0 11G22G23G01G31G32G10G08G11G03G27G21
 121964073.116 7  95036948.27644  23208990.578    23208991.9534
        44.100          29.9004
 130878824.312 6 101983527.12543  24905412.914    24905418.6414
        38.700          22.0004
 115409627.299 7  89929610.49345  21961721.297    21961728.8164
        44.300          34.2004
 109881017.372 8  85621588.98246  20909661.656    20909665.2114
        48.700          39.6004
 110761349.905 8  86307568.93746  21077184.188    21077190.1214
        50.700          40.3004
 118638502.273 7  92445612.47245  22576156.664    22576163.2854
        43.600          32.3004
 128494292.713 6 100125455.27043  24451651.891    24451659.9224
        38.200          23.0004
 113080016.983 7  88114314.79045  21518411.906    21518415.3404
        47.700          32.6004
 130147447.573 6 101413628.56645  24766233.867    24766241.2774
        40.200          33.8004
 134055620.224 6 104458956.88343  25509938.352    25509947.4924
        37.800          20.1004
 112351967.617 7  87547001.26646  21379868.813    21379872.2934
        47.400          36.8004
 20  9  1  0 17 30.0000000  0 11G22G23G01G31G32G10G08G11G03G27G21
 121890179.789 7  94979369.07744  23194929.125    23194930.5124
        44.300          29.9004
 130958685.407 6 102045756.50243  24920610.070    24920615.7234
        37.800          22.3004
 115342745.792 7  89877495.04645  21948994.156    21949001.6954
        44.600          33.6004
 109820834.909 7  85574693.58446  20898209.297    20898212.8014
        47.900          39.3004
 110813088.371 8  86347884.62746  21087029.695    21087035.6094
        50.000          39.8004
 118696160.179 7  92490540.68245  22587128.602    22587135.2154
        43.400          31.4004
 128568039.203 6 100182920.02643  24465685.414    24465693.5394
        39.400          22.6004
 113096886.312 7  88127459.71245  21521622.047    21521625.4924
        46.600          33.0004
 130063045.802 6 101347861.02245  24750172.734    24750180.0514
        40.400          33.6004
 134139170.877 6 104524061.15843  25525837.703    25525846.7114
        36.400          21.7004
 112407200.905 8  87590040.17146  21390379.375    21390382.8484
        48.000          37.1004
 20  9  1  0 18  0.0000000  0 11G22G23G01G31G32G10G08G11G03G27G21
 121816333.211 7  94921826.30345  23180876.555    23180877.9654
        44.200          30.8004
 131038664.342 6 102108077.72743  24935829.570    24935835.3324
        38.600          23.6004
 115276315.367 7  89825731.09345  21936352.852    21936360.4104
        44.400          33.7004
 109761183.825 8  85528212.24246  20886858.055    20886861.5204
        48.200          38.9004
 110865029.417 8  86388358.16746  21096913.750    21096919.6644
        50.100          40.4004
 118754042.571 7  92535643.83945  22598143.250    22598149.8134
        44.100          31.4004
 128641871.301 6 100240451.46143  24479735.203    24479743.3484
        39.900          21.3004
 113114360.523 7  88141075.98145  21524947.297    21524950.7384
        47.100          32.7004
 129978604.013 6 101282062.30745  24734103.969    24734111.2544
        40.800          34.4004
 134222547.144 6 104589029.53843  25541703.867    25541712.8094
        36.200          19.9004
 112462852.867 7  87633405.32946  21400969.609    21400973.0634
        47.600          36.8004
 20  9  1  0 18 30.0000000  0 11G22G23G01G31G32G10G08G11G03G27G21
 121742534.557 7  94864320.87845  23166833.109    23166834.5944
        44.100          30.4004
 131118761.037 6 102170490.70643  24951071.375    24951077.2704
        40.100          22.6004
 115210338.663 7  89774320.69145  21923797.891    21923805.4384
        43.400          34.4004
 109702066.207 7  85482146.59146  20875608.313    20875611.7384
        47.800          38.7004
 110917171.695 8  86428988.51446  21106836.109    21106841.9844
        49.100          40.0004
 118812149.914 7  92580922.27145  22609200.719    22609207.2854
        43.800          31.6004
 128715785.865 6 100298047.19543  24493800.656    24493808.7464
        39.600          22.3004
 113132438.752 7  88155162.89545  21528387.484    21528390.9494
        47.500          32.8004
 129894123.231 6 101216233.19645  24718027.797    24718034.9654
        40.400          34.1004
 134305746.959 6 104653860.44243  25557536.430    25557545.2664
        37.100          19.6004
 112518922.713 7  87677096.10246  21411639.367    21411642.7974
        46.800          37.6004
 20  9  1  0 19  0.0000000  0 10G22G23G01G31G32G10G08G11G03G21
 121668784.785 7  94806853.55645  23152798.961    23152800.4924
        44.600          30.8004
 131198975.384 6 102232995.31344  24966335.836    24966341.5474
        40.200          24.5004
 115144817.985 7  89723265.62845  21911329.711    21911337.2154
        44.400          34.1004
 109643484.421 7  85436498.47346  20864460.547    20864463.9184
        47.900          38.7004
 110969513.602 8  86469774.41546  21116796.445    21116802.2974
        50.100          39.7004
 118870482.356 7  92626376.11045  22620301.016    22620307.5274
        43.400          31.9004
 128789780.214 6 100355705.09243  24507881.359    24507889.3794
        39.400          22.8004
 113151119.756 7  88169719.51245  21531942.367    21531945.8554
        46.500          33.0004
 129809603.738 6 101150373.93245  24701944.242    24701951.3794
        40.100          34.4004
 112575408.812 7  87721111.22546  21422388.336    21422391.7584
        46.900          37.1004
 20  9  1  0 19 30.0000000  0 10G22G23G01G31G32G10G08G11G03G21
 121595084.955 7  94749425.13745  23138774.320    23138775.9104
        45.000          30.9004
 131279307.234 6 102295591.49843  24981622.547    24981628.1644
        41.100          22.8004
 115079755.843 7  89672567.87245  21898948.797    21898956.2664
        44.100          34.2004
 109585440.607 8  85391269.56446  20853415.164    20853418.5314
        48.200          39.4004
 111022053.651 8  86510714.70546  21126794.492    21126800.3484
        49.500          40.5004
 118929040.189 7  92672005.57945  22631444.211    22631450.6454
        43.700          31.5004
 128863851.349 6 100413422.82543  24521976.664    24521984.6724
        40.000          22.0004
 113170402.342 7  88184744.89845  21535611.742    21535615.2344
        46.000          33.8004
 129725046.162 6 101084484.97045  24685853.438    24685860.5394
        38.800          33.5004
 112632309.746 7  87765449.59846  21433216.242    21433219.6884
        46.600          36.6004
 20  9  1  0 20  0.0000000  0 10G22G23G01G31G32G10G08G11G03G21
 121521436.089 7  94692036.43545  23124759.383    23124761.0084
        45.200          30.6004
 131359756.354 6 102358279.05743  24996931.500    24996937.0984
        39.700          22.6004
 115015154.588 7  89622229.24845  21886655.578    21886663.0394
        44.900          34.0004
 109527937.066 7  85346461.63346  20842472.578    20842475.9614
        47.900          39.5004
 111074790.269 8  86551808.17546  21136829.945    21136835.8054
        49.000          39.6004
 118987823.623 7  92717810.82345  22642630.336    22642636.6914
        43.800          30.8004
 128937996.021 6 100471197.84243  24536086.000    24536093.9774
        40.100          22.6004
 113190285.025 7  88200237.88845  21539395.305    21539398.8284
        45.900          32.6004
 129640451.027 6 101018566.76245  24669755.477    24669762.5514
        38.100          33.3004
 112689623.885 7  87810109.94746  21444122.773    21444126.2194
        46.800          36.5004
 20  9  1  0 20 30.0000000  0 10G22G23G01G31G32G10G08G11G03G21
 121447838.776 7  94634687.91044  23110754.266    23110755.8834
        45.400          29.6004
 131440322.342 6 102421057.72543  25012262.781    25012268.3754
        41.500          22.5004
 114951016.355 7  89572251.41845  21874450.477    21874457.8954
        45.400          34.6004
 109470975.581 8  85302076.08846  20831633.156    20831636.5274
        48.500          38.8004
 111127721.692 8  86593053.43346  21146902.469    21146908.3054
        48.500          39.6004
 119046832.609 7  92763791.82145  22653859.375    22653865.6684
        43.600          31.0004
 129012211.816 6 100529028.29643  24550208.844    24550216.8284
        40.000          23.0004
 113210766.645 7  88216197.58345  21543292.836    21543296.4024
        44.500          33.4004
 129555818.646 6 100952619.51845  24653650.422    24653657.4884
        38.300          33.3004
 112747349.786 7  87855091.15446  21455107.664    21455111.1174
        47.300          36.3004
 20  9  1  0 21  0.0000000  0 10G22G23G01G31G32G10G08G11G03G21
 121374294.492 7  94577380.70745  23096759.234    23096760.8134
        45.200          30.9004
 131521005.344 6 102483927.53644  25027616.305    25027621.9654
        41.800          24.7004
 114887343.860 7  89522636.50345  21862334.000    21862341.3874
        44.800          35.0004
 109414558.849 7  85258115.03146  20820897.383    20820900.7624
        47.900          38.8004
 111180846.699 8  86634449.53946  21157011.828    21157017.6804
        50.100          40.5004
 119106067.684 7  92809949.01645  22665131.438    22665137.7504
        43.200          31.3004
 129086495.514 6 100586911.65043  24564344.602    24564352.6214
        40.300          22.5004
 113231845.678 7  88232622.80145  21547304.063    21547307.6374
        46.800          33.6004
 129471149.909 6 100886643.95845  24637538.430    24637545.5634
        39.000          33.3004
 112805486.212 7  87900392.24846  21466170.672    21466174.1054
        46.400          36.1004
 20  9  1  0 21 30.0000000  0 10G22G23G01G31G32G10G08G11G03G21
 121300803.938 7  94520115.37245  23082774.430    23082776.0124
        44.500          30.9004
 131601804.996 6 102546888.25744  25042991.984    25042997.6954
        40.400          24.1004
 114824139.226 7  89473386.14345  21850306.563    21850313.9304
        44.100          34.5004
 109358688.533 8  85214579.75246  20810265.609    20810268.9384
        48.800          39.4004
 111234163.541 8  86675995.11446  21167157.695    21167163.5744
        48.300          39.7004
 119165528.861 7  92856282.39545  22676446.531    22676452.8634
        43.300          31.2004
 129160843.856 6 100644845.41243  24578492.711    24578500.7544
        40.300          22.5004
 113253520.613 7  88249512.35145  21551428.672    21551432.2424
        45.200          33.4004
 129386445.180 6 100820640.32445  24621419.586    24621426.6914
        37.300          32.9004
 112864031.409 7  87946011.86746  21477311.469    21477314.9024
        46.000          36.0004
 20  9  1  0 22  0.0000000  0 10G22G23G01G31G32G10G08G11G03G21
 121227368.229 7  94462892.76745  23068800.063    23068801.6484
        45.000          31.2004
 131682721.280 6 102609939.88443  25058389.883    25058395.5984
        40.900          22.3004
 114761405.018 7  89424502.35845  21838368.641    21838375.9804
        43.900          35.3004
 109303367.224 8  85171472.26246  20799738.297    20799741.6054
        49.500          39.2004
 111287670.924 8  86717689.17346  21177339.820    21177345.6644
        50.200          40.0004
 119225216.497 7  92902792.21345  22687804.719    22687811.1174
        43.400          32.1004
 129235254.265 6 100702827.48744  24592652.555    24592660.6604
        40.800          24.2004
 113275790.462 7  88266865.47245  21555666.500    21555670.0634
        46.200          33.0004
 129301705.193 6 100754609.24145  24605294.023    24605301.1414
        37.700          33.2004
 112922984.138 7  87991949.04046  21488529.813    21488533.2274
        47.000          36.8004
 20  9  1  0 22 30.0000000  0 10G22G23G01G31G32G10G08G11G03G21
 121153988.644 7  94405713.90645  23054836.375    23054837.9574
        45.500          30.6004
 131763753.849 7 102673082.10644  25073809.984    25073815.5354
        42.500          26.7004
 114699143.432 7  89375986.84645  21826520.664    21826527.9574
        44.500          35.0004
 109248596.872 8  85128794.09946  20789315.836    20789319.1484
        48.200          39.6004
 111341367.158 8  86759530.38546  21187557.883    21187563.7424
        49.600          39.8004
 119285130.619 7  92949478.53945  22699206.008    22699212.4774
        44.800          31.8004
 129309723.678 6 100760855.58843  24606823.664    24606831.7774
        40.900          23.6004
 113298653.569 7  88284680.87645  21560017.211    21560020.7584
        47.000          33.5004
 129216930.416 6 100688551.04345  24589161.836    24589168.9344
        38.900          32.4004
 112982343.031 7  88038202.70746  21499825.453    21499828.8404
        47.800          36.6004
 20  9  1  0 23  0.0000000  0 10G22G23G01G31G32G10G08G11G03G21
 121080665.894 7  94348579.32745  23040883.508    23040885.1024
        45.400          30.5004
 131844902.208 6 102736314.56743  25089251.977    25089257.6524
        40.900          22.0004
 114637356.667 7  89327841.32545  21814763.031    21814770.3134
        44.900          35.4004
 109194379.256 8  85086546.63246  20778998.547    20779001.8674
        48.100          39.5004
 111395250.668 8  86801517.52046  21197811.570    21197817.4304
        49.600          39.0004
 119345271.376 7  92996341.45545  22710650.438    22710656.9734
        44.100          31.4004
 129384249.010 6 100818927.23443  24621005.406    24621013.5274
        40.800          23.0004
 113322108.388 7  88302957.35545  21564480.523    21564484.0634
        46.400          32.6004
 129132121.357 6 100622466.11545  24573023.125    24573030.2704
        38.500          33.9004
 113042106.305 7  88084771.47946  21511198.047    21511201.4184
        46.800          36.7004
 20  9  1  0 23 30.0000000  0 10G22G23G01G31G32G10G08G11G03G21
 121007401.120 7  94291489.91945  23026941.664    23026943.2274
        45.600          30.9004
 131926166.320 6 102799637.23443  25104715.906    25104721.7504
        40.500          23.0004
 114576047.088 7  89280067.63645  21803096.203    21803103.4884
        45.100          35.0004
 109140716.566 7  85044731.56746  20768786.852    20768790.2384
        47.600          39.8004
 111449319.968 8  86843649.44346  21208100.633    21208106.4534
        49.200          39.9004
 119405638.970 7  93043381.11645  22722138.031    22722144.6174
        44.700          31.6004
 129458827.758 6 100877040.49943  24635197.211    24635205.4304
        40.200          22.6004
 113346153.602 7  88321693.88545  21569056.180    21569059.7074
        47.000          32.7004
 129047278.645 6 100556354.97545  24556878.008    24556885.1994
        37.800          33.4004
 113102272.296 7  88131654.04746  21522647.281    21522650.6374
        47.200          36.7004
 20  9  1  0 24  0.0000000  0 10G22G23G01G31G32G10G08G11G03G21
 120934195.402 7  94234446.53545  23013011.063    23013012.6254
        45.700          31.2004
 132007546.003 7 102863049.93344  25120202.094    25120207.9224
        42.300          25.7004
 114515217.055 7  89232667.62245  21791520.633    21791527.9414
        44.700          35.1004
 109087611.253 8  85003350.82046  20758681.219    20758684.6524
        48.400          39.9004
 111503573.636 8  86885925.02246  21218424.773    21218430.5784
        49.900          39.5004
 119466233.635 7  93090597.70545  22733668.820    22733675.3324
        44.300          31.7004
 129533456.720 6 100935192.88944  24649398.703    24649406.8914
        41.200          24.7004
 113370787.750 7  88340889.31645  21573743.906    21573747.4184
        46.400          33.0004
 128962402.943 6 100490218.12145  24540726.602    24540733.8714
        38.400          34.2004
 113162839.482 7  88178849.23646  21534172.859    21534176.2114
        47.200          36.9004
 20  9  1  0 24 30.0000000  0 10G22G23G01G31G32G10G08G11G03G21
 120861049.915 7  94177450.07745  22999091.922    22999093.4844
        45.300          31.9004
 132089041.069 6 102926552.56744  25135710.102    25135715.9884
        41.300          26.1004
 114454868.924 7  89185643.11345  21780036.758    21780044.0824
        45.600          35.9004
 109035064.852 8  84962405.59946  20748681.945    20748685.3634
        48.500          38.9004
 111558010.218 8  86928343.12946  21228783.719    21228789.5164
        50.300          39.2004
 119527055.549 7  93137991.39945  22745242.859    22745249.2814
        44.600          31.1004
 129608133.137 6 100993382.25943  24663609.188    24663617.3754
        40.800          22.8004
 113396009.186 7  88360542.37745  21578543.391    21578546.8834
        46.800          33.3004
 128877494.907 6 100424056.07945  24524569.063    24524576.3794
        37.000          33.0004
 113223806.440 8  88226355.93946  21545774.516    21545777.8634
        48.000          37.0004
 20  9  1  0 25  0.0000000  0 10G22G23G01G31G32G10G08G11G03G21
 120787965.458 7  94120501.16845  22985184.383    22985185.9344
