     2.11           OBSERVATION DATA    G (GPS)             RINEX VERSION / TYPE
teqc  2019Feb25     UNAVCO Archive Ops  20200902 03:31:56UTCPGM / RUN BY / DATE
Solaris x86 5.10|AMD64|cc SC5.8 -xarch=amd64|=+|=+          COMMENT
BIT 2 OF LLI FLAGS DATA COLLECTED UNDER A/S CONDITION       COMMENT
WIDC                                                        MARKER NAME
49917M001                                                   MARKER NUMBER
Ken Hudnut          U.S. Geological Survey                  OBSERVER / AGENCY
5250K54799          TRIMBLE NETR9       5.37                REC # / TYPE / VERS
5000115156          TRM57971.00     NONE                    ANT # / TYPE
 -2354850.1700 -4745524.0100  3540693.1000                  APPROX POSITION XYZ
        0.0083        0.0000        0.0000                  ANTENNA: DELTA H/E/N
     1     1                                                WAVELENGTH FACT L1/2
     7    L1    L2    C1    P2    P1    S1    S2            # / TYPES OF OBSERV
    30.0000                                                 INTERVAL
Forced Modulo Decimation to 30 seconds                      COMMENT
input file: widc200901.bnx                                  COMMENT
RINEX file created by UNAVCO GPS Archive.                   COMMENT
For more information contact archive-gps@unavco.org         COMMENT
Monument ID: 19457                                          COMMENT
UNAVCO 4-char name:   WIDC                                  COMMENT
4-char name from Log or data file: WIDC                     COMMENT
Monument location: 33.934757339 -116.391781172 445.0448     COMMENT
Visit ID: 126491                                            COMMENT
doi:10.7283/T56D5R7Z                                        COMMENT
End of DB comments                                          COMMENT
 SNR is mapped to RINEX snr flag value [0-9]                COMMENT
  L1 & L2: min(max(int(snr_dBHz/6), 0), 9)                  COMMENT
  2020     9     1     0     0    0.0000000     GPS         TIME OF FIRST OBS
                                                            END OF HEADER
 20  9  1  0  0  0.0000000  0 11G22G23G01G31G32G20G08G10G21G27G11
 124794997.309 7  97242867.56144  23747698.477    23747701.3874
        43.300          27.8004
 127894929.568 6  99658413.87743  24337595.953    24337602.4184
        37.500          20.6004
 118175052.020 7  92084489.87445  22487964.773    22487973.0164
        43.800          31.0004
 112093018.179 7  87345227.60946  21330592.070    21330596.6214
        47.800          37.2004
 109088547.053 8  85004090.98146  20758860.266    20758867.1174
        50.500          41.5004
 127892174.139 5  99656262.80842  24337071.477    24337077.2774
        35.100          15.6004
 126328270.836 6  98437649.95043  24039470.711    24039479.4064
        39.400          21.5004
 116547240.278 7  90816060.78345  22178202.391    22178209.6764
        47.000          35.3004
 110728500.468 7  86281965.88946  21070933.086    21070937.3634
        47.300          39.0004
 131259222.717 6 102279951.89643  24977799.586    24977808.8484
        39.000          22.6004
 113132091.861 7  88154895.48745  21528321.289    21528325.9304
        47.200          34.5004
 20  9  1  0  0 30.0000000  0 11G22G23G01G31G32G20G08G10G21G27G11
 124719372.448 7  97183939.11744  23733307.516    23733310.4384
        43.200          28.2004
 127970484.947 6  99717288.16343  24351973.555    24351980.0234
        36.100          20.9004
 118094082.303 7  92021396.61745  22472556.727    22472564.8714
        43.400          30.6004
 112016243.371 7  87285403.13246  21315982.273    21315986.8484
        47.600          37.1004
 109131540.682 8  85037592.51047  20767041.672    20767048.5514
        50.300          42.1004
 127975478.300 5  99721175.13142  24352923.695    24352929.5204
        33.500          14.8004
 126396881.363 6  98491112.66344  24052526.852    24052535.5354
        40.100          24.5004
 116596594.595 7  90854518.70445  22187594.227    22187601.5704
        46.400          35.5004
 110768362.004 8  86313026.81746  21078518.492    21078522.7424
        48.000          39.2004
 131346487.781 6 102347950.60043  24994405.617    24994415.0744
        38.200          21.5004
 113127692.364 7  88151467.30145  21527484.063    21527488.7304
        47.500          34.3004
 20  9  1  0  1  0.0000000  0 11G22G23G01G31G32G20G08G10G21G27G11
 124643763.910 7  97125023.39844  23718919.672    23718922.6214
        43.100          27.4004
 128046167.787 6  99776261.73443  24366375.438    24366381.9144
        37.200          21.3004
 118013478.213 7  91958588.25845  22457218.250    22457226.3014
        43.200          30.6004
 111939915.283 7  87225926.74846  21301457.500    21301462.1094
        47.400          38.0004
 109174790.903 8  85071293.98346  20775271.922    20775278.8054
        50.500          41.4004
 128058927.059 5                  24368803.352
        32.000
 126465676.702 6  98544719.36343  24065618.148    24065627.0164
        39.600          22.3004
 116646169.635 8  90893148.59646  22197028.078    22197035.4264
        48.800          36.1004
 110808682.396 7  86344445.30046  21086191.234    21086195.4884
        47.500          39.6004
 131433664.419 6 102415880.38944  25010994.578    25011004.1214
        40.600          24.1004
 113123921.860 7  88148529.24145  21526766.555    21526771.1804
        45.000          33.9004
 20  9  1  0  1 30.0000000  0 11G22G23G01G31G32G20G08G10G21G27G11
 124568171.927 6  97066120.59244  23704534.953    23704537.9734
        41.700          27.6004
 128121977.289 6  99835334.03243  24380801.539    24380807.9924
        37.000          21.1004
 117933241.578 7  91896066.22545  22441949.703    22441957.7384
        43.600          31.9004
 111864035.996 7  87166800.07546  21287018.125    21287022.8204
        47.500          37.3004
 109218295.311 8  85105193.52446  20783550.531    20783557.3984
        50.400          41.2004
 128142519.338 5                  24384710.266
        31.300
 126534652.713 6  98598466.91843  24078743.859    24078752.5984
        39.700          22.3004
 116695965.033 8  90931950.19445  22206503.852    22206511.1134
        49.100          35.7004
 110849460.469 7  86376220.41246  21093951.047    21093955.3164
        47.600          39.5004
 131520748.946 6 102483738.40643  25027566.484    25027576.0474
        38.500          21.5004
 113120779.686 7  88146080.79545  21526168.625    21526173.1954
        46.600          34.5004
 20  9  1  0  2  0.0000000  0 11G22G23G01G31G32G20G08G10G21G27G11
 124492597.042 7  97007231.08844  23690153.484    23690156.5204
        42.400          27.2004
 128197913.280 6  99894504.87844  24395251.750    24395258.2114
        39.600          24.1004
 117853375.004 7  91833832.54445  22426751.578    22426759.6884
        42.700          31.2004
 111788608.263 7  87108025.26646  21272664.672    21272669.3984
        46.300          37.1004
 109262052.141 8  85139289.75846  20791877.180    20791884.0234
        50.500          40.9004
 128226254.604 5                  24400644.555
        31.600
 126603806.685 6  98652353.07943  24091903.391    24091912.2734
        38.600          23.0004
 116745980.975 7  90970923.63946  22216021.586    22216028.8954
        47.900          36.7004
 110890694.975 7  86408351.17846  21101797.727    21101802.0314
        47.900          39.2004
 131607738.810 6 102551522.65143  25044119.789    25044129.6954
        38.100          21.1004
 113118265.326 7  88144121.57145  21525690.180    21525694.6954
        47.300          34.6004
 20  9  1  0  2 30.0000000  0 11G22G23G01G31G32G20G08G10G21G27G11
 124417040.057 6  96948355.55644  23675775.430    23675778.4574
        41.000          28.3004
 128273975.806 6  99953774.36344  24409726.180    24409732.4734
        39.500          25.0004
 117773881.201 7  91771889.34745  22411624.391    22411632.6374
        43.400          31.6004
 111713634.810 7  87049604.44446  21258397.672    21258402.4104
        46.400          37.7004
 109306059.799 8  85173581.43846  20800251.555    20800258.3874
        48.000          41.7004
 128310132.470 5                  24416606.047
        31.600
 126673135.774 6  98706375.70943  24105096.305    24105105.3134
        39.400          23.5004
 116796217.949 7  91010069.30745  22225581.367    22225588.7504
        46.300          34.6004
 110932384.826 7  86440836.75646  21109731.039    21109735.3874
        45.100          38.7004
 131694631.211 6 102619230.96544  25060655.063    25060664.7274
        38.800          24.7004
 113116378.219 7  88142651.09245  21525331.078    21525335.5634
        45.100          33.7004
 20  9  1  0  3  0.0000000  0 11G22G23G01G31G32G20G08G10G21G27G11
 124341502.154 6  96889494.91544  23661401.008    23661404.0514
        40.900          28.8004
 128350165.088 6 100013142.60244  24424224.641    24424230.8834
        40.500          25.5004
 117694763.049 7  91710238.86945  22396568.695    22396577.1214
        44.100          32.9004
 111639118.660 7  86991539.94846  21244217.695    21244222.3954
        45.500          37.4004
 109350316.853 8  85208067.44946  20808673.398    20808680.2274
        49.700          41.4004
 128394153.060 5                  24432594.695
        31.300
 126742637.286 6  98760532.70944  24118321.992    24118330.9184
        40.400          24.4004
 116846676.532 7  91049387.67845  22235183.313    22235190.5554
        44.800          33.7004
 110974530.143 7  86473677.24646  21117751.039    21117755.4224
        46.600          38.6004
 131781423.798 6 102686861.48543  25077171.109    25077180.8244
        37.900          22.3004
 113115118.877 7  88141669.79245  21525091.438    21525095.8794
        45.500          34.0004
 20  9  1  0  3 30.0000000  0 11G22G23G01G31G32G20G08G10G21G27G11
 124265983.652 7  96830649.40344  23647030.273    23647033.3404
        42.600          27.4004
 128426480.710 6 100072609.30544  24438747.180    24438753.4064
        40.400          25.4004
 117616022.915 7  91648882.92945  22381584.945    22381593.5044
        42.800          31.7004
 111565062.463 7  86933833.85646  21230125.242    21230129.8874
        46.700          37.9004
 109394821.372 8  85242746.29146  20817142.320    20817149.1454
        48.400          41.6004
 128478315.195 5                  24448610.367
        33.200
 126812307.565 6  98814821.22544  24131579.820    24131588.8634
        39.800          24.2004
 116897356.777 7  91088878.74545  22244827.430    22244834.8674
        46.400          33.9004
 111017128.995 7  86506871.15546  21125857.336    21125861.7304
        45.400          38.9004
 131868113.603 6 102754411.93543  25093667.469    25093677.2234
        36.600          21.8004
 113114486.399 7  88141176.94645  21524971.070    21524975.5084
        46.600          33.7004
 20  9  1  0  4  0.0000000  0 11G22G23G01G31G32G20G08G10G21G27G11
 124190485.391 6  96771819.63344  23632663.398    23632666.5354
        41.100          27.4004
 128502922.947 6 100132174.63944  24453293.781    24453300.0474
        40.800          26.7004
 117537663.710 7  91587823.82645  22366673.656    22366682.3014
        42.300          32.0004
 111491469.065 7  86876488.38246  21216120.859    21216125.4694
        47.000          38.3004
 109439571.922 8  85277616.85046  20825658.070    20825664.9024
        49.800          41.2004
 128562618.875 5                  24464652.875
        33.000
 126882144.278 6  98869239.41443  24144869.344    24144878.3634
        40.100          22.6004
 116948259.326 7  91128543.05245  22254513.844    22254521.1024
        45.500          32.6004
 111060180.976 7  86540418.15146  21134049.867    21134054.2584
        45.300          38.6004
 131954698.158 6 102821880.36143  25110144.211    25110153.8164
        40.500          22.6004
 113114479.854 7  88141171.83745  21524969.813    21524974.2854
        46.500          34.2004
 20  9  1  0  4 30.0000000  0 12G22G23G01G31G32G20G08G10G21G27G11G03
 124115008.089 7  96713006.19844  23618300.516    23618303.7114
        42.400          27.9004
 128579491.780 6 100191838.66244  24467864.344    24467870.7074
        40.000          25.9004
 117459688.144 7  91527063.65945  22351835.375    22351844.0004
        42.500          30.9004
 111418341.117 7  86819505.58946  21202205.047    21202209.6484
        46.600          37.6004
 109484566.965 8  85312677.92346  20834220.344    20834227.1884
        49.500          40.4004
 128647064.334 5                  24480722.477
        32.900
 126952144.200 6  98923784.79743  24158189.938    24158198.8324
        40.500          23.9004
 116999384.570 7  91168380.90545  22264242.656    22264249.8954
        45.800          34.2004
 111103685.472 7  86574317.75446  21142328.500    21142332.8714
        47.000          38.4004
 132041175.032 6 102889264.88343  25126600.031    25126609.6484
        36.900          22.0004
 113115099.480 7  88141654.65245  21525087.719    21525092.2234
        45.500          33.6004
 132579194.789 5 103308511.50844  25228982.352    25228993.5904
        34.700          24.7004
 20  9  1  0  5  0.0000000  0 12G22G23G01G31G32G20G08G10G21G27G11G03
 124039552.356 6  96654209.57944  23603941.750    23603944.8984
        40.400          28.5004
 128656186.793 6 100251600.99043  24482458.891    24482465.3674
        38.400          22.0004
 117382098.479 7  91466604.20645  22337070.531    22337079.0314
        44.100          31.2004
 111345681.154 7  86762887.46446  21188378.289    21188382.8674
        46.000          38.7004
 109529804.474 8  85347927.92546  20842828.750    20842835.6094
        50.000          41.4004
 128731650.099 5                  24496818.727
        31.000
 127022304.224 6  98978454.90244  24171540.992    24171549.9694
        41.200          25.4004
 117050732.539 7  91208392.27745  22274013.859    22274021.1604
        46.700          33.1004
 111147640.888 7  86608568.71846  21150692.938    21150697.2854
        46.800          38.1004
 132127541.075 6 102956562.99443  25143035.156    25143044.7584
        38.600          23.6004
 113116344.359 7  88142624.66745  21525324.609    21525329.1094
        44.700          34.2004
 132495616.233 6 103243385.43644  25213077.945    25213089.0824
        37.900          28.8004
 20  9  1  0  5 30.0000000  0 12G22G23G01G31G32G20G08G10G21G27G11G03
 123964118.897 6  96595430.30144  23589587.219    23589590.2504
        41.000          27.5004
 128733008.004 6 100311461.64743  24497077.453    24497083.9844
        40.000          22.9004
 117304897.425 7  91406447.57745  22322379.641    22322387.9494
        42.500          30.5004
 111273491.910 7  86706636.13146  21174641.109    21174645.6484
        45.900          38.2004
 109575282.898 8  85383365.65946  20851483.008    20851489.8714
        49.500          41.3004
 128816376.022 4                  24512941.453
        29.600
 127092621.584 6  99033247.59943  24184922.016    24184931.0124
        40.400          22.9004
 117102303.584 7  91248577.53845  22283827.523    22283834.7234
        47.300          34.2004
 111192046.275 7  86643170.31146  21159143.008    21159147.3324
        47.600          37.6004
 132213793.868 6 103023772.95543  25159448.750    25159458.0864
        36.500          22.0004
 113118214.298 7  88144081.76945  21525680.453    21525685.0124
        45.800          34.4004
 132411983.753 6 103178217.37145  25197163.234    25197174.1374
        38.300          31.0004
 20  9  1  0  6  0.0000000  0 12G22G23G01G31G32G20G08G10G21G27G11G03
 123888709.142 7  96536669.52544  23575237.195    23575240.1294
        42.600          27.2004
 128809955.686 6 100371420.85643  24511720.055    24511726.6374
        39.400          22.6004
 117228087.961 7  91346596.07345  22307763.266    22307771.3984
        42.900          32.0004
 111201776.429 7  86650753.97246  21160994.070    21160998.5864
        46.100          38.1004
 109621000.967 8  85418990.12846  20860182.875    20860189.7344
        49.800          41.0004
 128901242.177 4                  24529090.695
        27.600
 127163093.269 6  99088160.61044  24198332.391    24198341.1484
        40.200          24.2004
 117154098.519 7  91288937.19745  22293683.789    22293690.9924
        46.700          35.1004
 111236901.467 7  86678122.39546  21167678.680    21167683.0044
        47.000          38.2004
 132299931.187 6 103090892.79943  25175840.063    25175849.6294
        38.100          19.9004
 113120709.033 7  88146025.71245  21526155.188    21526159.7974
        47.200          34.5004
 132328298.049 6 103113007.79745  25181238.422    25181249.0554
        38.900          30.4004
 20  9  1  0  6 30.0000000  0 12G22G23G01G31G32G20G08G10G21G27G11G03
 123813323.319 6  96477927.35244  23560891.719    23560894.5784
        41.000          26.6004
 128887029.305 6 100431478.19943  24526386.703    24526393.2274
        39.900          23.9004
 117151672.256 7  91287051.40045  22293221.820    22293229.8834
        42.800          31.8004
 111130536.903 7  86595242.67946  21147437.609    21147442.0944
        46.600          38.6004
 109666956.588 8  85454799.69946  20868927.930    20868934.7734
        49.800          40.9004
 128986246.940 4                  24545266.633
        26.800
 127233715.696 6  99143191.01743  24211771.391    24211780.2854
        39.400          23.8004
 117206117.119 7  91329471.18945  22303582.633    22303589.9104
        46.800          35.2004
 111282204.345 7  86713423.33146  21176299.539    21176303.8404
        46.900          37.9004
 132385949.891 6 103157920.31843  25192208.844    25192218.2854
        37.100          21.8004
 113123827.539 7  88148455.70245  21526748.609    21526753.2544
        45.300          34.6004
 132244559.097 6 103047756.73744  25165303.453    25165313.8554
        37.700          27.4004
 20  9  1  0  7  0.0000000  0 11G22G23G01G31G32G08G10G21G27G11G03
 123737962.428 7  96419204.63744  23546550.992    23546553.8594
        43.300          27.4004
 128964229.162 6 100491633.90943  24541077.344    24541083.8444
        39.600          22.9004
 117075653.318 7  91227815.89545  22278755.891    22278763.9734
        43.600          32.7004
 111059776.424 7  86540104.66946  21133972.320    21133976.7974
        47.200          38.9004
 109713148.501 8  85490793.39746  20877717.961    20877724.7704
        49.400          40.5004
 127304486.617 6  99198337.17144  24225238.703    24225247.5164
        41.800          25.3004
 117258360.271 7  91370180.07745  22313524.188    22313531.7114
        45.700          35.8004
 111327954.795 7  86749073.01946  21185005.570    21185009.8364
        46.800          38.8004
 132471847.765 6 103224853.65643  25208554.945    25208564.5084
        37.000          22.2004
 113127569.432 7  88151371.45645  21527460.664    21527465.3204
        47.000          34.1004
 132160767.542 6 102982464.63844  25149358.430    25149368.4844
        38.300          29.0004
 20  9  1  0  7 30.0000000  0 11G22G23G01G31G32G08G10G21G27G11G03
 123662627.029 6  96360501.75744  23532215.109    23532217.9774
        41.900          28.5004
 129041554.885 6 100551887.69443  24555791.930    24555798.4614
        39.700          22.5004
 117000033.439 7  91168891.34445  22264365.891    22264374.0044
        43.000          32.3004
 110989497.290 7  86485341.73146  21120598.617    21120603.0944
        46.400          38.5004
 109759574.787 8  85526969.72346  20886552.594    20886559.3674
        49.600          40.8004
 127375402.282 6  99253596.10744  24238733.547    24238742.3284
        40.500          24.5004
 117310827.859 7  91411063.92345  22323508.469    22323515.9184
        47.000          35.2004
 111374151.145 7  86785070.16346  21193796.453    21193800.6954
        47.200          38.7004
 132557622.093 5 103291690.67043  25224876.906    25224886.9414
        35.700          19.3004
 113131933.970 7  88154772.39245  21528291.211    21528295.8324
        47.500          33.4004
 132076923.521 6 102917131.70745  25133403.422    25133413.2464
        39.200          31.4004
 20  9  1  0  8  0.0000000  0 11G22G23G01G31G32G08G10G21G27G11G03
 123587318.186 6  96301819.57344  23517884.273    23517887.1564
        41.600          28.5004
 129119006.465 6 100612239.53943  24570530.523    24570536.9804
        39.200          22.5004
 116924815.316 7  91110279.83645  22250052.344    22250060.4964
        43.400          32.6004
 110919702.314 7  86430956.05946  21107317.055    21107321.5634
        46.800          39.4004
 109806233.946 8  85563327.50746  20895431.523    20895438.2664
        49.900          41.0004
 127446460.552 6  99308966.12143  24252255.453    24252264.3714
        39.900          22.6004
 117363520.350 7  91452122.97445  22333535.531    22333543.1174
        44.800          34.4004
 111420792.603 7  86821414.13746  21202672.047    21202676.2734
        47.300          39.0004
 132643270.214 6 103358429.41543  25241175.414    25241185.3164
        36.000          22.5004
 113136920.539 7  88158658.03745  21529240.125    21529244.7034
        47.200          33.1004
 131993027.359 6 102851758.19044  25117438.500    25117448.1724
        36.900          28.9004
 20  9  1  0  8 30.0000000  0 11G22G23G01G31G32G08G10G21G27G11G03
 123512036.862 7  96243158.82344  23503558.695    23503561.5434
        42.700          29.7004
 129196584.173 6 100672689.67843  24585293.070    24585299.4804
        38.400          20.4004
 116850001.871 7  91051983.67245  22235815.797    22235823.9774
        43.700          33.0004
 110850394.320 7  86376949.85646  21094128.164    21094132.6994
        47.200          38.4004
 109853124.621 8  85599865.69446  20904354.516    20904361.2584
        49.900          41.1004
 127517658.380 6  99364444.93343  24265803.969    24265812.8244
        39.400          22.0004
 117416438.421 7  91493357.83345  22343605.508    22343612.8094
        46.100          33.6004
 111467878.590 7  86858104.50146  21211632.227    21211636.4614
        47.300          38.4004
 132728789.891 5 103425068.02943  25257449.180    25257459.2664
        34.500          22.3004
 113142529.103 7  88163028.35045  21530307.406    21530311.9064
        46.900          34.0004
 131909079.853 6 102786344.62144  25101463.781    25101473.2664
        38.300          28.0004
 20  9  1  0  9  0.0000000  0 11G22G23G01G31G32G08G10G21G27G11G03
 123436783.589 7  96184519.95744  23489238.438    23489241.2934
        42.100          29.0004
 129274287.441 6 100733237.63143  24600079.438    24600085.9224
        37.900          19.9004
 116775595.252 7  90994004.51645  22221656.656    22221664.8094
        43.500          33.0004
 110781575.451 7  86323324.78546  21081032.344    21081036.8594
        47.900          38.8004
 109900244.793 8  85636582.71746  20913321.188    20913327.9494
        49.900          40.9004
 127588992.166 6  99420029.68943  24279378.281    24279387.2464
        38.500          22.8004
 117469581.921 7  91534768.30845  22353718.383    22353726.0864
        44.500          32.7004
 111515407.328 7  86895139.86646  21220676.664    21220680.8984
        47.600          37.9004
 132814178.056 4 103491604.19042  25273697.695    25273708.3554
        25.900          16.3004
 113148758.228 7  88167882.20745  21531492.773    21531497.2704
        47.600          34.1004
 131825080.962 6 102720890.99845  25085479.305    25085488.5784
        37.100          30.0004
 20  9  1  0  9 30.0000000  0 11G22G23G01G31G32G08G10G21G27G11G03
 123361559.589 7  96125903.85844  23474923.773    23474926.6254
        43.700          29.2004
 129352116.572 6 100793883.67143  24614889.813    24614896.2344
        38.600          20.1004
 116701598.458 7  90936344.69645  22207575.508    22207583.5984
        43.600          32.8004
 110713248.796 8  86270083.27246  21068030.180    21068034.6604
        48.000          38.4004
 109947593.232 8  85673477.60546  20922331.297    20922338.0864
        50.000          41.8004
 127660459.533 6  99475718.46543  24292978.063    24292987.1724
        40.400          23.3004
 117522951.594 7  91576355.06245  22363874.281    22363881.6884
        45.000          32.4004
 111563378.262 8  86932519.80346  21229805.250    21229809.4774
        48.200          38.4004
 132899432.642 5 103558036.24943  25289921.492    25289931.8054
        35.200          20.4004
 113155607.792 7  88173219.52645  21532796.203    21532800.7384
        46.800          33.6004
 131741031.419 6 102655397.93145  25069485.203    25069494.3284
        37.700          30.0004
 20  9  1  0 10  0.0000000  0 11G22G23G01G31G32G08G10G21G27G11G03
 123286364.680 7  96067310.44644  23460614.617    23460617.5234
        42.200          28.9004
 129430070.678 6 100854627.07843  24629724.141    24629730.3834
        38.300          19.6004
 116628013.245 7  90879005.59245  22193572.695    22193580.7074
        42.600          33.1004
 110645416.018 7  86217226.58646  21055122.000    21055126.4414
        47.800          38.7004
 109995167.538 8  85710548.49546  20931384.391    20931391.1994
        50.000          40.8004
 127732056.629 6  99531508.39743  24306602.586    24306611.5434
        37.900          21.3004
 117576546.882 7  91618117.63545  22374073.156    22374080.7544
        45.700          33.0004
 111611789.279 7  86970242.64946  21239017.570    21239021.7894
        47.900          38.7004
 132984550.322 4 103624361.55042  25306118.781    25306129.3674
        29.900          16.9004
 113163076.114 7  88179038.99545  21534217.375    21534221.9734
        47.000          34.4004
 131656930.805 6 102589865.09545  25053481.375    25053490.3634
        36.600          30.2004
 20  9  1  0 10 30.0000000  0 11G22G23G01G31G32G08G10G21G27G11G03
 123211200.239 7  96008740.77344  23446311.289    23446314.2704
        44.300          29.3004
 129508149.943 6 100915468.03343  24644582.211    24644588.3134
        38.700          19.9004
 116554842.507 7  90821989.45245  22179648.734    22179656.6994
        43.400          32.6004
 110578080.012 8  86164757.00746  21042308.359    21042312.7854
        48.000          38.5004
 110042966.450 8  85747794.39446  20940480.219    20940487.0274
        50.300          40.8004
 127803781.066 6  99587397.52143  24320251.352    24320260.1484
        40.200          23.3004
 117630368.534 7  91660056.56845  22384315.078    22384322.4454
        47.200          32.6004
 111660639.528 7  87008307.77146  21248313.477    21248317.6684
        47.300          38.2004
 133069528.773 5 103690578.39543  25322289.875    25322301.2304
        33.700          18.3004
 113171162.575 7  88185340.12345  21535756.188    21535760.8324
        47.400          34.8004
 131572779.896 6 102524293.03945  25037467.969    25037476.7974
        36.000          30.2004
 20  9  1  0 11  0.0000000  0 11G22G23G01G31G32G08G10G21G27G11G03
 123136067.305 7  95950195.65144  23432013.930    23432016.9264
        43.100          28.9004
 129586354.489 6 100976406.58343  24659464.125    24659470.1334
        39.100          19.0004
 116482088.952 7  90765298.37945  22165804.164    22165812.1334
        44.200          32.7004
 110511243.627 8  86112676.74346  21029589.805    21029594.2234
        48.100          38.5004
 110090988.514 8  85785214.18546  20949618.516    20949625.3054
        50.300          41.1004
 127875629.416 6  99643383.22143  24333923.711    24333932.4964
        38.900          22.8004
 117684416.904 7  91702172.20445  22394600.164    22394607.3164
        47.000          33.2004
 111709928.349 7  87046714.62446  21257692.828    21257696.9844
        47.800          38.6004
 133154370.80615 103756694.14553  25338434.203    25338444.3244
        35.600          19.9004
 113179866.718 7  88192122.56045  21537412.531    21537417.2344
        47.500          35.0004
 131488579.210 6 102458682.23645  25021445.055    25021453.6844
        36.300          30.8004
 20  9  1  0 11 30.0000000  0 11G22G23G01G31G32G08G10G21G27G11G03
 123060966.694 7  95891675.71744  23417722.742    23417725.7034
        43.700          27.7004
 129664684.036 6 101037442.57143  24674369.758    24674375.9144
        37.300          19.6004
 116409755.051 7  90708934.32545  22152039.469    22152047.4344
        44.700          33.7004
 110444909.103 8  86060987.54246  21016966.750    21016971.1884
        48.800          39.1004
 110139231.997 8  85822806.50846  20958798.945    20958805.6954
        50.300          40.1004
 127947599.016 6  99699463.39243  24347619.039    24347627.9184
        39.100          22.6004
 117738692.294 7  91744464.68845  22404928.430    22404935.7154
        45.300          31.5004
 111759654.130 7  87085461.96946  21267155.344    21267159.5084
        47.900          38.7004
 133239063.745 5 103822688.53342  25354550.867    25354561.4024
        34.300          16.9004
 113189187.619 7  88199385.59645  21539186.250    21539190.9614
        46.800          34.3004
 131404329.118 6 102393032.89544  25005412.734    25005421.2074
        36.800          29.4004
 20  9  1  0 12  0.0000000  0 11G22G23G01G31G32G08G10G21G27G11G03
 122985899.321 7  95833181.69744  23403437.867    23403440.8284
        43.100          28.5004
 129743138.709 6 101098576.04742  24689299.219    24689305.4414
        38.000          17.8004
 116337843.486 7  90652899.36145  22138355.141    22138363.1024
        43.200          33.2004
 110379078.874 8  86009691.29546  21004439.664    21004444.1454
        49.000          38.2004
 110187695.450 7  85860570.23446  20968021.227    20968027.9344
        47.500          40.3004
 128019686.870 6  99755635.74543  24361337.031    24361345.6454
        40.200          22.0004
 117793195.080 7  91786934.39445  22415299.961    22415307.2274
        45.800          33.0004
 111809816.031 7  87124549.15146  21276700.844    21276705.0124
        45.800          39.0004
 133323610.165 5 103888568.81843  25370640.172    25370649.2464
        35.100          19.6004
 113199124.650 7  88207128.73045  21541077.211    21541081.8554
        47.500          34.2004
 131320030.126 6 102327345.47744  24989371.047    24989379.3984
        36.900          29.0004
 20  9  1  0 12 30.0000000  0 11G22G23G01G31G32G08G10G21G27G11G03
 122910866.219 7  95774714.34744  23389159.523    23389162.4224
        43.400          29.2004
 129821718.213 6 101159806.81343  24704252.414    24704258.7304
        37.400          18.6004
 116266356.601 7  90597195.32645  22124751.633    22124759.5864
        44.700          33.1004
 110313755.628 8  85958790.09746  20992009.055    20992013.5594
        48.400          38.4004
 110236377.184 8  85898504.04646  20977285.055    20977291.7504
        50.100          40.7004
 128091889.807 6  99811897.69743  24375076.750    24375085.3204
        39.800          22.2004
 117847925.421 7  91829581.40345  22425714.805    22425721.8914
        45.400          32.6004
 111860412.734 8  87163975.13346  21286329.078    21286333.2664
        48.100          37.9004
 133408007.510 6 103954332.83243  25386700.305    25386709.9344
        37.300          20.1004
 113209676.493 7  88215350.94845  21543085.148    21543089.7194
        46.300          32.3004
 131235682.578 6 102261620.17745  24973320.211    24973328.4144
        38.100          30.0004
 20  9  1  0 13  0.0000000  0 11G22G23G01G31G32G08G10G21G27G11G03
 122835868.058 7  95716274.25744  23374887.828    23374890.7384
        43.700          29.3004
 129900422.348 6 101221134.64543  24719229.242    24719235.7114
        37.800          18.3004
 116195297.031 7  90541824.25545  22111229.453    22111237.3714
        44.700          33.5004
 110248941.583 8  85908285.67746  20979675.336    20979679.8364
        48.100          37.6004
 110285275.643 7  85936606.73846  20986590.125    20986596.8404
        47.400          40.1004
 128164204.870 6  99868247.10043  24388837.922    24388846.5204
        38.200          21.3004
 117902883.674 7  91872406.01445  22436173.023    22436180.2154
        45.700          32.8004
 111911442.907 7  87203738.88746  21296039.813    21296044.0234
        46.100          38.7004
 133492253.283 5 104019978.82142  25402731.609    25402741.4774
        35.800          16.9004
 113220842.547 7  88224051.76245  21545209.977    21545214.4694
        46.800          32.1004
 131151286.917 6 102195857.40245  24957260.164    24957268.3674
        37.300          31.4004
 20  9  1  0 13 30.0000000  0 11G22G23G01G31G32G08G10G21G27G11G03
 122760905.472 7  95657861.86745  23360622.891    23360625.8754
        44.300          30.2004
 129979250.942 6 101282559.48642  24734229.922    24734236.3954
        36.100          16.9004
 116124667.246 7  90486788.07945  22097789.039    22097796.9654
        44.700          33.9004
 110184639.197 8  85858179.94546  20967438.977    20967443.4694
        48.200          38.5004
 110334389.224 8  85974877.06246  20995936.141    20995942.8954
        50.000          41.0004
 128236629.512 6  99924681.87443  24402619.852    24402628.5084
        38.200          20.6004
 117958070.116 7  91915408.39845  22446674.656    22446682.0004
        45.300          33.3004
 111962905.210 8  87243839.36346  21305832.781    21305837.0204
        48.000          38.8004
 133576345.242 5 104085504.90142  25418733.594    25418743.4224
        34.100          16.9004
 113232621.547 7  88233230.19645  21547451.438    21547455.8754
        47.400          33.0004
 131066843.518 5 102130057.46844  24941191.031    24941199.3754
        33.800          29.3004
 20  9  1  0 14  0.0000000  0 11G22G23G01G31G32G08G10G21G27G11G03
 122685979.588 7  95599478.07845  23346364.938    23346367.9654
        43.200          30.2004
 130058203.895 6 101344081.22242  24749254.219    24749260.6604
        37.100          16.9004
 116054469.775 7  90432088.77245  22084430.883    22084438.8554
        43.800          33.5004
 110120850.907 7  85808474.80846  20955300.445    20955304.9224
        47.200          38.3004
 110383716.305 8  86013313.74246  21005322.773    21005329.5704
        50.000          40.4004
 128309160.676 6  99981199.58043  24416422.000    24416430.8794
        38.100          19.9004
 118013484.945 7  91958588.76945  22457219.750    22457227.1294
        44.500          33.2004
 112014798.591 8  87284275.74646  21315707.781    21315712.0634
        48.000          38.7004
 133660280.663 5 104150909.05143  25434705.609    25434715.7194
        35.300          18.3004
 113245012.622 7  88242885.57045  21549809.375    21549813.8134
        46.800          34.0004
 130982352.959 6 102064220.75745  24925112.938    24925121.4454
        38.100          31.0004
 20  9  1  0 14 30.0000000  0 11G22G23G01G31G32G08G10G21G27G11G03
 122611091.441 7  95541123.68544  23332114.164    23332117.2304
        42.200          29.1004
 130137281.148 5 101405699.90142  24764302.156    24764308.6684
        34.800          15.6004
 115984707.122 7  90377728.27745  22071155.469    22071163.5744
        43.800          34.8004
 110057579.313 7  85759172.30246  20943260.242    20943264.7074
        47.000          38.7004
 110433255.389 8  86051915.62246  21014749.750    21014756.5554
        49.900          41.1004
 128381794.453 6 100037797.31143  24430243.867    24430252.6764
        36.600          20.6004
 118069128.515 7  92001947.39345  22467808.391    22467815.6454
        45.500          33.7004
 112067121.606 8  87325046.91246  21325664.531    21325668.8324
        48.300          38.8004
 133744057.042 5 104216189.24642  25450648.031    25450657.9924
        35.700          16.9004
 113258014.907 7  88253017.22045  21552283.641    21552288.1094
        47.200          34.8004
 130897815.622 5 101998347.54344  24909025.867    24909034.5204
        35.900          29.1004
 20  9  1  0 15  0.0000000  0 11G22G23G01G31G32G08G10G21G27G11G03
 122536241.705 7  95482799.27144  23317870.695    23317873.7544
        43.600          28.8004
 130216482.188 5 101467414.87142  24779373.648    24779380.0824
        35.500          14.8004
 115915381.469 7  90323708.29245  22057963.227    22057971.4414
        44.500          34.4004
 109994826.424 7  85710273.97646  20931318.750    20931323.2304
        47.300          38.6004
 110483004.561 8  86090681.20946  21024216.703    21024223.5004
        49.800          40.6004
 128454529.044 6 100094473.57743  24444084.633    24444093.6024
        37.000          21.7004
 118125000.826 7  92045484.20845  22478440.547    22478447.9654
        44.200          34.1004
 112119872.749 7  87366151.69146  21335702.758    21335707.0634
        47.000          39.0004
 133827671.675 5 104281343.36542  25466559.398    25466569.4844
        35.300          17.8004
 113271627.167 7  88263624.16845  21554873.984    21554878.5084
        47.400          35.2004
 130813231.729 6 101932438.08444  24892930.047    24892938.7344
        37.000          29.7004
 20  9  1  0 15 30.0000000  0 11G22G23G01G31G32G08G10G21G27G11G03
 122461431.929 7  95424505.94944  23303634.844    23303637.8794
        44.500          29.9004
 130295807.423 5                  24794468.750
        34.300
 115846495.910 7  90270031.24545  22044854.734    22044863.0434
        44.700          34.3004
 109932595.147 7  85661782.10646  20919476.516    20919481.0204
        47.900          38.4004
 110532962.921 8  86129609.80446  21033723.469    21033730.2464
        50.200          40.9004
 128527360.989 6 100151225.70043  24457944.125    24457953.1804
        39.200          22.3004
 118181102.623 7  92089199.90645  22489116.398    22489123.8874
        43.100          31.7004
 112173051.483 7  87407589.65046  21345822.344    21345826.6644
        47.500          38.8004
 133911122.676 6 104346370.07843  25482439.883    25482449.6804
        38.700          19.6004
 113285848.822 7  88274705.97345  21557580.289    21557584.8834
        47.300          35.2004
 130728602.304 5 101866493.11544  24876825.492    24876834.2424
        35.700          26.5004
 20  9  1  0 16  0.0000000  0 11G22G23G01G31G32G08G10G21G27G11G03
 122386662.122 7  95366243.79844  23289406.602    23289409.5594
        44.600          29.0004
 130375256.201 5                  24809587.367
        34.100
 115778052.298 7  90216698.57645  22031830.344    22031838.6954
        44.900          35.0004
 109870887.131 7  85613697.96446  20907733.859    20907738.3834
        47.600          38.4004
 110583128.299 8  86168699.70846  21043269.617    21043276.3754
        48.200          40.4004
 128600287.265 6 100208051.30143  24471821.500    24471830.6374
        36.400          20.9004
 118237433.666 7  92133094.25045  22499835.875    22499843.0004
        46.400          33.1004
 112226655.764 7  87449359.20046  21356022.914    21356027.2424
        46.100          38.4004
 133994407.103 6 104411266.90243  25498288.289    25498298.3444
        37.700          19.6004
 113300678.133 7  88286261.27345  21560402.211    21560406.8444
        47.300          34.1004
 130643927.205 5 101800512.67144  24860712.227    24860720.9884
        35.300          27.9004
 20  9  1  0 16 30.0000000  0 11G22G23G01G31G32G08G10G21G27G11G03
 122311933.410 7  95308013.64245  23275186.180    23275189.0354
        45.500          30.0004
 130454828.217 5                  24824729.406
        32.000
 115710053.084 7  90163712.19845  22018890.523    22018898.8324
        44.500          34.2004
 109809705.036 7  85566023.62746  20896091.273    20896095.8134
        47.300          39.0004
 110633499.054 8  86207949.64146  21052854.852    21052861.5984
        50.300          40.5004
 128673304.695 6 100264947.96643  24485716.461    24485725.3364
        40.800          22.6004
 118293994.181 7  92177167.33945  22510598.992    22510606.3634
        45.000          32.0004
 112280684.283 8  87491459.33246  21366304.203    21366308.5354
        48.400          38.3004
 134077522.431 6 104476032.05942  25514104.938    25514114.8364
        37.100          17.8004
 113316113.878 7  88298289.11745  21563339.523    21563344.1914
        45.900          33.2004
 130559207.165 5 101734497.08344  24844590.461    24844599.0944
        34.300          28.9004
 20  9  1  0 17  0.0000000  0 11G22G23G01G31G32G08G10G21G27G11G03
 122237247.042 7  95249816.50145  23260973.813    23260976.5744
        43.600          30.2004
 130534527.651 5                  24839894.813
        32.400
 115642500.896 7  90111074.15045  22006035.766    22006043.9454
        44.500          34.6004
 109749050.594 7  85518760.44746  20884549.094    20884553.6334
        47.000          39.4004
 110684073.897 8  86247358.60646  21062478.930    21062485.6844
        49.900          40.1004
 128746410.236 6 100321913.30243  24499628.055    24499636.9534
        37.400          22.0004
 118350784.566 7  92221419.62745  22521405.859    22521412.8094
        43.900          32.3004
 112335135.801 8  87533889.07946  21376665.992    21376670.3134
        48.500          38.1004
 134160466.555 6 104540663.70742  25529888.586    25529898.6174
        36.800          17.4004
 113332155.228 7  88310788.85645  21566392.086    21566396.7544
        46.200          33.4004
 130474442.499 6 101668446.80344  24828460.250    24828468.8444
        36.600          28.8004
 20  9  1  0 17 30.0000000  0 11G22G23G01G31G32G08G10G21G27G11G03
 122162603.873 7  95191653.02244  23246769.656    23246772.3324
        43.800          29.5004
 130614346.070 5                  24855083.680
        33.700
 115575398.093 7  90058786.27745  21993266.516    21993274.5394
        44.900          33.7004
 109688926.461 7  85471910.51046  20873107.820    20873112.3714
        47.800          38.8004
 110734851.170 8  86286925.30746  21072141.531    21072148.2774
        49.900          40.7004
 128819601.164 6 100378945.07543  24513555.805    24513564.9264
        39.600          22.0004
 118407805.057 7  92265851.12545  22532256.492    22532263.9774
        44.800          33.6004
 112390008.885 7  87576647.31146  21387108.000    21387112.3134
        47.200          37.6004
 134243236.920 6 104605159.97743  25545639.305    25545649.5864
        39.900          21.5004
 113348801.131 7  88323759.68945  21569559.688    21569564.3164
        47.200          33.7004
 130389633.861 6 101602362.22145  24812321.688    24812330.1254
        39.700          30.4004
 20  9  1  0 18  0.0000000  0 11G22G23G01G31G32G08G10G21G27G11G03
 122088004.864 7  95133523.97045  23232573.906    23232576.5434
        44.300          30.7004
 130694287.426 5                  24870296.023
        31.500
 115508747.181 7  90006850.51345  21980583.258    21980591.1524
        44.600          33.8004
 109629335.223 8  85425475.80246  20861767.961    20861772.4844
        48.600          39.4004
 110785829.396 8  86326648.59246  21081842.375    21081849.1134
        49.500          40.6004
 128892874.566 6 100436041.25643  24527499.406    24527508.3014
        39.700          21.7004
 118465055.871 7  92310462.16645  22543150.969    22543158.4494
        44.100          31.6004
 112445301.937 8  87619732.79046  21397629.930    21397634.2424
        48.300          37.8004
 134325831.097 6 104669519.06642  25561356.539    25561366.9454
        36.800          16.9004
 113366050.168 7  88337200.50645  21572842.078    21572846.6334
        45.900          34.1004
 130304781.620 6 101536243.65445  24796174.820    24796183.1564
        38.500          31.8004
 20  9  1  0 18 30.0000000  0 10G22G23G01G31G32G08G10G21G11G03
 122013451.124 7  95075430.16945  23218386.781    23218389.4264
        43.900          30.0004
 130774351.668 5                  24885531.867
        33.000
 115442550.756 7  89955268.90445  21967986.492    21967994.3554
        43.600          34.2004
 109570278.908 8  85379457.92046  20850529.898    20850534.3874
        48.600          39.5004
 110837007.194 8  86366527.39446  21091581.188    21091587.9384
        49.200          40.6004
 128966227.496 6 100493199.30243  24541457.852    24541466.9494
        37.000          20.6004
 118522537.435 7  92355252.98845  22554089.344    22554096.4964
        44.500          33.8004
 112501014.143 7  87663144.87746  21408231.625    21408235.9264
        47.500          37.7004
 113383901.392 7  88351110.55445  21576239.078    21576243.5824
        46.100          33.8004
 130219886.768 6 101470091.89445  24780019.852    24780028.1994
        40.500          33.3004
 20  9  1  0 19  0.0000000  0 10G22G23G01G31G32G08G10G21G11G03
 121938943.420 7  95017372.24045  23204208.414    23204211.0904
        44.500          31.5004
 130854538.203 5                  24900790.883
        34.500
 115376810.805 7  89904042.98145  21955476.578    21955484.5204
        44.300          34.2004
 109511759.587 8  85333858.47046  20839394.016    20839398.4534
        48.000          39.7004
 110888382.712 8  86406560.26746  21101357.625    21101364.4144
        49.400          40.4004
 129039656.887 6 100550416.98143  24555431.211    24555440.2974
        39.400          20.9004
 118580249.652 7  92400223.49845  22565071.617    22565079.1294
        44.900          34.0004
 112557143.591 7  87706882.09646  21418912.711    21418917.0004
        46.900          37.0004
 113402353.227 7  88365488.60645  21579750.367    21579754.8674
        46.600          34.5004
 130134949.414 6 101403907.00345  24763856.813    24763865.2304
        37.900          31.1004
 20  9  1  0 19 30.0000000  0 10G22G23G01G31G32G08G10G21G11G03
 121864482.656 7  94959350.91045  23190038.977    23190041.6954
        44.700          31.5004
 130934846.780 5 102027183.17642  24916073.281    24916081.0824
        33.800          13.9004
 115311529.762 7  89853174.62745  21943053.977    21943062.0664
        44.400          35.1004
 109453779.216 8  85288678.98046  20828360.695    20828365.0944
        48.000          39.5004
 110939954.305 8  86446745.91846  21111171.375    21111178.2154
        49.400          40.8004
 129113159.488 6 100607691.71643  24569418.313    24569427.3164
        38.300          19.0004
 118638192.608 7  92445373.84445  22576097.797    22576105.0864
        45.200          34.3004
 112613688.669 7  87750943.17746  21429672.898    21429677.1524
        47.000          36.8004
 113421404.327 7  88380333.61345  21583375.680    21583380.2074
        45.400          34.4004
 130049969.916 6 101337689.30645  24747685.719    24747694.2624
        39.200          31.6004
 20  9  1  0 20  0.0000000  0 10G22G23G01G31G32G08G10G21G11G03
 121790070.375 7  94901367.35545  23175878.773    23175881.5204
        45.800          31.5004
                                  24931378.945
        33.000          14.8004
 115246710.377 7  89802666.02545  21930719.227    21930727.4534
        44.900          35.7004
 109396340.560 8  85243921.60646  20817430.461    20817434.8244
        48.200          39.4004
 110991720.945 8  86487083.56346  21121022.242    21121029.1254
        50.000          39.8004
 129186732.707 6 100665021.46343  24583418.828    24583427.6564
        39.200          20.4004
 118696367.049 7  92490704.52145  22587168.023    22587175.5904
        44.300          32.9004
 112670648.213 7  87795327.21946  21440511.945    21440516.1914
        47.300          36.7004
 113441053.674 7  88395644.78345  21587114.828    21587119.4064
        46.200          34.2004
 129964949.386 6 101271439.59445  24731506.820    24731515.3794
        39.100          31.3004
 20  9  1  0 20 30.0000000  0 10G22G23G01G31G32G08G10G21G11G03
 121715706.987 7  94843421.88745  23161727.883    23161730.6054
        44.700          30.3004
 131095833.37214                  24946707.594
        29.100
 115182354.673 7  89752518.72945  21918472.734    21918481.0204
        44.900          35.3004
 109339445.204 8  85199587.58446  20806603.617    20806607.9384
        48.700          39.7004
 111043680.721 8  86527571.68946  21130909.867    21130916.7704
        48.800          40.2004
 129260373.854 6 100722404.13943  24597432.305    24597441.1724
        39.300          21.8004
 118754772.718 7  92536215.44945  22598282.266    22598289.6764
        45.200          32.7004
 112728020.599 7  87840032.96346  21451429.563    21451433.8164
        46.700          36.8004
 113461299.982 7  88411421.11145  21590967.563    21590972.2074
        45.200          34.2004
 129879887.908 6 101205157.97644  24715320.102    24715328.6764
        38.700          29.9004
 20  9  1  0 21  0.0000000  0  9G22G01G31G32G08G10G21G11G03
 121641393.866 7  94785515.60045  23147586.547    23147589.2074
        45.500          31.2004
 115118465.201 7  89702734.74245  21906314.961    21906323.2584
        44.600          34.9004
 109283095.709 8  85155678.91346  20795880.656    20795884.9574
        49.100          39.4004
 111095832.301 8  86568209.27946  21140833.977    21140840.8634
        49.600          39.3004
 129334079.608 6 100779837.16043  24611458.008    24611466.8794
        39.300          18.6004
 118813410.049 7  92581906.87445  22609440.602    22609448.1214
        44.300          32.9004
 112785804.465 7  87885059.33446  21462425.484    21462429.7304
        47.400          36.9004
 113482141.562 7  88427661.27345  21594933.578    21594938.2774
        45.800          33.3004
 129794786.183 6 101138845.01744  24699125.711    24699134.2704
        38.100          29.0004
 20  9  1  0 21 30.0000000  0  9G22G01G31G32G08G10G21G11G03
 121567131.747 7  94727649.05445  23133454.891    23133457.5084
        45.000          30.7004
 115055044.129 7  89653315.74145  21894246.328    21894254.5824
        44.000          35.1004
 109227293.730 8  85112196.88946  20785261.867    20785266.1484
        48.100          39.2004
 111148173.996 8  86608995.01746  21150794.266    21150801.1134
        49.100          39.4004
 129407846.794 6 100837318.07443  24625495.414    24625504.0354
        39.500          20.4004
 118872279.128 7  92627778.83745  22620643.023    22620650.6524
        45.200          32.5004
 112843998.041 7  87930404.96246  21473499.367    21473503.6134
        46.400          36.2004
 113503576.908 7  88444364.13045  21599012.586    21599017.2814
        45.500          34.5004
 129709644.802 6 101072501.10644  24682923.781    24682932.1764
        37.900          28.5004
 20  9  1  0 22  0.0000000  0  9G22G01G31G32G08G10G21G11G03
 121492921.811 7  94669823.16345  23119333.172    23119335.7624
        44.600          31.5004
 114992094.021 7  89604263.73345  21882267.320    21882275.5124
        44.700          34.4004
 109172041.844 8  85069143.50346  20774747.773    20774752.0354
        48.600          39.4004
 111200704.575 8  86649927.92246  21160790.500    21160797.3244
        49.900          40.1004
 129481672.788 6 100894844.75443  24639544.023    24639552.8134
        39.500          22.0004
 118931380.318 7  92673831.72545  22631889.625    22631896.8554
        43.600          31.5004
 112902600.102 7  87976068.88646  21484650.977    21484655.2304
        47.500          36.6004
 113525605.084 7  88461528.93845  21603204.430    21603209.0904
        47.600          34.0004
 129624464.411 6 101006126.82044  24666714.422    24666722.5824
        38.600          27.8004
 20  9  1  0 22 30.0000000  0  9G22G01G31G32G08G10G21G11G03
 121418765.148 7  94612038.78845  23105221.602    23105224.1914
        45.100          31.1004
 114929616.957 7  89555580.31845  21870378.313    21870386.4654
        44.300          34.4004
 109117341.873 8  85026520.17346  20764338.703    20764342.9494
        48.900          38.9004
 111253422.228 8  86691006.61046  21170822.336    21170829.1524
        49.300          40.0004
 129555554.440 6 100952414.84943  24653603.289    24653612.0594
        36.700          19.3004
 118990713.517 7  92720065.37045  22643180.398    22643187.9344
        46.700          34.8004
 112961609.134 7  88022049.93446  21495880.039    21495884.3094
        46.600          36.0004
 113548224.225 7  88479154.23845  21607508.734    21607513.3634
        47.600          34.2004
 129539245.341 6 100939722.39844  24650497.734    24650505.6134
        37.700          27.0004
 20  9  1  0 23  0.0000000  0  9G22G01G31G32G08G10G21G11G03
 121344662.826 7  94554296.73645  23091120.391    23091123.0234
        45.700          31.3004
 114867615.445 7  89507267.46445  21858579.797    21858587.9304
        44.400          34.9004
 109063195.875 7  84984328.51546  20754035.047    20754039.2624
        47.800          39.0004
 111306325.659 8  86732230.05646  21180889.523    21180896.3674
        49.500          39.5004
 129629489.025 6 101010026.18743  24667672.695    24667681.2854
        40.100          21.8004
 119050279.144 7  92766480.10545  22654515.375    22654522.9614
        45.100          32.3004
 113021023.689 7  88068346.97245  21507186.266    21507190.5664
        46.800          35.6004
 113571433.093 7  88497239.07045  21611925.250    21611929.8404
        47.300          33.7004
 129453988.472 6 100873288.54744  24634273.828    24634281.4964
        38.000          28.2004
 20  9  1  0 23 30.0000000  0  9G22G01G31G32G08G10G21G11G03
 121270615.691 7  94496597.70245  23077029.688    23077032.3404
        46.200          31.8004
 114806091.481 7  89459326.72745  21846872.156    21846880.2584
        45.100          33.8004
 109009605.692 8  84942569.95446  20743837.156    20743841.3484
        48.400          39.2004
 111359413.215 8  86773596.96346  21190991.742    21190998.6214
        49.000          40.0004
 129703473.657 6 101067676.48843  24681751.672    24681760.3364
        39.400          22.0004
 119110077.071 7  92813075.91845  22665894.594    22665902.0044
        47.800          35.0004
 113080841.704 7  88114958.39145  21518569.273    21518573.6094
        46.500          35.4004
 113595230.133 7  88515782.21545  21616453.695    21616458.2384
        46.600          34.1004
 129368694.177 6 100806825.47744  24618042.805    24618050.3954
        37.100          29.1004
 20  9  1  0 24  0.0000000  0  9G22G01G31G32G08G10G21G11G03
 121196624.881 7  94438942.56345  23062949.703    23062952.3204
        46.700          32.2004
 114745047.481 7  89411759.99045  21835255.859    21835263.8914
        44.600          35.7004
 108956573.734 8  84901246.38346  20733745.492    20733749.6954
        48.800          39.9004
 111412683.421 8  86815106.21646  21201128.734    21201135.6374
        49.500          39.9004
 129777505.226 6 101125363.38243  24695839.430    24695848.2934
        39.500          21.5004
 119170107.628 7  92859852.94945  22677318.047    22677325.4964
        45.000          32.8004
 113141061.667 7  88161883.02145  21530028.766    21530033.1024
        46.500          35.2004
 113619613.837 7  88534782.48645  21621093.766    21621098.3014
        45.400          33.3004
 129283363.038 6 100740333.77645  24601804.797    24601812.3634
        38.400          31.2004
 20  9  1  0 24 30.0000000  0  9G22G01G31G32G08G10G21G11G03
 121122691.791 7  94381332.38245  23048880.688    23048883.2154
        46.200          31.0004
 114684485.998 7  89364569.22745  21823731.375    21823739.2934
        45.200          35.1004
 108904101.794 8  84860359.18646  20723760.398    20723764.5824
        49.300          39.5004
 111466135.097 8  86856756.86746  21211300.250    21211307.1644
        49.600          39.2004
 129851581.174 6 101183084.88843  24709935.703    24709944.4104
        39.400          20.9004
 119230371.170 7  92906811.54145  22688785.836    22688793.3204
        46.000          33.6004
 113201682.427 7  88209119.96945  21541564.516    21541568.8674
        46.800          35.1004
 113644582.774 7  88554238.78245  21625845.188    21625849.7504
        45.600          34.0004
 129197996.070 6 100673814.06345  24585559.945    24585567.5164
        37.200          30.3004
 20  9  1  0 25  0.0000000  0  9G22G01G31G32G08G10G21G11G03
 121048817.130 7  94323767.74145  23034822.789    23034825.1414
        45.500          31.5004
 114624408.853 7  89317755.88445  21812299.063    21812306.9184
        45.900          34.9004
 108852191.467 8  84819909.60746  20713882.172    20713886.3324
        48.600          39.4004
 111519766.296 8  86898547.40946  21221505.938    21221512.8484
        50.000          39.6004
 129925698.039 6 101240838.22943  24724039.750    24724048.6804
        39.100          21.7004
 119290867.472 7  92953951.50045  22700297.891    22700305.4024
        44.300          31.5004
 113262701.986 7  88256667.66045  21553176.164    21553180.5434
        46.200          35.1004
 113670134.898 7  88574149.50745  21630707.594    21630712.2114
        45.900          34.2004
 129112593.337 6 100607266.57145  24569308.313    24569316.0474
        38.200          32.1004
 20  9  1  0 25 30.0000000  0  9G22G01G31G32G08G10G21G11G03
 120975002.516 7  94266249.88145  23020776.313    23020778.4964
        45.900          30.7004
 114564818.898 7  89271322.16346  21800959.453    21800967.3244
        45.700          36.3004
 108800845.469 8  84779899.76546  20704111.328    20704115.4924
        48.000          40.6004
 111573576.279 8  86940477.25446  21231745.641    21231752.5394
        49.600          39.1004
 129999853.439 6 101298621.60843  24738150.961    24738160.1374
        40.600          21.3004
 119351597.382 7  93001273.45745  22711854.375    22711861.8404
        43.200          31.3004
 113324119.453 7  88304525.40945  21564863.539    21564867.9144
        46.800          34.9004
 113696269.460 7  88594514.07845  21635680.844    21635685.4614
        46.700          34.4004
 129027156.234 6 100540692.26145  24553050.141    24553057.9454
        36.800          30.8004
 20  9  1  0 26  0.0000000  0  9G22G01G31G32G08G10G21G11G03
 120901248.237 7  94208779.03745  23006741.313    23006743.3404
        45.300          31.7004
 114505717.562 7  89225269.18246  21789712.844    21789720.7894
        45.000          36.7004
 108750064.567 8  84740330.25846  20694448.016    20694452.2194
        48.300          39.0004
 111627562.698 8  86982544.58946  21242018.914    21242025.7934
        49.100          39.4004
 130074044.064 6 101356432.47143  24752268.977    24752278.0044
        39.400          20.6004
 119412560.022 7  93048776.81445  22723455.172    22723462.6764
        43.100          30.8004
 113385932.087 7  88352691.07945  21576626.109    21576630.4694
        45.700          35.7004
 113722983.876 7  88615330.49445  21640764.445    21640769.0664
        46.400          34.1004
 128941684.412 6 100474090.95345  24536785.375    24536793.2504
        36.000          32.1004
 20  9  1  0 26 30.0000000  0  9G22G01G31G32G08G10G21G11G03
 120827555.838 7  94151356.41545  22992718.086    22992720.0704
        46.100          31.1004
 114447107.573 7  89179599.06946  21778559.742    21778567.8014
        46.300          37.0004
 108699851.521 8  84701203.22946  20684892.766    20684897.0164
        48.900          40.4004
 111681724.654 8  87024748.70146  21252325.594    21252332.4494
        49.600          39.4004
 130148267.025 6 101414268.48043  24766393.055    24766402.2344
        37.200          19.0004
 119473756.281 7  93096462.17145  22735100.406    22735107.8484
        44.100          30.9004
 113448138.986 7  88401163.96445  21588463.703    21588468.0554
        45.800          34.5004
 113750277.178 7  88636597.99845  21645958.211    21645962.8014
        46.000          33.8004
 128856179.149 5 100407463.54945  24520514.266    24520522.1134
        33.900          30.8004
 20  9  1  0 27  0.0000000  0  9G22G01G31G32G08G10G21G11G03
 120753926.371 7  94093982.82945  22978706.844    22978708.8794
        46.000          31.5004
 114388991.017 7  89134313.44746  21767500.531    21767508.6764
        46.100          36.2004
 108650208.170 8  84662520.11746  20675445.922    20675450.2114
        49.600          40.1004
 111736060.565 8  87067088.36346  21262665.375    21262672.2274
