%  GPST              x-ecef(m)      y-ecef(m)      z-ecef(m)   Q  ns   sdx(m)   sdy(m)   sdz(m)  sdxy(m)  sdyz(m)  sdzx(m) age(s)  ratio
2121 172800.000  -2148743.5619   4426639.6865   4044655.5031   6   7   1.7003   2.5234   3.0698  -1.7262   2.1207  -1.4513   0.00    0.0
2121 172830.000  -2148743.4785   4426639.9934   4044656.6453   6   7   1.1795   1.7358   2.0732  -1.1820   1.4292  -0.9793   0.00    0.0
2121 172860.000  -2148743.6379   4426640.5300   4044656.5613   6   7   0.9545   1.3988   1.6568  -0.9503   1.1417  -0.7829   0.00    0.0
2121 172890.000  -2148743.6237   4426640.4902   4044656.5435   6   7   0.8228   1.2026   1.4175  -0.8159   0.9775  -0.6708   0.00    0.0
2121 172920.000  -2148743.6958   4426640.7121   4044656.5410   6   7   0.7341   1.0710   1.2586  -0.7262   0.8690  -0.5966   0.00    0.0
2121 172950.000  -2148743.7985   4426640.7051   4044656.6366   6   7   0.6694   0.9753   1.1437  -0.6610   0.7910  -0.5433   0.00    0.0
2121 172980.000  -2148743.7284   4426640.6037   4044656.3088   6   7   0.6130   0.8894   1.0322  -0.6007   0.7139  -0.4908   0.00    0.0
2121 173010.000  -2148743.8233   4426640.6811   4044656.2919   6   7   0.5582   0.8036   0.9102  -0.5376   0.6288  -0.4329   0.00    0.0
2121 173040.000  -2148743.7872   4426640.6546   4044656.0614   6   7   0.4975   0.7079   0.7630  -0.4620   0.5268  -0.3642   0.00    0.0
2121 173070.000  -2148743.8614   4426640.6499   4044655.8108   6   7   0.4220   0.5946   0.5842  -0.3627   0.4107  -0.2869   0.00    0.0
2121 173100.000  -2148744.0592   4426640.8019   4044655.8381   6   7   0.3483   0.4972   0.4351  -0.2682   0.3338  -0.2338   0.00    0.0
2121 173130.000  -2148744.1259   4426640.8857   4044655.8689   6   7   0.3302   0.4747   0.4138  -0.2540   0.3210  -0.2243   0.00    0.0
2121 173160.000  -2148744.1500   4426640.8849   4044655.8521   6   7   0.3200   0.4620   0.4047  -0.2495   0.3155  -0.2203   0.00    0.0
2121 173190.000  -2148744.1446   4426640.9523   4044655.8792   6   7   0.3122   0.4521   0.3987  -0.2472   0.3119  -0.2176   0.00    0.0
2121 173220.000  -2148744.1480   4426641.0021   4044655.8767   6   7   0.3056   0.4437   0.3941  -0.2457   0.3091  -0.2154   0.00    0.0
2121 173250.000  -2148744.1489   4426640.9868   4044655.8645   6   7   0.2998   0.4362   0.3901  -0.2444   0.3067  -0.2136   0.00    0.0
2121 173280.000  -2148744.1449   4426640.9850   4044655.8362   6   7   0.2934   0.4282   0.3846  -0.2417   0.3035  -0.2112   0.00    0.0
2121 173310.000  -2148744.1698   4426641.0555   4044655.8574   6   7   0.2854   0.4186   0.3760  -0.2365   0.2987  -0.2076   0.00    0.0
2121 173340.000  -2148744.2370   4426641.0724   4044655.9124   6   7   0.2735   0.4053   0.3606  -0.2261   0.2907  -0.2012   0.00    0.0
2121 173370.000  -2148744.2994   4426641.0789   4044655.9563   6   7   0.2514   0.3836   0.3295  -0.2037   0.2765  -0.1889   0.00    0.0
2121 173400.000  -2148744.3721   4426641.0898   4044655.8312   6   7   0.2177   0.3574   0.2840  -0.1719   0.2615  -0.1704   0.00    0.0
2121 173430.000  -2148744.3805   4426641.0597   4044655.8018   6   7   0.2095   0.3504   0.2768  -0.1670   0.2581  -0.1666   0.00    0.0
2121 173460.000  -2148744.3708   4426641.0453   4044655.7964   6   7   0.2058   0.3463   0.2740  -0.1661   0.2564  -0.1653   0.00    0.0
2121 173490.000  -2148744.3713   4426641.0167   4044655.7918   6   7   0.2033   0.3429   0.2723  -0.1661   0.2552  -0.1646   0.00    0.0
2121 173520.000  -2148744.3679   4426641.0169   4044655.7984   6   7   0.2012   0.3400   0.2711  -0.1664   0.2541  -0.1641   0.00    0.0
2121 173550.000  -2148744.3724   4426640.9849   4044655.7958   6   7   0.1995   0.3373   0.2701  -0.1668   0.2532  -0.1637   0.00    0.0
2121 173580.000  -2148744.3805   4426640.9880   4044655.8056   6   7   0.1974   0.3345   0.2687  -0.1667   0.2521  -0.1631   0.00    0.0
2121 173610.000  -2148744.3779   4426640.9970   4044655.8103   6   7   0.1945   0.3314   0.2664  -0.1658   0.2507  -0.1620   0.00    0.0
2121 173640.000  -2148744.3827   4426640.9974   4044655.8078   6   7   0.1897   0.3273   0.2620  -0.1630   0.2486  -0.1596   0.00    0.0
2121 173670.000  -2148744.4009   4426640.9928   4044655.7953   6   7   0.1789   0.3209   0.2516  -0.1552   0.2444  -0.1534   0.00    0.0
2121 173700.000  -2148744.4901   4426641.0413   4044655.7749   6   7   0.1576   0.3108   0.2294  -0.1392   0.2366  -0.1391   0.00    0.0
2121 173730.000  -2148744.5034   4426641.0573   4044655.7711   6   7   0.1523   0.3072   0.2251  -0.1360   0.2343  -0.1359   0.00    0.0
2121 173760.000  -2148744.5016   4426641.0645   4044655.7659   6   7   0.1502   0.3048   0.2234  -0.1353   0.2329  -0.1349   0.00    0.0
2121 173790.000  -2148744.4943   4426641.0520   4044655.7552   6   7   0.1489   0.3027   0.2223  -0.1352   0.2318  -0.1344   0.00    0.0
2121 173820.000  -2148744.5014   4426641.0403   4044655.7523   6   7   0.1480   0.3009   0.2215  -0.1352   0.2309  -0.1341   0.00    0.0
2121 173850.000  -2148744.5044   4426641.0317   4044655.7525   6   7   0.1472   0.2991   0.2208  -0.1354   0.2300  -0.1339   0.00    0.0
2121 173880.000  -2148744.5162   4426641.0164   4044655.7578   6   7   0.1462   0.2972   0.2199  -0.1353   0.2290  -0.1334   0.00    0.0
2121 173910.000  -2148744.5125   4426641.0278   4044655.7641   6   7   0.1446   0.2952   0.2185  -0.1347   0.2278  -0.1326   0.00    0.0
2121 173940.000  -2148744.5251   4426641.0246   4044655.7751   6   7   0.1417   0.2925   0.2157  -0.1327   0.2258  -0.1305   0.00    0.0
2121 173970.000  -2148744.5388   4426641.0331   4044655.7894   6   7   0.1343   0.2876   0.2084  -0.1266   0.2214  -0.1248   0.00    0.0
2121 174000.000  -2148744.5757   4426641.0823   4044655.7941   6   7   0.1176   0.2779   0.1906  -0.1122   0.2113  -0.1104   0.00    0.0
2121 174030.000  -2148744.5733   4426641.0940   4044655.7757   6   7   0.1138   0.2743   0.1868  -0.1089   0.2083  -0.1072   0.00    0.0
2121 174060.000  -2148744.5800   4426641.0905   4044655.7740   6   7   0.1124   0.2721   0.1851  -0.1080   0.2067  -0.1061   0.00    0.0
2121 174090.000  -2148744.5838   4426641.0925   4044655.7773   6   7   0.1116   0.2703   0.1841  -0.1076   0.2055  -0.1056   0.00    0.0
2121 174120.000  -2148744.5856   4426641.0871   4044655.7752   6   7   0.1110   0.2687   0.1833  -0.1074   0.2045  -0.1053   0.00    0.0
2121 174150.000  -2148744.5889   4426641.0946   4044655.7800   6   7   0.1106   0.2672   0.1827  -0.1074   0.2036  -0.1051   0.00    0.0
2121 174180.000  -2148744.5914   4426641.1058   4044655.7884   6   7   0.1100   0.2656   0.1818  -0.1071   0.2025  -0.1047   0.00    0.0
2121 174210.000  -2148744.5984   4426641.1182   4044655.7954   6   7   0.1090   0.2636   0.1804  -0.1063   0.2010  -0.1038   0.00    0.0
2121 174240.000  -2148744.6020   4426641.1206   4044655.8009   6   7   0.1070   0.2606   0.1778  -0.1042   0.1985  -0.1019   0.00    0.0
2121 174270.000  -2148744.5953   4426641.1166   4044655.8058   6   7   0.1017   0.2546   0.1711  -0.0982   0.1928  -0.0964   0.00    0.0
2121 174300.000  -2148744.6057   4426641.1432   4044655.8145   6   7   0.0897   0.2425   0.1553  -0.0843   0.1805  -0.0835   0.00    0.0
2121 174330.000  -2148744.6281   4426641.1514   4044655.8314   6   7   0.0868   0.2381   0.1513  -0.0807   0.1767  -0.0803   0.00    0.0
2121 174360.000  -2148744.6292   4426641.1526   4044655.8354   6   7   0.0857   0.2359   0.1497  -0.0795   0.1749  -0.0793   0.00    0.0
2121 174390.000  -2148744.6294   4426641.1530   4044655.8391   6   7   0.0852   0.2342   0.1487  -0.0790   0.1737  -0.0787   0.00    0.0
2121 174420.000  -2148744.6296   4426641.1441   4044655.8378   6   7   0.0848   0.2328   0.1480  -0.0788   0.1727  -0.0784   0.00    0.0
2121 174450.000  -2148744.6303   4426641.1385   4044655.8381   6   7   0.0845   0.2315   0.1474  -0.0786   0.1718  -0.0782   0.00    0.0
2121 174480.000  -2148744.6302   4426641.1403   4044655.8400   6   7   0.0841   0.2300   0.1466  -0.0783   0.1708  -0.0779   0.00    0.0
2121 174510.000  -2148744.6307   4426641.1361   4044655.8379   6   7   0.0834   0.2281   0.1453  -0.0774   0.1693  -0.0771   0.00    0.0
2121 174540.000  -2148744.6313   4426641.1308   4044655.8331   6   7   0.0820   0.2249   0.1428  -0.0753   0.1666  -0.0753   0.00    0.0
2121 174570.000  -2148744.6338   4426641.1304   4044655.8292   6   7   0.0783   0.2183   0.1368  -0.0695   0.1605  -0.0707   0.00    0.0
2121 174600.000  -2148744.6332   4426641.1432   4044655.8178   6   7   0.0699   0.2053   0.1234  -0.0568   0.1482  -0.0601   0.00    0.0
2121 174630.000  -2148744.6390   4426641.1507   4044655.8215   6   7   0.0678   0.2008   0.1198  -0.0531   0.1443  -0.0574   0.00    0.0
2121 174660.000  -2148744.6378   4426641.1497   4044655.8201   6   7   0.0670   0.1986   0.1183  -0.0519   0.1426  -0.0564   0.00    0.0
2121 174690.000  -2148744.6386   4426641.1597   4044655.8247   6   7   0.0666   0.1972   0.1175  -0.0514   0.1415  -0.0560   0.00    0.0
2121 174720.000  -2148744.6385   4426641.1675   4044655.8282   6   7   0.0664   0.1960   0.1168  -0.0511   0.1407  -0.0557   0.00    0.0
2121 174750.000  -2148744.6384   4426641.1671   4044655.8282   6   7   0.0662   0.1950   0.1164  -0.0510   0.1400  -0.0556   0.00    0.0
2121 174780.000  -2148744.6384   4426641.1708   4044655.8305   6   7   0.0659   0.1937   0.1157  -0.0507   0.1391  -0.0553   0.00    0.0
2121 174810.000  -2148744.6377   4426641.1746   4044655.8334   6   7   0.0654   0.1919   0.1146  -0.0498   0.1377  -0.0546   0.00    0.0
2121 174840.000  -2148744.6402   4426641.1911   4044655.8456   6   7   0.0644   0.1890   0.1124  -0.0477   0.1352  -0.0532   0.00    0.0
2121 174870.000  -2148744.6471   4426641.1971   4044655.8492   6   7   0.0620   0.1827   0.1075  -0.0421   0.1297  -0.0495   0.00    0.0
2121 174900.000  -2148744.6593   4426641.2077   4044655.8433   6   7   0.0561   0.1708   0.0969  -0.0301   0.1191  -0.0414   0.00    0.0
2121 174930.000  -2148744.6634   4426641.2062   4044655.8432   6   7   0.0546   0.1667   0.0940  -0.0260   0.1157  -0.0392   0.00    0.0
2121 174960.000  -2148744.6621   4426641.2004   4044655.8387   6   7   0.0541   0.1649   0.0928  -0.0245   0.1142  -0.0385   0.00    0.0
2121 174990.000  -2148744.6608   4426641.1973   4044655.8359   6   7   0.0538   0.1637   0.0921  -0.0239   0.1133  -0.0381   0.00    0.0
2121 175020.000  -2148744.6594   4426641.1968   4044655.8339   6   7   0.0536   0.1628   0.0916  -0.0237   0.1126  -0.0379   0.00    0.0
2121 175050.000  -2148744.6583   4426641.2030   4044655.8359   6   7   0.0535   0.1620   0.0912  -0.0236   0.1121  -0.0378   0.00    0.0
2121 175080.000  -2148744.6579   4426641.2049   4044655.8361   6   7   0.0533   0.1610   0.0907  -0.0232   0.1114  -0.0376   0.00    0.0
2121 175110.000  -2148744.6595   4426641.2138   4044655.8405   6   7   0.0530   0.1595   0.0898  -0.0222   0.1102  -0.0371   0.00    0.0
2121 175140.000  -2148744.6625   4426641.2210   4044655.8467   6   7   0.0523   0.1570   0.0881  -0.0197   0.1082  -0.0359   0.00    0.0
2121 175170.000  -2148744.6669   4426641.2293   4044655.8482   6   7   0.0507   0.1518   0.0843  -0.0115   0.1037  -0.0332   0.00    0.0
2121 175200.000  -2148744.6712   4426641.2449   4044655.8505   6   7   0.0468   0.1423   0.0764   0.0165   0.0955  -0.0272   0.00    0.0
2121 175230.000  -2148744.6686   4426641.2504   4044655.8527   6   7   0.0458   0.1389   0.0741   0.0198   0.0927  -0.0255   0.00    0.0
2121 175260.000  -2148744.6677   4426641.2594   4044655.8578   6   7   0.0454   0.1373   0.0731   0.0207   0.0915  -0.0248   0.00    0.0
2121 175290.000  -2148744.6677   4426641.2594   4044655.8590   6   7   0.0452   0.1364   0.0726   0.0210   0.0908  -0.0245   0.00    0.0
2121 175320.000  -2148744.6674   4426641.2591   4044655.8593   6   7   0.0451   0.1357   0.0722   0.0211   0.0903  -0.0244   0.00    0.0
2121 175350.000  -2148744.6676   4426641.2579   4044655.8589   6   7   0.0450   0.1351   0.0720   0.0211   0.0899  -0.0243   0.00    0.0
2121 175380.000  -2148744.6672   4426641.2630   4044655.8608   6   7   0.0448   0.1343   0.0715   0.0212   0.0893  -0.0241   0.00    0.0
2121 175410.000  -2148744.6660   4426641.2727   4044655.8642   6   7   0.0446   0.1332   0.0709   0.0217   0.0884  -0.0238   0.00    0.0
2121 175440.000  -2148744.6652   4426641.2858   4044655.8691   6   7   0.0442   0.1312   0.0696   0.0228   0.0868  -0.0229   0.00    0.0
2121 175470.000  -2148744.6647   4426641.2925   4044655.8693   6   7   0.0431   0.1271   0.0668   0.0252   0.0834  -0.0208   0.00    0.0
2121 175500.000  -2148744.6683   4426641.2930   4044655.8653   6   6   0.0405   0.1236   0.0634   0.0264   0.0806  -0.0179   0.00    0.0
2121 175530.000  -2148744.6571   4426641.2911   4044655.8589   6   6   0.0399   0.1226   0.0626   0.0265   0.0799  -0.0174   0.00    0.0
2121 175560.000  -2148744.6539   4426641.2933   4044655.8571   6   6   0.0397   0.1221   0.0623   0.0265   0.0796  -0.0172   0.00    0.0
2121 175590.000  -2148744.6525   4426641.2954   4044655.8571   6   6   0.0395   0.1218   0.0622   0.0264   0.0794  -0.0172   0.00    0.0
2121 175620.000  -2148744.6509   4426641.3007   4044655.8590   6   6   0.0395   0.1215   0.0621   0.0262   0.0792  -0.0172   0.00    0.0
2121 175650.000  -2148744.6503   4426641.3026   4044655.8596   6   6   0.0394   0.1213   0.0620   0.0261   0.0790  -0.0172   0.00    0.0
2121 175680.000  -2148744.6507   4426641.3001   4044655.8587   6   6   0.0393   0.1210   0.0618   0.0260   0.0789  -0.0173   0.00    0.0
2121 175710.000  -2148744.6495   4426641.2997   4044655.8576   6   6   0.0392   0.1206   0.0616   0.0259   0.0787  -0.0172   0.00    0.0
2121 175740.000  -2148744.6469   4426641.3027   4044655.8567   6   6   0.0389   0.1201   0.0613   0.0259   0.0783  -0.0170   0.00    0.0
2121 175770.000  -2148744.6448   4426641.3052   4044655.8542   6   6   0.0382   0.1190   0.0604   0.0261   0.0775  -0.0163   0.00    0.0
2121 175800.000  -2148744.6495   4426641.3112   4044655.8556   6   6   0.0362   0.1159   0.0576   0.0267   0.0750  -0.0138   0.00    0.0
2121 175830.000  -2148744.6530   4426641.3128   4044655.8545   6   6   0.0357   0.1150   0.0569   0.0268   0.0743  -0.0133   0.00    0.0
2121 175860.000  -2148744.6545   4426641.3087   4044655.8514   6   6   0.0355   0.1146   0.0567   0.0267   0.0740  -0.0132   0.00    0.0
2121 175890.000  -2148744.6558   4426641.3069   4044655.8501   6   6   0.0354   0.1143   0.0565   0.0266   0.0739  -0.0132   0.00    0.0
2121 175920.000  -2148744.6566   4426641.3047   4044655.8492   6   6   0.0354   0.1141   0.0564   0.0265   0.0737  -0.0132   0.00    0.0
2121 175950.000  -2148744.6569   4426641.3051   4044655.8493   6   6   0.0353   0.1139   0.0563   0.0264   0.0736  -0.0133   0.00    0.0
2121 175980.000  -2148744.6572   4426641.3057   4044655.8492   6   6   0.0352   0.1136   0.0562   0.0263   0.0734  -0.0133   0.00    0.0
2121 176010.000  -2148744.6572   4426641.3072   4044655.8496   6   6   0.0351   0.1133   0.0561   0.0262   0.0732  -0.0133   0.00    0.0
2121 176040.000  -2148744.6589   4426641.3070   4044655.8510   6   6   0.0350   0.1129   0.0558   0.0261   0.0729  -0.0131   0.00    0.0
2121 176070.000  -2148744.6644   4426641.3014   4044655.8492   6   6   0.0344   0.1119   0.0550   0.0262   0.0721  -0.0125   0.00    0.0
2121 176100.000  -2148744.6657   4426641.3078   4044655.8551   6   6   0.0329   0.1089   0.0525   0.0266   0.0698  -0.0104   0.00    0.0
2121 176130.000  -2148744.6641   4426641.3130   4044655.8574   6   6   0.0325   0.1081   0.0519   0.0266   0.0692  -0.0100   0.00    0.0
2121 176160.000  -2148744.6636   4426641.3128   4044655.8573   6   6   0.0324   0.1077   0.0517   0.0265   0.0689  -0.0099   0.00    0.0
2121 176190.000  -2148744.6641   4426641.3136   4044655.8580   6   6   0.0323   0.1074   0.0516   0.0265   0.0687  -0.0099   0.00    0.0
2121 176220.000  -2148744.6644   4426641.3140   4044655.8588   6   6   0.0323   0.1072   0.0515   0.0264   0.0686  -0.0099   0.00    0.0
2121 176250.000  -2148744.6645   4426641.3149   4044655.8593   6   6   0.0322   0.1070   0.0514   0.0263   0.0685  -0.0100   0.00    0.0
2121 176280.000  -2148744.6645   4426641.3164   4044655.8601   6   6   0.0322   0.1068   0.0513   0.0262   0.0684  -0.0100   0.00    0.0
2121 176310.000  -2148744.6648   4426641.3189   4044655.8619   6   6   0.0321   0.1065   0.0512   0.0261   0.0682  -0.0100   0.00    0.0
2121 176340.000  -2148744.6658   4426641.3194   4044655.8630   6   6   0.0320   0.1061   0.0509   0.0261   0.0678  -0.0098   0.00    0.0
2121 176370.000  -2148744.6669   4426641.3207   4044655.8647   6   6   0.0316   0.1050   0.0501   0.0262   0.0670  -0.0093   0.00    0.0
2121 176400.000  -2148744.6691   4426641.3193   4044655.8671   6   6   0.0304   0.1021   0.0479   0.0265   0.0647  -0.0070   0.00    0.0
2121 176430.000  -2148744.6720   4426641.3217   4044655.8710   6   6   0.0301   0.1013   0.0473   0.0265   0.0641  -0.0065   0.00    0.0
2121 176460.000  -2148744.6730   4426641.3243   4044655.8736   6   6   0.0300   0.1009   0.0471   0.0265   0.0638  -0.0064   0.00    0.0
2121 176490.000  -2148744.6732   4426641.3252   4044655.8748   6   7   0.0299   0.1006   0.0470   0.0264   0.0636  -0.0064   0.00    0.0
2121 176520.000  -2148744.6729   4426641.3265   4044655.8754   6   7   0.0299   0.1004   0.0469   0.0263   0.0635  -0.0064   0.00    0.0
2121 176550.000  -2148744.6734   4426641.3232   4044655.8741   6   7   0.0298   0.1002   0.0468   0.0263   0.0634  -0.0065   0.00    0.0
2121 176580.000  -2148744.6736   4426641.3208   4044655.8728   6   7   0.0298   0.1000   0.0467   0.0262   0.0632  -0.0065   0.00    0.0
2121 176610.000  -2148744.6754   4426641.3149   4044655.8707   6   7   0.0297   0.0997   0.0465   0.0261   0.0630  -0.0065   0.00    0.0
2121 176640.000  -2148744.6775   4426641.3066   4044655.8672   6   7   0.0296   0.0992   0.0462   0.0261   0.0626  -0.0063   0.00    0.0
2121 176670.000  -2148744.6795   4426641.2950   4044655.8616   6   7   0.0293   0.0980   0.0455   0.0262   0.0617  -0.0056   0.00    0.0
2121 176700.000  -2148744.6789   4426641.2913   4044655.8597   6   7   0.0284   0.0950   0.0434   0.0266   0.0594  -0.0008   0.00    0.0
2121 176730.000  -2148744.6776   4426641.2940   4044655.8612   6   7   0.0281   0.0940   0.0428   0.0266   0.0586   0.0022   0.00    0.0
2121 176760.000  -2148744.6761   4426641.2934   4044655.8598   6   7   0.0281   0.0935   0.0425   0.0266   0.0583   0.0025   0.00    0.0
2121 176790.000  -2148744.6756   4426641.2896   4044655.8578   6   7   0.0280   0.0933   0.0424   0.0266   0.0581   0.0025   0.00    0.0
2121 176820.000  -2148744.6753   4426641.2872   4044655.8565   6   7   0.0280   0.0930   0.0423   0.0265   0.0580   0.0024   0.00    0.0
2121 176850.000  -2148744.6746   4426641.2890   4044655.8567   6   7   0.0280   0.0929   0.0422   0.0265   0.0579   0.0023   0.00    0.0
2121 176880.000  -2148744.6741   4426641.2879   4044655.8557   6   7   0.0279   0.0926   0.0421   0.0264   0.0577   0.0023   0.00    0.0
2121 176910.000  -2148744.6743   4426641.2847   4044655.8541   6   7   0.0279   0.0923   0.0419   0.0264   0.0575   0.0024   0.00    0.0
2121 176940.000  -2148744.6738   4426641.2844   4044655.8524   6   7   0.0278   0.0917   0.0416   0.0264   0.0570   0.0029   0.00    0.0
2121 176970.000  -2148744.6725   4426641.2799   4044655.8493   6   7   0.0275   0.0904   0.0408   0.0266   0.0560   0.0041   0.00    0.0
2121 177000.000  -2148744.6732   4426641.2862   4044655.8530   6   7   0.0268   0.0874   0.0388   0.0270   0.0537   0.0066   0.00    0.0
2121 177030.000  -2148744.6734   4426641.2851   4044655.8536   6   7   0.0266   0.0863   0.0382   0.0271   0.0529   0.0070   0.00    0.0
2121 177060.000  -2148744.6731   4426641.2793   4044655.8507   6   7   0.0265   0.0859   0.0379   0.0271   0.0526   0.0071   0.00    0.0
2121 177090.000  -2148744.6735   4426641.2779   4044655.8503   6   7   0.0265   0.0856   0.0378   0.0271   0.0523   0.0072   0.00    0.0
2121 177120.000  -2148744.6738   4426641.2757   4044655.8495   6   7   0.0264   0.0854   0.0377   0.0270   0.0522   0.0071   0.00    0.0
2121 177150.000  -2148744.6740   4426641.2740   4044655.8487   6   7   0.0264   0.0852   0.0376   0.0270   0.0521   0.0071   0.00    0.0
2121 177180.000  -2148744.6739   4426641.2731   4044655.8483   6   7   0.0264   0.0850   0.0375   0.0270   0.0519   0.0071   0.00    0.0
2121 177210.000  -2148744.6737   4426641.2732   4044655.8486   6   7   0.0264   0.0846   0.0373   0.0270   0.0517   0.0072   0.00    0.0
2121 177240.000  -2148744.6740   4426641.2676   4044655.8465   6   7   0.0263   0.0840   0.0370   0.0270   0.0512   0.0074   0.00    0.0
2121 177270.000  -2148744.6747   4426641.2608   4044655.8436   6   7   0.0261   0.0826   0.0361   0.0271   0.0501   0.0079   0.00    0.0
2121 177300.000  -2148744.6766   4426641.2702   4044655.8504   6   7   0.0255   0.0799   0.0344   0.0275   0.0481   0.0091   0.00    0.0
2121 177330.000  -2148744.6780   4426641.2798   4044655.8572   6   7   0.0253   0.0789   0.0338   0.0276   0.0473   0.0094   0.00    0.0
2121 177360.000  -2148744.6776   4426641.2812   4044655.8583   6   6   0.0253   0.0787   0.0337   0.0276   0.0472   0.0095   0.00    0.0
2121 177390.000  -2148744.6776   4426641.2822   4044655.8587   6   6   0.0252   0.0786   0.0337   0.0276   0.0471   0.0095   0.00    0.0
2121 177420.000  -2148744.6772   4426641.2829   4044655.8589   6   6   0.0252   0.0785   0.0337   0.0276   0.0471   0.0095   0.00    0.0
2121 177450.000  -2148744.6772   4426641.2825   4044655.8588   6   6   0.0252   0.0784   0.0336   0.0276   0.0470   0.0095   0.00    0.0
2121 177480.000  -2148744.6769   4426641.2838   4044655.8595   6   6   0.0252   0.0783   0.0336   0.0275   0.0470   0.0095   0.00    0.0
2121 177510.000  -2148744.6770   4426641.2846   4044655.8603   6   6   0.0251   0.0782   0.0335   0.0275   0.0469   0.0095   0.00    0.0
2121 177540.000  -2148744.6780   4426641.2860   4044655.8618   6   6   0.0251   0.0781   0.0335   0.0275   0.0468   0.0096   0.00    0.0
2121 177570.000  -2148744.6805   4426641.2888   4044655.8651   6   6   0.0249   0.0777   0.0332   0.0276   0.0466   0.0098   0.00    0.0
2121 177600.000  -2148744.6831   4426641.2892   4044655.8676   6   6   0.0244   0.0766   0.0325   0.0279   0.0458   0.0106   0.00    0.0
2121 177630.000  -2148744.6825   4426641.2935   4044655.8691   6   6   0.0243   0.0763   0.0323   0.0280   0.0456   0.0108   0.00    0.0
2121 177660.000  -2148744.6827   4426641.2957   4044655.8700   6   6   0.0242   0.0762   0.0322   0.0280   0.0456   0.0108   0.00    0.0
2121 177690.000  -2148744.6828   4426641.2974   4044655.8709   6   6   0.0242   0.0761   0.0322   0.0279   0.0455   0.0108   0.00    0.0
2121 177720.000  -2148744.6830   4426641.2990   4044655.8715   6   6   0.0242   0.0760   0.0322   0.0279   0.0455   0.0108   0.00    0.0
2121 177750.000  -2148744.6834   4426641.2991   4044655.8715   6   6   0.0242   0.0759   0.0322   0.0279   0.0454   0.0108   0.00    0.0
2121 177780.000  -2148744.6837   4426641.2991   4044655.8716   6   6   0.0242   0.0759   0.0321   0.0279   0.0454   0.0108   0.00    0.0
2121 177810.000  -2148744.6843   4426641.3003   4044655.8724   6   6   0.0241   0.0758   0.0321   0.0279   0.0453   0.0108   0.00    0.0
2121 177840.000  -2148744.6849   4426641.3020   4044655.8733   6   6   0.0241   0.0756   0.0320   0.0279   0.0452   0.0109   0.00    0.0
2121 177870.000  -2148744.6860   4426641.3056   4044655.8751   6   6   0.0239   0.0753   0.0318   0.0279   0.0451   0.0110   0.00    0.0
2121 177900.000  -2148744.6872   4426641.3092   4044655.8777   6   6   0.0236   0.0745   0.0313   0.0281   0.0445   0.0116   0.00    0.0
2121 177930.000  -2148744.6876   4426641.3104   4044655.8791   6   6   0.0235   0.0742   0.0311   0.0282   0.0444   0.0117   0.00    0.0
2121 177960.000  -2148744.6876   4426641.3086   4044655.8787   6   6   0.0234   0.0741   0.0311   0.0282   0.0443   0.0117   0.00    0.0
2121 177990.000  -2148744.6876   4426641.3094   4044655.8792   6   6   0.0234   0.0740   0.0311   0.0281   0.0443   0.0117   0.00    0.0
2121 178020.000  -2148744.6877   4426641.3096   4044655.8794   6   6   0.0234   0.0740   0.0310   0.0281   0.0442   0.0117   0.00    0.0
2121 178050.000  -2148744.6885   4426641.3071   4044655.8787   6   6   0.0234   0.0739   0.0310   0.0281   0.0442   0.0117   0.00    0.0
2121 178080.000  -2148744.6885   4426641.3085   4044655.8794   6   6   0.0233   0.0738   0.0310   0.0281   0.0442   0.0117   0.00    0.0
2121 178110.000  -2148744.6894   4426641.3091   4044655.8799   6   6   0.0233   0.0738   0.0310   0.0280   0.0441   0.0117   0.00    0.0
2121 178140.000  -2148744.6905   4426641.3105   4044655.8812   6   6   0.0233   0.0736   0.0309   0.0280   0.0441   0.0117   0.00    0.0
2121 178170.000  -2148744.6928   4426641.3110   4044655.8826   6   6   0.0232   0.0734   0.0308   0.0281   0.0439   0.0118   0.00    0.0
2121 178200.000  -2148744.6924   4426641.3158   4044655.8845   6   6   0.0228   0.0728   0.0304   0.0282   0.0436   0.0122   0.00    0.0
2121 178230.000  -2148744.6907   4426641.3157   4044655.8833   6   6   0.0227   0.0726   0.0303   0.0282   0.0435   0.0123   0.00    0.0
2121 178260.000  -2148744.6901   4426641.3150   4044655.8825   6   6   0.0227   0.0725   0.0302   0.0282   0.0434   0.0123   0.00    0.0
2121 178290.000  -2148744.6897   4426641.3156   4044655.8825   6   6   0.0227   0.0724   0.0302   0.0282   0.0434   0.0123   0.00    0.0
2121 178320.000  -2148744.6896   4426641.3156   4044655.8825   6   6   0.0227   0.0724   0.0302   0.0282   0.0433   0.0123   0.00    0.0
2121 178350.000  -2148744.6899   4426641.3143   4044655.8821   6   6   0.0227   0.0723   0.0302   0.0282   0.0433   0.0123   0.00    0.0
2121 178380.000  -2148744.6898   4426641.3148   4044655.8822   6   6   0.0226   0.0723   0.0301   0.0281   0.0433   0.0123   0.00    0.0
2121 178410.000  -2148744.6899   4426641.3159   4044655.8825   6   6   0.0226   0.0722   0.0301   0.0281   0.0432   0.0123   0.00    0.0
2121 178440.000  -2148744.6901   4426641.3156   4044655.8821   6   6   0.0226   0.0721   0.0301   0.0281   0.0432   0.0123   0.00    0.0
2121 178470.000  -2148744.6909   4426641.3153   4044655.8815   6   6   0.0225   0.0719   0.0300   0.0281   0.0431   0.0124   0.00    0.0
2121 178500.000  -2148744.6917   4426641.3180   4044655.8831   6   6   0.0222   0.0715   0.0297   0.0282   0.0429   0.0126   0.00    0.0
2121 178530.000  -2148744.6922   4426641.3174   4044655.8834   6   7   0.0221   0.0713   0.0297   0.0282   0.0428   0.0127   0.00    0.0
2121 178560.000  -2148744.6931   4426641.3155   4044655.8831   6   7   0.0221   0.0712   0.0296   0.0282   0.0428   0.0127   0.00    0.0
2121 178590.000  -2148744.6934   4426641.3143   4044655.8828   6   7   0.0221   0.0712   0.0296   0.0281   0.0428   0.0127   0.00    0.0
2121 178620.000  -2148744.6936   4426641.3140   4044655.8827   6   7   0.0221   0.0711   0.0296   0.0281   0.0427   0.0127   0.00    0.0
2121 178650.000  -2148744.6932   4426641.3157   4044655.8832   6   7   0.0221   0.0711   0.0296   0.0281   0.0427   0.0126   0.00    0.0
2121 178680.000  -2148744.6930   4426641.3163   4044655.8835   6   7   0.0220   0.0710   0.0296   0.0281   0.0427   0.0126   0.00    0.0
2121 178710.000  -2148744.6934   4426641.3155   4044655.8834   6   7   0.0220   0.0710   0.0295   0.0280   0.0426   0.0126   0.00    0.0
2121 178740.000  -2148744.6931   4426641.3186   4044655.8847   6   8   0.0220   0.0709   0.0295   0.0280   0.0426   0.0126   0.00    0.0
2121 178770.000  -2148744.6938   4426641.3191   4044655.8853   6   8   0.0219   0.0707   0.0295   0.0280   0.0426   0.0127   0.00    0.0
2121 178800.000  -2148744.6947   4426641.3181   4044655.8869   6   8   0.0217   0.0704   0.0293   0.0280   0.0424   0.0129   0.00    0.0
2121 178830.000  -2148744.6945   4426641.3180   4044655.8872   6   8   0.0216   0.0702   0.0292   0.0280   0.0424   0.0129   0.00    0.0
2121 178860.000  -2148744.6939   4426641.3200   4044655.8878   6   8   0.0215   0.0702   0.0292   0.0279   0.0423   0.0129   0.00    0.0
2121 178890.000  -2148744.6937   4426641.3200   4044655.8877   6   8   0.0215   0.0701   0.0292   0.0279   0.0423   0.0129   0.00    0.0
2121 178920.000  -2148744.6930   4426641.3216   4044655.8881   6   8   0.0215   0.0700   0.0292   0.0279   0.0423   0.0129   0.00    0.0
2121 178950.000  -2148744.6930   4426641.3214   4044655.8880   6   8   0.0215   0.0700   0.0292   0.0279   0.0423   0.0128   0.00    0.0
2121 178980.000  -2148744.6926   4426641.3223   4044655.8883   6   8   0.0215   0.0699   0.0292   0.0278   0.0422   0.0128   0.00    0.0
2121 179010.000  -2148744.6921   4426641.3235   4044655.8888   6   8   0.0215   0.0699   0.0291   0.0278   0.0422   0.0128   0.00    0.0
2121 179040.000  -2148744.6916   4426641.3244   4044655.8893   6   8   0.0214   0.0698   0.0291   0.0278   0.0422   0.0128   0.00    0.0
2121 179070.000  -2148744.6921   4426641.3230   4044655.8896   6   8   0.0213   0.0697   0.0291   0.0277   0.0421   0.0129   0.00    0.0
2121 179100.000  -2148744.6941   4426641.3213   4044655.8908   6   8   0.0211   0.0693   0.0289   0.0277   0.0420   0.0130   0.00    0.0
2121 179130.000  -2148744.6953   4426641.3212   4044655.8911   6   8   0.0210   0.0692   0.0289   0.0276   0.0420   0.0130   0.00    0.0
2121 179160.000  -2148744.6945   4426641.3221   4044655.8911   6   9   0.0210   0.0691   0.0289   0.0276   0.0419   0.0130   0.00    0.0
2121 179190.000  -2148744.6941   4426641.3219   4044655.8910   6   9   0.0210   0.0691   0.0289   0.0275   0.0419   0.0130   0.00    0.0
2121 179220.000  -2148744.6939   4426641.3218   4044655.8908   6   9   0.0209   0.0690   0.0288   0.0275   0.0419   0.0129   0.00    0.0
2121 179250.000  -2148744.6939   4426641.3212   4044655.8906   6   9   0.0209   0.0690   0.0288   0.0275   0.0419   0.0129   0.00    0.0
2121 179280.000  -2148744.6938   4426641.3215   4044655.8907   6   9   0.0209   0.0689   0.0288   0.0275   0.0418   0.0129   0.00    0.0
2121 179310.000  -2148744.6937   4426641.3223   4044655.8910   6   9   0.0209   0.0688   0.0288   0.0274   0.0418   0.0129   0.00    0.0
2121 179340.000  -2148744.6948   4426641.3209   4044655.8910   6   9   0.0209   0.0688   0.0288   0.0274   0.0418   0.0129   0.00    0.0
2121 179370.000  -2148744.6973   4426641.3178   4044655.8908   6   9   0.0207   0.0686   0.0287   0.0273   0.0417   0.0129   0.00    0.0
2121 179400.000  -2148744.6990   4426641.3153   4044655.8914   6   9   0.0205   0.0682   0.0286   0.0271   0.0416   0.0130   0.00    0.0
2121 179430.000  -2148744.6994   4426641.3147   4044655.8919   6   9   0.0204   0.0680   0.0286   0.0271   0.0415   0.0130   0.00    0.0
2121 179460.000  -2148744.6993   4426641.3160   4044655.8928   6   9   0.0204   0.0679   0.0285   0.0270   0.0415   0.0129   0.00    0.0
2121 179490.000  -2148744.6993   4426641.3163   4044655.8931   6   9   0.0203   0.0679   0.0285   0.0270   0.0415   0.0129   0.00    0.0
2121 179520.000  -2148744.6990   4426641.3171   4044655.8935   6   9   0.0203   0.0678   0.0285   0.0270   0.0414   0.0129   0.00    0.0
2121 179550.000  -2148744.6994   4426641.3156   4044655.8930   6   9   0.0203   0.0678   0.0285   0.0269   0.0414   0.0129   0.00    0.0
2121 179580.000  -2148744.6995   4426641.3148   4044655.8927   6   9   0.0203   0.0677   0.0285   0.0269   0.0414   0.0129   0.00    0.0
2121 179610.000  -2148744.6998   4426641.3136   4044655.8923   6   9   0.0203   0.0676   0.0285   0.0269   0.0413   0.0129   0.00    0.0
2121 179640.000  -2148744.7003   4426641.3114   4044655.8916   6   9   0.0202   0.0675   0.0284   0.0268   0.0413   0.0129   0.00    0.0
2121 179670.000  -2148744.6999   4426641.3114   4044655.8908   6   9   0.0201   0.0673   0.0284   0.0267   0.0412   0.0128   0.00    0.0
2121 179700.000  -2148744.7019   4426641.3070   4044655.8901   6   9   0.0198   0.0667   0.0282   0.0264   0.0409   0.0128   0.00    0.0
2121 179730.000  -2148744.7046   4426641.3050   4044655.8895   6   9   0.0197   0.0664   0.0281   0.0263   0.0408   0.0128   0.00    0.0
2121 179760.000  -2148744.7058   4426641.3044   4044655.8892   6   9   0.0197   0.0663   0.0281   0.0262   0.0408   0.0127   0.00    0.0
2121 179790.000  -2148744.7063   4426641.3038   4044655.8890   6   9   0.0196   0.0663   0.0281   0.0262   0.0408   0.0127   0.00    0.0
2121 179820.000  -2148744.7067   4426641.3031   4044655.8888   6   9   0.0196   0.0662   0.0281   0.0262   0.0407   0.0127   0.00    0.0
2121 179850.000  -2148744.7070   4426641.3025   4044655.8886   6   9   0.0196   0.0662   0.0280   0.0261   0.0407   0.0127   0.00    0.0
2121 179880.000  -2148744.7072   4426641.3012   4044655.8882   6   9   0.0196   0.0661   0.0280   0.0261   0.0407   0.0127   0.00    0.0
2121 179910.000  -2148744.7072   4426641.3008   4044655.8881   6   9   0.0196   0.0660   0.0280   0.0261   0.0406   0.0127   0.00    0.0
2121 179940.000  -2148744.7072   4426641.2982   4044655.8873   6   9   0.0195   0.0659   0.0279   0.0260   0.0405   0.0126   0.00    0.0
2121 179970.000  -2148744.7073   4426641.2943   4044655.8858   6   9   0.0194   0.0655   0.0278   0.0258   0.0404   0.0126   0.00    0.0
2121 180000.000  -2148744.7067   4426641.2909   4044655.8837   6   9   0.0190   0.0645   0.0276   0.0253   0.0399   0.0124   0.00    0.0
2121 180030.000  -2148744.7049   4426641.2917   4044655.8830   6   9   0.0189   0.0642   0.0275   0.0252   0.0398   0.0124   0.00    0.0
2121 180060.000  -2148744.7043   4426641.2923   4044655.8828   6   9   0.0189   0.0641   0.0274   0.0251   0.0397   0.0123   0.00    0.0
2121 180090.000  -2148744.7042   4426641.2917   4044655.8824   6   9   0.0189   0.0640   0.0274   0.0251   0.0396   0.0123   0.00    0.0
2121 180120.000  -2148744.7041   4426641.2914   4044655.8821   6   9   0.0188   0.0639   0.0274   0.0250   0.0396   0.0123   0.00    0.0
2121 180150.000  -2148744.7040   4426641.2918   4044655.8821   6   9   0.0188   0.0639   0.0273   0.0250   0.0396   0.0123   0.00    0.0
2121 180180.000  -2148744.7037   4426641.2923   4044655.8823   6   9   0.0188   0.0638   0.0273   0.0250   0.0395   0.0123   0.00    0.0
2121 180210.000  -2148744.7031   4426641.2931   4044655.8823   6   9   0.0188   0.0637   0.0273   0.0249   0.0394   0.0122   0.00    0.0
2121 180240.000  -2148744.7028   4426641.2929   4044655.8822   6   9   0.0187   0.0635   0.0272   0.0248   0.0393   0.0122   0.00    0.0
2121 180270.000  -2148744.7034   4426641.2880   4044655.8801   6   9   0.0186   0.0630   0.0270   0.0246   0.0390   0.0121   0.00    0.0
2121 180300.000  -2148744.7039   4426641.2791   4044655.8761   6   9   0.0182   0.0616   0.0266   0.0239   0.0384   0.0118   0.00    0.0
2121 180330.000  -2148744.7029   4426641.2766   4044655.8742   6   9   0.0181   0.0612   0.0265   0.0238   0.0381   0.0117   0.00    0.0
2121 180360.000  -2148744.7023   4426641.2762   4044655.8735   6   9   0.0180   0.0610   0.0264   0.0237   0.0380   0.0117   0.00    0.0
2121 180390.000  -2148744.7022   4426641.2762   4044655.8731   6   9   0.0180   0.0609   0.0264   0.0236   0.0379   0.0116   0.00    0.0
2121 180420.000  -2148744.7019   4426641.2772   4044655.8731   6   9   0.0180   0.0608   0.0263   0.0236   0.0379   0.0116   0.00    0.0
2121 180450.000  -2148744.7019   4426641.2769   4044655.8728   6   9   0.0180   0.0607   0.0263   0.0236   0.0378   0.0116   0.00    0.0
2121 180480.000  -2148744.7018   4426641.2770   4044655.8725   6   9   0.0180   0.0606   0.0263   0.0235   0.0378   0.0116   0.00    0.0
2121 180510.000  -2148744.7015   4426641.2772   4044655.8722   6   9   0.0179   0.0605   0.0262   0.0235   0.0377   0.0116   0.00    0.0
2121 180540.000  -2148744.7020   4426641.2751   4044655.8715   6   8   0.0179   0.0603   0.0262   0.0234   0.0376   0.0115   0.00    0.0
2121 180570.000  -2148744.7029   4426641.2694   4044655.8693   6   8   0.0177   0.0597   0.0260   0.0231   0.0373   0.0113   0.00    0.0
2121 180600.000  -2148744.7036   4426641.2656   4044655.8688   6   8   0.0173   0.0583   0.0257   0.0222   0.0366   0.0109   0.00    0.0
2121 180630.000  -2148744.7036   4426641.2678   4044655.8692   6   8   0.0172   0.0578   0.0256   0.0220   0.0364   0.0107   0.00    0.0
2121 180660.000  -2148744.7035   4426641.2671   4044655.8686   6   8   0.0171   0.0576   0.0255   0.0219   0.0363   0.0107   0.00    0.0
2121 180690.000  -2148744.7034   4426641.2674   4044655.8686   6   8   0.0171   0.0575   0.0255   0.0219   0.0362   0.0107   0.00    0.0
2121 180720.000  -2148744.7035   4426641.2668   4044655.8682   6   8   0.0171   0.0574   0.0255   0.0218   0.0362   0.0106   0.00    0.0
2121 180750.000  -2148744.7035   4426641.2664   4044655.8680   6   8   0.0171   0.0574   0.0255   0.0218   0.0362   0.0106   0.00    0.0
2121 180780.000  -2148744.7034   4426641.2664   4044655.8678   6   8   0.0171   0.0573   0.0255   0.0218   0.0361   0.0106   0.00    0.0
2121 180810.000  -2148744.7034   4426641.2655   4044655.8672   6   8   0.0170   0.0572   0.0254   0.0217   0.0360   0.0106   0.00    0.0
2121 180840.000  -2148744.7033   4426641.2644   4044655.8666   6   8   0.0170   0.0569   0.0253   0.0216   0.0359   0.0105   0.00    0.0
2121 180870.000  -2148744.7042   4426641.2618   4044655.8663   6   8   0.0168   0.0562   0.0251   0.0213   0.0355   0.0103   0.00    0.0
2121 180900.000  -2148744.7053   4426641.2581   4044655.8658   6   8   0.0164   0.0545   0.0247   0.0203   0.0347   0.0097   0.00    0.0
2121 180930.000  -2148744.7060   4426641.2594   4044655.8663   6   8   0.0163   0.0540   0.0245   0.0201   0.0344   0.0096   0.00    0.0
2121 180960.000  -2148744.7058   4426641.2617   4044655.8669   6   8   0.0163   0.0538   0.0245   0.0200   0.0342   0.0095   0.00    0.0
2121 180990.000  -2148744.7057   4426641.2627   4044655.8672   6   7   0.0162   0.0537   0.0244   0.0199   0.0342   0.0095   0.00    0.0
2121 181020.000  -2148744.7054   4426641.2643   4044655.8678   6   7   0.0162   0.0536   0.0244   0.0199   0.0342   0.0095   0.00    0.0
2121 181050.000  -2148744.7053   4426641.2650   4044655.8680   6   7   0.0162   0.0536   0.0244   0.0199   0.0341   0.0094   0.00    0.0
2121 181080.000  -2148744.7051   4426641.2653   4044655.8681   6   7   0.0162   0.0535   0.0244   0.0198   0.0341   0.0094   0.00    0.0
2121 181110.000  -2148744.7048   4426641.2656   4044655.8681   6   7   0.0162   0.0534   0.0244   0.0198   0.0341   0.0094   0.00    0.0
2121 181140.000  -2148744.7044   4426641.2658   4044655.8682   6   7   0.0161   0.0532   0.0243   0.0196   0.0340   0.0093   0.00    0.0
2121 181170.000  -2148744.7033   4426641.2666   4044655.8688   6   7   0.0160   0.0527   0.0242   0.0192   0.0337   0.0090   0.00    0.0
2121 181200.000  -2148744.7037   4426641.2640   4044655.8688   6   7   0.0156   0.0512   0.0239   0.0182   0.0330   0.0083   0.00    0.0
2121 181230.000  -2148744.7053   4426641.2596   4044655.8678   6   7   0.0155   0.0507   0.0238   0.0179   0.0328   0.0081   0.00    0.0
2121 181260.000  -2148744.7056   4426641.2587   4044655.8677   6   7   0.0154   0.0506   0.0237   0.0178   0.0327   0.0080   0.00    0.0
2121 181290.000  -2148744.7057   4426641.2593   4044655.8680   6   7   0.0154   0.0505   0.0237   0.0177   0.0326   0.0080   0.00    0.0
2121 181320.000  -2148744.7057   4426641.2599   4044655.8683   6   7   0.0154   0.0504   0.0237   0.0177   0.0326   0.0080   0.00    0.0
2121 181350.000  -2148744.7057   4426641.2602   4044655.8684   6   7   0.0154   0.0504   0.0237   0.0177   0.0326   0.0080   0.00    0.0
2121 181380.000  -2148744.7058   4426641.2602   4044655.8685   6   7   0.0154   0.0503   0.0237   0.0176   0.0325   0.0079   0.00    0.0
2121 181410.000  -2148744.7060   4426641.2603   4044655.8685   6   7   0.0153   0.0502   0.0236   0.0176   0.0325   0.0079   0.00    0.0
2121 181440.000  -2148744.7058   4426641.2616   4044655.8691   6   7   0.0153   0.0500   0.0236   0.0174   0.0324   0.0078   0.00    0.0
2121 181470.000  -2148744.7061   4426641.2616   4044655.8695   6   7   0.0152   0.0495   0.0235   0.0171   0.0321   0.0075   0.00    0.0
2121 181500.000  -2148744.7060   4426641.2608   4044655.8705   6   7   0.0148   0.0480   0.0231   0.0160   0.0314   0.0067   0.00    0.0
2121 181530.000  -2148744.7052   4426641.2645   4044655.8721   6   7   0.0147   0.0476   0.0230   0.0157   0.0311   0.0064   0.00    0.0
2121 181560.000  -2148744.7048   4426641.2663   4044655.8729   6   7   0.0147   0.0474   0.0229   0.0156   0.0311   0.0063   0.00    0.0
2121 181590.000  -2148744.7044   4426641.2680   4044655.8737   6   7   0.0147   0.0473   0.0229   0.0155   0.0310   0.0063   0.00    0.0
2121 181620.000  -2148744.7042   4426641.2689   4044655.8742   6   7   0.0147   0.0473   0.0229   0.0155   0.0310   0.0063   0.00    0.0
2121 181650.000  -2148744.7042   4426641.2692   4044655.8743   6   7   0.0146   0.0472   0.0229   0.0154   0.0310   0.0062   0.00    0.0
2121 181680.000  -2148744.7042   4426641.2691   4044655.8744   6   7   0.0146   0.0472   0.0229   0.0154   0.0309   0.0062   0.00    0.0
2121 181710.000  -2148744.7046   4426641.2678   4044655.8740   6   8   0.0146   0.0471   0.0228   0.0153   0.0309   0.0061   0.00    0.0
2121 181740.000  -2148744.7052   4426641.2663   4044655.8736   6   8   0.0146   0.0469   0.0228   0.0152   0.0308   0.0060   0.00    0.0
2121 181770.000  -2148744.7053   4426641.2682   4044655.8754   6   8   0.0145   0.0464   0.0227   0.0148   0.0305   0.0057   0.00    0.0
2121 181800.000  -2148744.7045   4426641.2722   4044655.8777   6   8   0.0142   0.0449   0.0223   0.0137   0.0298   0.0047   0.00    0.0
2121 181830.000  -2148744.7044   4426641.2744   4044655.8781   6   8   0.0141   0.0445   0.0222   0.0134   0.0295   0.0044   0.00    0.0
2121 181860.000  -2148744.7045   4426641.2753   4044655.8782   6   8   0.0140   0.0443   0.0221   0.0133   0.0295   0.0042   0.00    0.0
2121 181890.000  -2148744.7045   4426641.2763   4044655.8785   6   8   0.0140   0.0443   0.0221   0.0133   0.0294   0.0042   0.00    0.0
2121 181920.000  -2148744.7043   4426641.2778   4044655.8792   6   8   0.0140   0.0442   0.0221   0.0132   0.0294   0.0041   0.00    0.0
2121 181950.000  -2148744.7043   4426641.2783   4044655.8794   6   8   0.0140   0.0442   0.0221   0.0132   0.0294   0.0041   0.00    0.0
2121 181980.000  -2148744.7042   4426641.2797   4044655.8799   6   8   0.0140   0.0441   0.0221   0.0132   0.0294   0.0041   0.00    0.0
2121 182010.000  -2148744.7042   4426641.2816   4044655.8806   6   8   0.0140   0.0440   0.0220   0.0131   0.0293   0.0040   0.00    0.0
2121 182040.000  -2148744.7044   4426641.2834   4044655.8815   6   8   0.0139   0.0438   0.0220   0.0130   0.0292   0.0038   0.00    0.0
2121 182070.000  -2148744.7062   4426641.2796   4044655.8805   6   8   0.0138   0.0433   0.0218   0.0126   0.0289   0.0034   0.00    0.0
2121 182100.000  -2148744.7064   4426641.2804   4044655.8818   6   8   0.0136   0.0419   0.0215   0.0115   0.0282   0.0016   0.00    0.0
2121 182130.000  -2148744.7051   4426641.2865   4044655.8854   6   8   0.0135   0.0415   0.0213   0.0112   0.0280   0.0003   0.00    0.0
2121 182160.000  -2148744.7047   4426641.2891   4044655.8870   6   8   0.0135   0.0414   0.0213   0.0111   0.0279  -0.0008   0.00    0.0
2121 182190.000  -2148744.7043   4426641.2912   4044655.8882   6   8   0.0135   0.0413   0.0213   0.0111   0.0279  -0.0011   0.00    0.0
2121 182220.000  -2148744.7042   4426641.2918   4044655.8885   6   8   0.0135   0.0413   0.0213   0.0110   0.0279  -0.0012   0.00    0.0
2121 182250.000  -2148744.7040   4426641.2925   4044655.8888   6   8   0.0135   0.0413   0.0213   0.0110   0.0278  -0.0013   0.00    0.0
2121 182280.000  -2148744.7037   4426641.2940   4044655.8895   6   8   0.0134   0.0412   0.0212   0.0110   0.0278  -0.0014   0.00    0.0
2121 182310.000  -2148744.7034   4426641.2956   4044655.8903   6   8   0.0134   0.0411   0.0212   0.0109   0.0278  -0.0015   0.00    0.0
2121 182340.000  -2148744.7034   4426641.2976   4044655.8913   6   8   0.0134   0.0410   0.0212   0.0108   0.0277  -0.0018   0.00    0.0
2121 182370.000  -2148744.7033   4426641.3019   4044655.8935   6   8   0.0133   0.0405   0.0210   0.0104   0.0274  -0.0024   0.00    0.0
2121 182400.000  -2148744.7030   4426641.3040   4044655.8950   6   8   0.0131   0.0392   0.0207   0.0094   0.0267  -0.0036   0.00    0.0
2121 182430.000  -2148744.7026   4426641.3063   4044655.8957   6   8   0.0130   0.0389   0.0206   0.0091   0.0265  -0.0039   0.00    0.0
2121 182460.000  -2148744.7026   4426641.3057   4044655.8953   6   8   0.0130   0.0388   0.0205   0.0090   0.0265  -0.0039   0.00    0.0
2121 182490.000  -2148744.7027   4426641.3058   4044655.8953   6   8   0.0130   0.0387   0.0205   0.0089   0.0264  -0.0040   0.00    0.0
2121 182520.000  -2148744.7027   4426641.3060   4044655.8954   6   8   0.0130   0.0387   0.0205   0.0089   0.0264  -0.0040   0.00    0.0
2121 182550.000  -2148744.7026   4426641.3064   4044655.8955   6   8   0.0130   0.0386   0.0205   0.0089   0.0264  -0.0040   0.00    0.0
2121 182580.000  -2148744.7026   4426641.3065   4044655.8956   6   8   0.0130   0.0386   0.0205   0.0089   0.0264  -0.0041   0.00    0.0
2121 182610.000  -2148744.7027   4426641.3073   4044655.8959   6   8   0.0130   0.0385   0.0204   0.0088   0.0263  -0.0041   0.00    0.0
2121 182640.000  -2148744.7027   4426641.3090   4044655.8968   6   8   0.0129   0.0384   0.0204   0.0087   0.0262  -0.0042   0.00    0.0
2121 182670.000  -2148744.7028   4426641.3111   4044655.8982   6   8   0.0129   0.0380   0.0203   0.0083   0.0260  -0.0044   0.00    0.0
2121 182700.000  -2148744.7028   4426641.3130   4044655.8996   6   8   0.0127   0.0368   0.0199   0.0072   0.0254  -0.0051   0.00    0.0
2121 182730.000  -2148744.7033   4426641.3120   4044655.8994   6   8   0.0126   0.0365   0.0198   0.0069   0.0252  -0.0052   0.00    0.0
2121 182760.000  -2148744.7034   4426641.3119   4044655.8993   6   8   0.0126   0.0364   0.0198   0.0068   0.0251  -0.0052   0.00    0.0
2121 182790.000  -2148744.7036   4426641.3113   4044655.8990   6   8   0.0126   0.0363   0.0197   0.0068   0.0251  -0.0053   0.00    0.0
2121 182820.000  -2148744.7038   4426641.3103   4044655.8985   6   8   0.0126   0.0363   0.0197   0.0068   0.0251  -0.0053   0.00    0.0
2121 182850.000  -2148744.7039   4426641.3097   4044655.8982   6   8   0.0126   0.0362   0.0197   0.0067   0.0251  -0.0053   0.00    0.0
2121 182880.000  -2148744.7038   4426641.3095   4044655.8980   6   8   0.0126   0.0362   0.0197   0.0067   0.0250  -0.0053   0.00    0.0
2121 182910.000  -2148744.7036   4426641.3094   4044655.8979   6   8   0.0126   0.0361   0.0197   0.0066   0.0250  -0.0053   0.00    0.0
2121 182940.000  -2148744.7040   4426641.3065   4044655.8968   6   8   0.0126   0.0360   0.0196   0.0065   0.0249  -0.0054   0.00    0.0
2121 182970.000  -2148744.7038   4426641.3044   4044655.8963   6   8   0.0125   0.0357   0.0195   0.0062   0.0247  -0.0055   0.00    0.0
2121 183000.000  -2148744.7031   4426641.3061   4044655.8974   6   8   0.0123   0.0346   0.0192   0.0050   0.0241  -0.0059   0.00    0.0
2121 183030.000  -2148744.7026   4426641.3071   4044655.8975   6   8   0.0123   0.0343   0.0191   0.0047   0.0240  -0.0060   0.00    0.0
2121 183060.000  -2148744.7023   4426641.3071   4044655.8975   6   8   0.0123   0.0342   0.0191   0.0046   0.0239  -0.0060   0.00    0.0
2121 183090.000  -2148744.7022   4426641.3068   4044655.8973   6   8   0.0123   0.0342   0.0190   0.0045   0.0239  -0.0060   0.00    0.0
2121 183120.000  -2148744.7020   4426641.3068   4044655.8974   6   8   0.0123   0.0341   0.0190   0.0045   0.0239  -0.0060   0.00    0.0
2121 183150.000  -2148744.7018   4426641.3069   4044655.8975   6   8   0.0123   0.0341   0.0190   0.0044   0.0239  -0.0060   0.00    0.0
2121 183180.000  -2148744.7017   4426641.3069   4044655.8976   6   8   0.0123   0.0341   0.0190   0.0044   0.0238  -0.0061   0.00    0.0
2121 183210.000  -2148744.7018   4426641.3071   4044655.8980   6   8   0.0123   0.0340   0.0190   0.0043   0.0238  -0.0061   0.00    0.0
2121 183240.000  -2148744.7019   4426641.3068   4044655.8985   6   8   0.0122   0.0339   0.0190   0.0042   0.0237  -0.0061   0.00    0.0
2121 183270.000  -2148744.7020   4426641.3056   4044655.8988   6   8   0.0122   0.0336   0.0189   0.0037   0.0236  -0.0062   0.00    0.0
2121 183300.000  -2148744.7017   4426641.3083   4044655.9004   6   8   0.0121   0.0327   0.0185   0.0018   0.0230  -0.0065   0.00    0.0
2121 183330.000  -2148744.7020   4426641.3108   4044655.9017   6   8   0.0120   0.0324   0.0185   0.0010   0.0229  -0.0065   0.00    0.0
2121 183360.000  -2148744.7019   4426641.3124   4044655.9023   6   8   0.0120   0.0323   0.0184   0.0002   0.0228  -0.0065   0.00    0.0
2121 183390.000  -2148744.7017   4426641.3132   4044655.9027   6   8   0.0120   0.0323   0.0184  -0.0006   0.0228  -0.0066   0.00    0.0
2121 183420.000  -2148744.7015   4426641.3136   4044655.9028   6   8   0.0120   0.0323   0.0184  -0.0008   0.0228  -0.0066   0.00    0.0
2121 183450.000  -2148744.7015   4426641.3138   4044655.9028   6   8   0.0120   0.0323   0.0184  -0.0009   0.0228  -0.0066   0.00    0.0
2121 183480.000  -2148744.7015   4426641.3135   4044655.9027   6   8   0.0120   0.0322   0.0184  -0.0011   0.0228  -0.0066   0.00    0.0
2121 183510.000  -2148744.7015   4426641.3133   4044655.9028   6   8   0.0120   0.0322   0.0184  -0.0013   0.0227  -0.0066   0.00    0.0
2121 183540.000  -2148744.7018   4426641.3126   4044655.9028   6   8   0.0120   0.0321   0.0183  -0.0016   0.0227  -0.0066   0.00    0.0
2121 183570.000  -2148744.7023   4426641.3113   4044655.9029   6   8   0.0119   0.0318   0.0182  -0.0023   0.0225  -0.0067   0.00    0.0
2121 183600.000  -2148744.7023   4426641.3138   4044655.9044   6   8   0.0118   0.0310   0.0179  -0.0037   0.0220  -0.0069   0.00    0.0
2121 183630.000  -2148744.7023   4426641.3162   4044655.9059   6   8   0.0118   0.0308   0.0179  -0.0040   0.0219  -0.0069   0.00    0.0
2121 183660.000  -2148744.7023   4426641.3170   4044655.9064   6   8   0.0118   0.0307   0.0178  -0.0041   0.0219  -0.0069   0.00    0.0
2121 183690.000  -2148744.7021   4426641.3178   4044655.9068   6   8   0.0117   0.0307   0.0178  -0.0041   0.0218  -0.0069   0.00    0.0
2121 183720.000  -2148744.7020   4426641.3186   4044655.9071   6   9   0.0117   0.0306   0.0178  -0.0041   0.0218  -0.0070   0.00    0.0
2121 183750.000  -2148744.7020   4426641.3186   4044655.9071   6   9   0.0117   0.0306   0.0178  -0.0042   0.0218  -0.0070   0.00    0.0
2121 183780.000  -2148744.7020   4426641.3190   4044655.9073   6   9   0.0117   0.0306   0.0178  -0.0042   0.0218  -0.0070   0.00    0.0
2121 183810.000  -2148744.7019   4426641.3196   4044655.9076   6   9   0.0117   0.0305   0.0178  -0.0042   0.0218  -0.0070   0.00    0.0
2121 183840.000  -2148744.7019   4426641.3204   4044655.9080   6   9   0.0117   0.0305   0.0178  -0.0043   0.0217  -0.0070   0.00    0.0
2121 183870.000  -2148744.7015   4426641.3226   4044655.9088   6   9   0.0117   0.0302   0.0177  -0.0046   0.0216  -0.0070   0.00    0.0
2121 183900.000  -2148744.7017   4426641.3238   4044655.9097   6   9   0.0116   0.0295   0.0174  -0.0053   0.0211  -0.0072   0.00    0.0
2121 183930.000  -2148744.7020   4426641.3236   4044655.9098   6   9   0.0115   0.0293   0.0173  -0.0054   0.0210  -0.0072   0.00    0.0
2121 183960.000  -2148744.7022   4426641.3235   4044655.9097   6   9   0.0115   0.0292   0.0173  -0.0055   0.0210  -0.0072   0.00    0.0
2121 183990.000  -2148744.7023   4426641.3232   4044655.9096   6   9   0.0115   0.0292   0.0173  -0.0055   0.0209  -0.0073   0.00    0.0
2121 184020.000  -2148744.7024   4426641.3229   4044655.9094   6   9   0.0115   0.0291   0.0173  -0.0055   0.0209  -0.0073   0.00    0.0
2121 184050.000  -2148744.7025   4426641.3227   4044655.9092   6   9   0.0115   0.0291   0.0173  -0.0056   0.0209  -0.0073   0.00    0.0
2121 184080.000  -2148744.7025   4426641.3227   4044655.9092   6   9   0.0115   0.0291   0.0172  -0.0056   0.0209  -0.0073   0.00    0.0
2121 184110.000  -2148744.7024   4426641.3231   4044655.9093   6   9   0.0115   0.0291   0.0172  -0.0056   0.0209  -0.0073   0.00    0.0
2121 184140.000  -2148744.7023   4426641.3232   4044655.9092   6   9   0.0115   0.0290   0.0172  -0.0057   0.0208  -0.0073   0.00    0.0
2121 184170.000  -2148744.7022   4426641.3225   4044655.9085   6   9   0.0115   0.0288   0.0171  -0.0058   0.0207  -0.0073   0.00    0.0
2121 184200.000  -2148744.7025   4426641.3229   4044655.9093   6   9   0.0114   0.0281   0.0169  -0.0062   0.0203  -0.0074   0.00    0.0
2121 184230.000  -2148744.7019   4426641.3237   4044655.9096   6   9   0.0113   0.0280   0.0168  -0.0063   0.0202  -0.0074   0.00    0.0
2121 184260.000  -2148744.7016   4426641.3246   4044655.9101   6   9   0.0113   0.0279   0.0168  -0.0064   0.0202  -0.0075   0.00    0.0
2121 184290.000  -2148744.7015   4426641.3248   4044655.9102   6   9   0.0113   0.0279   0.0168  -0.0064   0.0202  -0.0075   0.00    0.0
2121 184320.000  -2148744.7015   4426641.3250   4044655.9103   6   9   0.0113   0.0279   0.0168  -0.0064   0.0201  -0.0075   0.00    0.0
2121 184350.000  -2148744.7015   4426641.3251   4044655.9104   6   9   0.0113   0.0278   0.0167  -0.0064   0.0201  -0.0075   0.00    0.0
2121 184380.000  -2148744.7015   4426641.3250   4044655.9104   6   9   0.0113   0.0278   0.0167  -0.0064   0.0201  -0.0075   0.00    0.0
2121 184410.000  -2148744.7015   4426641.3251   4044655.9104   6   9   0.0113   0.0278   0.0167  -0.0064   0.0201  -0.0075   0.00    0.0
2121 184440.000  -2148744.7014   4426641.3252   4044655.9105   6   9   0.0113   0.0277   0.0167  -0.0065   0.0201  -0.0075   0.00    0.0
2121 184470.000  -2148744.7012   4426641.3249   4044655.9104   6   9   0.0113   0.0275   0.0166  -0.0066   0.0199  -0.0075   0.00    0.0
2121 184500.000  -2148744.7011   4426641.3275   4044655.9117   6   9   0.0112   0.0270   0.0164  -0.0069   0.0196  -0.0076   0.00    0.0
2121 184530.000  -2148744.7012   4426641.3286   4044655.9125   6   9   0.0112   0.0268   0.0163  -0.0070   0.0195  -0.0076   0.00    0.0
2121 184560.000  -2148744.7011   4426641.3285   4044655.9122   6   9   0.0112   0.0267   0.0163  -0.0070   0.0194  -0.0076   0.00    0.0
2121 184590.000  -2148744.7011   4426641.3283   4044655.9119   6   9   0.0112   0.0267   0.0163  -0.0070   0.0194  -0.0076   0.00    0.0
2121 184620.000  -2148744.7011   4426641.3284   4044655.9119   6   9   0.0111   0.0267   0.0163  -0.0070   0.0194  -0.0076   0.00    0.0
2121 184650.000  -2148744.7012   4426641.3283   4044655.9119   6   9   0.0111   0.0267   0.0163  -0.0070   0.0194  -0.0076   0.00    0.0
2121 184680.000  -2148744.7012   4426641.3286   4044655.9120   6   9   0.0111   0.0267   0.0162  -0.0070   0.0194  -0.0076   0.00    0.0
2121 184710.000  -2148744.7011   4426641.3291   4044655.9121   6   9   0.0111   0.0266   0.0162  -0.0070   0.0194  -0.0076   0.00    0.0
2121 184740.000  -2148744.7010   4426641.3302   4044655.9125   6   9   0.0111   0.0266   0.0162  -0.0071   0.0193  -0.0076   0.00    0.0
2121 184770.000  -2148744.7008   4426641.3316   4044655.9130   6   9   0.0111   0.0264   0.0161  -0.0071   0.0192  -0.0076   0.00    0.0
2121 184800.000  -2148744.7010   4426641.3354   4044655.9155   6   9   0.0110   0.0259   0.0159  -0.0074   0.0189  -0.0077   0.00    0.0
2121 184830.000  -2148744.7009   4426641.3357   4044655.9156   6   9   0.0110   0.0258   0.0158  -0.0074   0.0188  -0.0077   0.00    0.0
2121 184860.000  -2148744.7009   4426641.3356   4044655.9155   6   9   0.0110   0.0257   0.0158  -0.0074   0.0188  -0.0077   0.00    0.0
2121 184890.000  -2148744.7009   4426641.3358   4044655.9155   6   9   0.0110   0.0257   0.0158  -0.0074   0.0188  -0.0077   0.00    0.0
2121 184920.000  -2148744.7009   4426641.3359   4044655.9156   6   9   0.0110   0.0257   0.0158  -0.0074   0.0187  -0.0077   0.00    0.0
2121 184950.000  -2148744.7009   4426641.3359   4044655.9156   6   9   0.0110   0.0257   0.0158  -0.0075   0.0187  -0.0077   0.00    0.0
2121 184980.000  -2148744.7009   4426641.3357   4044655.9154   6   9   0.0110   0.0256   0.0158  -0.0075   0.0187  -0.0077   0.00    0.0
2121 185010.000  -2148744.7010   4426641.3356   4044655.9155   6   9   0.0110   0.0256   0.0158  -0.0075   0.0187  -0.0077   0.00    0.0
2121 185040.000  -2148744.7008   4426641.3366   4044655.9162   6   9   0.0110   0.0256   0.0157  -0.0075   0.0187  -0.0077   0.00    0.0
2121 185070.000  -2148744.7004   4426641.3399   4044655.9180   6   9   0.0109   0.0254   0.0157  -0.0075   0.0186  -0.0077   0.00    0.0
2121 185100.000  -2148744.7003   4426641.3439   4044655.9200   6   9   0.0109   0.0249   0.0154  -0.0077   0.0182  -0.0077   0.00    0.0
2121 185130.000  -2148744.7004   4426641.3459   4044655.9216   6   9   0.0108   0.0248   0.0154  -0.0077   0.0182  -0.0077   0.00    0.0
2121 185160.000  -2148744.7005   4426641.3463   4044655.9219   6   9   0.0108   0.0248   0.0153  -0.0077   0.0181  -0.0077   0.00    0.0
2121 185190.000  -2148744.7004   4426641.3466   4044655.9221   6   9   0.0108   0.0247   0.0153  -0.0077   0.0181  -0.0077   0.00    0.0
2121 185220.000  -2148744.7004   4426641.3470   4044655.9222   6   9   0.0108   0.0247   0.0153  -0.0077   0.0181  -0.0077   0.00    0.0
2121 185250.000  -2148744.7003   4426641.3471   4044655.9223   6   9   0.0108   0.0247   0.0153  -0.0077   0.0181  -0.0077   0.00    0.0
2121 185280.000  -2148744.7004   4426641.3472   4044655.9223   6   9   0.0108   0.0247   0.0153  -0.0077   0.0181  -0.0077   0.00    0.0
2121 185310.000  -2148744.7005   4426641.3470   4044655.9223   6   8   0.0108   0.0247   0.0153  -0.0078   0.0181  -0.0077   0.00    0.0
2121 185340.000  -2148744.7007   4426641.3467   4044655.9221   6   8   0.0108   0.0246   0.0153  -0.0078   0.0180  -0.0077   0.00    0.0
2121 185370.000  -2148744.7009   4426641.3464   4044655.9219   6   8   0.0108   0.0245   0.0152  -0.0078   0.0180  -0.0077   0.00    0.0
2121 185400.000  -2148744.7008   4426641.3498   4044655.9240   6   8   0.0107   0.0241   0.0150  -0.0080   0.0177  -0.0078   0.00    0.0
2121 185430.000  -2148744.7009   4426641.3519   4044655.9252   6   8   0.0107   0.0240   0.0150  -0.0080   0.0176  -0.0078   0.00    0.0
2121 185460.000  -2148744.7008   4426641.3524   4044655.9254   6   8   0.0107   0.0240   0.0150  -0.0080   0.0176  -0.0078   0.00    0.0
2121 185490.000  -2148744.7008   4426641.3528   4044655.9256   6   8   0.0107   0.0240   0.0150  -0.0080   0.0176  -0.0078   0.00    0.0
2121 185520.000  -2148744.7008   4426641.3529   4044655.9256   6   8   0.0107   0.0240   0.0150  -0.0080   0.0176  -0.0078   0.00    0.0
2121 185550.000  -2148744.7009   4426641.3530   4044655.9256   6   8   0.0107   0.0240   0.0150  -0.0080   0.0176  -0.0078   0.00    0.0
2121 185580.000  -2148744.7008   4426641.3533   4044655.9257   6   8   0.0107   0.0239   0.0150  -0.0080   0.0176  -0.0078   0.00    0.0
2121 185610.000  -2148744.7009   4426641.3530   4044655.9255   6   8   0.0107   0.0239   0.0150  -0.0080   0.0176  -0.0078   0.00    0.0
2121 185640.000  -2148744.7011   4426641.3527   4044655.9254   6   8   0.0107   0.0239   0.0149  -0.0080   0.0176  -0.0078   0.00    0.0
2121 185670.000  -2148744.7014   4426641.3534   4044655.9257   6   8   0.0106   0.0238   0.0149  -0.0081   0.0175  -0.0078   0.00    0.0
2121 185700.000  -2148744.7012   4426641.3552   4044655.9267   6   8   0.0106   0.0234   0.0147  -0.0082   0.0173  -0.0078   0.00    0.0
2121 185730.000  -2148744.7009   4426641.3559   4044655.9271   6   8   0.0106   0.0233   0.0147  -0.0082   0.0172  -0.0078   0.00    0.0
2121 185760.000  -2148744.7007   4426641.3567   4044655.9275   6   8   0.0106   0.0233   0.0147  -0.0082   0.0172  -0.0078   0.00    0.0
2121 185790.000  -2148744.7007   4426641.3567   4044655.9275   6   8   0.0105   0.0233   0.0147  -0.0082   0.0172  -0.0078   0.00    0.0
2121 185820.000  -2148744.7007   4426641.3569   4044655.9275   6   8   0.0105   0.0233   0.0147  -0.0082   0.0172  -0.0078   0.00    0.0
2121 185850.000  -2148744.7007   4426641.3570   4044655.9276   6   8   0.0105   0.0233   0.0147  -0.0082   0.0172  -0.0078   0.00    0.0
