%  GPST              x-ecef(m)      y-ecef(m)      z-ecef(m)   Q  ns   sdx(m)   sdy(m)   sdz(m)  sdxy(m)  sdyz(m)  sdzx(m) age(s)  ratio
2121 172800.000  -3120043.1157   4084616.1577   3764027.7699   6   8   1.7672   2.2036   3.2991  -1.6466   1.9246  -1.4798   0.00    0.0
2121 172830.000  -3120042.9811   4084615.2483   3764027.9406   6   8   1.2294   1.5222   2.2003  -1.1330   1.2901  -0.9973   0.00    0.0
2121 172860.000  -3120043.1766   4084615.5275   3764027.6846   6   8   0.9974   1.2306   1.7454  -0.9148   1.0288  -0.7982   0.00    0.0
2121 172890.000  -3120043.0478   4084615.5874   3764028.0298   6   8   0.8621   1.0612   1.4873  -0.7889   0.8817  -0.6861   0.00    0.0
2121 172920.000  -3120042.8467   4084615.5360   3764028.2161   6   8   0.7713   0.9481   1.3177  -0.7052   0.7860  -0.6132   0.00    0.0
2121 172950.000  -3120042.7241   4084615.2593   3764027.9381   6   8   0.7052   0.8660   1.1963  -0.6448   0.7181  -0.5615   0.00    0.0
2121 172980.000  -3120042.6865   4084615.2942   3764027.9676   6   8   0.6481   0.7936   1.0749  -0.5898   0.6505  -0.5110   0.00    0.0
2121 173010.000  -3120042.6071   4084615.2034   3764027.9319   6   8   0.5933   0.7231   0.9421  -0.5335   0.5775  -0.4577   0.00    0.0
2121 173040.000  -3120042.4985   4084615.1315   3764027.7750   6   8   0.5332   0.6464   0.7901  -0.4676   0.4962  -0.3999   0.00    0.0
2121 173070.000  -3120042.4510   4084614.9353   3764027.3567   6   8   0.4575   0.5533   0.6231  -0.3794   0.4091  -0.3381   0.00    0.0
2121 173100.000  -3120042.5443   4084614.9525   3764027.2101   6   8   0.3821   0.4642   0.4723  -0.2907   0.3412  -0.2882   0.00    0.0
2121 173130.000  -3120042.5303   4084615.0551   3764027.2676   6   8   0.3635   0.4432   0.4494  -0.2768   0.3279  -0.2772   0.00    0.0
2121 173160.000  -3120042.5322   4084615.1085   3764027.2588   6   8   0.3530   0.4314   0.4398  -0.2721   0.3223  -0.2721   0.00    0.0
2121 173190.000  -3120042.5476   4084615.0965   3764027.2765   6   8   0.3450   0.4222   0.4335  -0.2696   0.3186  -0.2686   0.00    0.0
2121 173220.000  -3120042.5962   4084615.0773   3764027.2820   6   8   0.3383   0.4145   0.4286  -0.2678   0.3158  -0.2658   0.00    0.0
2121 173250.000  -3120042.6317   4084615.0919   3764027.2929   6   8   0.3323   0.4076   0.4245  -0.2662   0.3133  -0.2633   0.00    0.0
2121 173280.000  -3120042.5945   4084615.1200   3764027.2939   6   8   0.3256   0.3998   0.4185  -0.2631   0.3098  -0.2600   0.00    0.0
2121 173310.000  -3120042.6000   4084615.1138   3764027.3140   6   8   0.3173   0.3906   0.4089  -0.2577   0.3044  -0.2553   0.00    0.0
2121 173340.000  -3120042.6051   4084615.1173   3764027.3201   6   8   0.3047   0.3772   0.3911  -0.2468   0.2947  -0.2471   0.00    0.0
2121 173370.000  -3120042.6163   4084615.0074   3764027.2911   6   7   0.2812   0.3536   0.3545  -0.2233   0.2760  -0.2309   0.00    0.0
2121 173400.000  -3120042.5432   4084614.9345   3764027.1110   6   7   0.2465   0.3205   0.3006  -0.1892   0.2520  -0.2077   0.00    0.0
2121 173430.000  -3120042.5385   4084614.8932   3764027.0732   6   7   0.2379   0.3122   0.2911  -0.1833   0.2465  -0.2023   0.00    0.0
2121 173460.000  -3120042.5330   4084614.8648   3764027.0719   6   7   0.2340   0.3081   0.2877  -0.1819   0.2443  -0.2003   0.00    0.0
2121 173490.000  -3120042.5377   4084614.8648   3764027.0735   6   7   0.2314   0.3050   0.2857  -0.1815   0.2429  -0.1991   0.00    0.0
2121 173520.000  -3120042.5402   4084614.8923   3764027.0888   6   7   0.2293   0.3024   0.2843  -0.1815   0.2419  -0.1982   0.00    0.0
2121 173550.000  -3120042.5380   4084614.8913   3764027.0760   6   7   0.2275   0.3001   0.2832  -0.1816   0.2411  -0.1976   0.00    0.0
2121 173580.000  -3120042.5423   4084614.8723   3764027.0812   6   7   0.2253   0.2975   0.2815  -0.1812   0.2400  -0.1966   0.00    0.0
2121 173610.000  -3120042.5468   4084614.8542   3764027.0826   6   7   0.2223   0.2943   0.2787  -0.1800   0.2382  -0.1949   0.00    0.0
2121 173640.000  -3120042.5507   4084614.8594   3764027.0911   6   7   0.2171   0.2895   0.2732  -0.1766   0.2349  -0.1916   0.00    0.0
2121 173670.000  -3120042.5464   4084614.8547   3764027.0790   6   7   0.2057   0.2802   0.2599  -0.1677   0.2276  -0.1836   0.00    0.0
2121 173700.000  -3120042.5735   4084614.8527   3764027.0251   6   7   0.1842   0.2642   0.2336  -0.1515   0.2150  -0.1679   0.00    0.0
2121 173730.000  -3120042.5753   4084614.8565   3764027.0079   6   7   0.1785   0.2594   0.2280  -0.1479   0.2114  -0.1639   0.00    0.0
2121 173760.000  -3120042.5572   4084614.8385   3764026.9832   6   7   0.1763   0.2570   0.2261  -0.1470   0.2099  -0.1625   0.00    0.0
2121 173790.000  -3120042.5524   4084614.8112   3764026.9624   6   7   0.1749   0.2553   0.2250  -0.1468   0.2090  -0.1618   0.00    0.0
2121 173820.000  -3120042.5398   4084614.8096   3764026.9580   6   7   0.1740   0.2538   0.2242  -0.1468   0.2083  -0.1614   0.00    0.0
2121 173850.000  -3120042.5371   4084614.8079   3764026.9596   6   7   0.1732   0.2525   0.2236  -0.1469   0.2078  -0.1611   0.00    0.0
2121 173880.000  -3120042.5477   4084614.7799   3764026.9562   6   7   0.1721   0.2511   0.2228  -0.1467   0.2070  -0.1606   0.00    0.0
2121 173910.000  -3120042.5412   4084614.7789   3764026.9528   6   7   0.1705   0.2493   0.2213  -0.1461   0.2060  -0.1596   0.00    0.0
2121 173940.000  -3120042.5364   4084614.7754   3764026.9504   6   7   0.1675   0.2468   0.2185  -0.1444   0.2041  -0.1575   0.00    0.0
2121 173970.000  -3120042.5251   4084614.7456   3764026.9332   6   7   0.1599   0.2418   0.2111  -0.1394   0.1998  -0.1519   0.00    0.0
2121 174000.000  -3120042.5183   4084614.7598   3764026.8984   6   7   0.1430   0.2319   0.1936  -0.1280   0.1907  -0.1384   0.00    0.0
2121 174030.000  -3120042.5083   4084614.7648   3764026.8748   6   7   0.1392   0.2289   0.1901  -0.1258   0.1883  -0.1355   0.00    0.0
2121 174060.000  -3120042.5214   4084614.7757   3764026.8823   6   7   0.1378   0.2274   0.1888  -0.1252   0.1872  -0.1346   0.00    0.0
2121 174090.000  -3120042.5330   4084614.7806   3764026.8868   6   7   0.1370   0.2263   0.1881  -0.1249   0.1865  -0.1341   0.00    0.0
2121 174120.000  -3120042.5366   4084614.7780   3764026.8889   6   7   0.1365   0.2253   0.1876  -0.1249   0.1860  -0.1339   0.00    0.0
2121 174150.000  -3120042.5365   4084614.7765   3764026.8903   6   7   0.1361   0.2244   0.1872  -0.1249   0.1855  -0.1337   0.00    0.0
2121 174180.000  -3120042.5423   4084614.7761   3764026.8935   6   7   0.1355   0.2234   0.1866  -0.1248   0.1849  -0.1334   0.00    0.0
2121 174210.000  -3120042.5503   4084614.7743   3764026.8952   6   7   0.1345   0.2222   0.1857  -0.1244   0.1842  -0.1327   0.00    0.0
2121 174240.000  -3120042.5568   4084614.7681   3764026.8955   6   7   0.1326   0.2207   0.1839  -0.1234   0.1830  -0.1313   0.00    0.0
2121 174270.000  -3120042.5399   4084614.7484   3764026.8835   6   7   0.1275   0.2177   0.1793  -0.1201   0.1802  -0.1272   0.00    0.0
2121 174300.000  -3120042.5404   4084614.7501   3764026.8564   6   7   0.1151   0.2117   0.1675  -0.1122   0.1738  -0.1169   0.00    0.0
2121 174330.000  -3120042.5739   4084614.7813   3764026.8935   6   7   0.1123   0.2098   0.1650  -0.1105   0.1720  -0.1147   0.00    0.0
2121 174360.000  -3120042.5846   4084614.7921   3764026.9067   6   7   0.1113   0.2087   0.1640  -0.1100   0.1712  -0.1140   0.00    0.0
2121 174390.000  -3120042.5874   4084614.7926   3764026.9119   6   7   0.1107   0.2078   0.1635  -0.1098   0.1707  -0.1136   0.00    0.0
2121 174420.000  -3120042.5891   4084614.8044   3764026.9204   6   7   0.1104   0.2071   0.1631  -0.1097   0.1702  -0.1134   0.00    0.0
2121 174450.000  -3120042.5919   4084614.8091   3764026.9266   6   7   0.1101   0.2064   0.1627  -0.1096   0.1698  -0.1132   0.00    0.0
2121 174480.000  -3120042.5951   4084614.8080   3764026.9302   6   7   0.1098   0.2056   0.1623  -0.1095   0.1693  -0.1130   0.00    0.0
2121 174510.000  -3120042.5963   4084614.8158   3764026.9348   6   7   0.1091   0.2048   0.1616  -0.1091   0.1687  -0.1125   0.00    0.0
2121 174540.000  -3120042.5956   4084614.8115   3764026.9322   6   7   0.1078   0.2037   0.1604  -0.1083   0.1677  -0.1114   0.00    0.0
2121 174570.000  -3120042.5914   4084614.8012   3764026.9200   6   7   0.1041   0.2017   0.1571  -0.1059   0.1657  -0.1083   0.00    0.0
2121 174600.000  -3120042.5744   4084614.7855   3764026.8844   6   7   0.0945   0.1976   0.1484  -0.0994   0.1607  -0.0999   0.00    0.0
2121 174630.000  -3120042.5823   4084614.7938   3764026.8912   6   7   0.0923   0.1962   0.1464  -0.0979   0.1593  -0.0981   0.00    0.0
2121 174660.000  -3120042.5802   4084614.7807   3764026.8818   6   7   0.0915   0.1953   0.1456  -0.0974   0.1586  -0.0974   0.00    0.0
2121 174690.000  -3120042.5786   4084614.7755   3764026.8779   6   7   0.0911   0.1946   0.1451  -0.0971   0.1581  -0.0971   0.00    0.0
2121 174720.000  -3120042.5772   4084614.7721   3764026.8744   6   7   0.0908   0.1940   0.1448  -0.0970   0.1576  -0.0969   0.00    0.0
2121 174750.000  -3120042.5772   4084614.7814   3764026.8801   6   7   0.0906   0.1933   0.1445  -0.0969   0.1572  -0.0968   0.00    0.0
2121 174780.000  -3120042.5758   4084614.7782   3764026.8785   6   7   0.0904   0.1927   0.1441  -0.0967   0.1567  -0.0965   0.00    0.0
2121 174810.000  -3120042.5754   4084614.7717   3764026.8767   6   7   0.0899   0.1920   0.1435  -0.0964   0.1562  -0.0961   0.00    0.0
2121 174840.000  -3120042.5763   4084614.7639   3764026.8757   6   7   0.0890   0.1911   0.1425  -0.0957   0.1554  -0.0953   0.00    0.0
2121 174870.000  -3120042.5803   4084614.7800   3764026.8847   6   7   0.0864   0.1895   0.1401  -0.0936   0.1536  -0.0930   0.00    0.0
2121 174900.000  -3120042.5741   4084614.7646   3764026.8633   6   7   0.0794   0.1858   0.1331  -0.0879   0.1491  -0.0863   0.00    0.0
2121 174930.000  -3120042.5777   4084614.7426   3764026.8529   6   7   0.0779   0.1846   0.1316  -0.0867   0.1479  -0.0849   0.00    0.0
2121 174960.000  -3120042.5795   4084614.7375   3764026.8501   6   7   0.0774   0.1839   0.1309  -0.0863   0.1473  -0.0844   0.00    0.0
2121 174990.000  -3120042.5792   4084614.7399   3764026.8511   6   7   0.0771   0.1833   0.1305  -0.0861   0.1468  -0.0841   0.00    0.0
2121 175020.000  -3120042.5798   4084614.7455   3764026.8539   6   7   0.0769   0.1827   0.1302  -0.0859   0.1464  -0.0840   0.00    0.0
2121 175050.000  -3120042.5808   4084614.7585   3764026.8605   6   7   0.0768   0.1822   0.1299  -0.0858   0.1461  -0.0839   0.00    0.0
2121 175080.000  -3120042.5815   4084614.7543   3764026.8589   6   7   0.0766   0.1816   0.1296  -0.0856   0.1456  -0.0837   0.00    0.0
2121 175110.000  -3120042.5839   4084614.7624   3764026.8641   6   7   0.0763   0.1809   0.1291  -0.0853   0.1451  -0.0834   0.00    0.0
2121 175140.000  -3120042.5842   4084614.7637   3764026.8661   6   7   0.0757   0.1801   0.1283  -0.0848   0.1444  -0.0827   0.00    0.0
2121 175170.000  -3120042.5843   4084614.7669   3764026.8638   6   7   0.0738   0.1787   0.1263  -0.0832   0.1429  -0.0809   0.00    0.0
2121 175200.000  -3120042.5834   4084614.7610   3764026.8490   6   7   0.0684   0.1754   0.1205  -0.0783   0.1388  -0.0754   0.00    0.0
2121 175230.000  -3120042.5743   4084614.7640   3764026.8456   6   7   0.0672   0.1744   0.1192  -0.0773   0.1377  -0.0743   0.00    0.0
2121 175260.000  -3120042.5694   4084614.7612   3764026.8421   6   7   0.0668   0.1737   0.1186  -0.0769   0.1372  -0.0739   0.00    0.0
2121 175290.000  -3120042.5680   4084614.7654   3764026.8444   6   7   0.0666   0.1731   0.1182  -0.0767   0.1367  -0.0737   0.00    0.0
2121 175320.000  -3120042.5670   4084614.7647   3764026.8435   6   7   0.0665   0.1726   0.1180  -0.0766   0.1364  -0.0735   0.00    0.0
2121 175350.000  -3120042.5659   4084614.7754   3764026.8480   6   7   0.0664   0.1721   0.1177  -0.0765   0.1360  -0.0734   0.00    0.0
2121 175380.000  -3120042.5644   4084614.7775   3764026.8478   6   7   0.0663   0.1716   0.1174  -0.0764   0.1357  -0.0733   0.00    0.0
2121 175410.000  -3120042.5619   4084614.7887   3764026.8510   6   7   0.0661   0.1711   0.1170  -0.0761   0.1352  -0.0730   0.00    0.0
2121 175440.000  -3120042.5571   4084614.7765   3764026.8409   6   7   0.0656   0.1703   0.1163  -0.0756   0.1345  -0.0725   0.00    0.0
2121 175470.000  -3120042.5497   4084614.7690   3764026.8312   6   7   0.0641   0.1689   0.1145  -0.0742   0.1331  -0.0709   0.00    0.0
2121 175500.000  -3120042.5502   4084614.7485   3764026.8170   6   7   0.0598   0.1655   0.1094  -0.0697   0.1291  -0.0662   0.00    0.0
2121 175530.000  -3120042.5376   4084614.7372   3764026.8043   6   7   0.0588   0.1644   0.1082  -0.0687   0.1280  -0.0652   0.00    0.0
2121 175560.000  -3120042.5334   4084614.7282   3764026.7964   6   7   0.0585   0.1638   0.1076  -0.0684   0.1275  -0.0648   0.00    0.0
2121 175590.000  -3120042.5331   4084614.7296   3764026.7966   6   7   0.0583   0.1633   0.1073  -0.0682   0.1271  -0.0646   0.00    0.0
2121 175620.000  -3120042.5333   4084614.7385   3764026.8014   6   7   0.0582   0.1629   0.1070  -0.0681   0.1267  -0.0645   0.00    0.0
2121 175650.000  -3120042.5334   4084614.7483   3764026.8064   6   7   0.0581   0.1624   0.1068  -0.0680   0.1264  -0.0644   0.00    0.0
2121 175680.000  -3120042.5336   4084614.7640   3764026.8142   6   7   0.0580   0.1620   0.1065  -0.0679   0.1261  -0.0643   0.00    0.0
2121 175710.000  -3120042.5323   4084614.7530   3764026.8078   6   7   0.0578   0.1614   0.1062  -0.0676   0.1256  -0.0641   0.00    0.0
2121 175740.000  -3120042.5286   4084614.7562   3764026.8059   6   7   0.0574   0.1607   0.1055  -0.0671   0.1250  -0.0636   0.00    0.0
2121 175770.000  -3120042.5258   4084614.7588   3764026.8033   6   7   0.0562   0.1591   0.1037  -0.0656   0.1234  -0.0621   0.00    0.0
2121 175800.000  -3120042.5367   4084614.7659   3764026.8113   6   7   0.0524   0.1551   0.0987  -0.0610   0.1190  -0.0576   0.00    0.0
2121 175830.000  -3120042.5380   4084614.7630   3764026.8078   6   7   0.0516   0.1539   0.0975  -0.0600   0.1178  -0.0566   0.00    0.0
2121 175860.000  -3120042.5391   4084614.7505   3764026.8005   6   7   0.0513   0.1532   0.0969  -0.0596   0.1173  -0.0562   0.00    0.0
2121 175890.000  -3120042.5398   4084614.7418   3764026.7953   6   7   0.0511   0.1527   0.0966  -0.0594   0.1169  -0.0560   0.00    0.0
2121 175920.000  -3120042.5406   4084614.7446   3764026.7966   6   7   0.0511   0.1523   0.0964  -0.0593   0.1166  -0.0559   0.00    0.0
2121 175950.000  -3120042.5408   4084614.7433   3764026.7957   6   7   0.0510   0.1519   0.0962  -0.0592   0.1163  -0.0558   0.00    0.0
2121 175980.000  -3120042.5408   4084614.7433   3764026.7953   6   7   0.0509   0.1515   0.0959  -0.0591   0.1160  -0.0557   0.00    0.0
2121 176010.000  -3120042.5403   4084614.7400   3764026.7930   6   7   0.0508   0.1510   0.0955  -0.0588   0.1155  -0.0555   0.00    0.0
2121 176040.000  -3120042.5415   4084614.7379   3764026.7924   6   7   0.0504   0.1502   0.0949  -0.0583   0.1148  -0.0550   0.00    0.0
2121 176070.000  -3120042.5460   4084614.7439   3764026.7966   6   7   0.0494   0.1485   0.0932  -0.0568   0.1132  -0.0537   0.00    0.0
2121 176100.000  -3120042.5490   4084614.7471   3764026.8016   6   7   0.0462   0.1439   0.0883  -0.0522   0.1085  -0.0495   0.00    0.0
2121 176130.000  -3120042.5468   4084614.7469   3764026.8009   6   7   0.0455   0.1425   0.0871  -0.0511   0.1073  -0.0485   0.00    0.0
2121 176160.000  -3120042.5462   4084614.7359   3764026.7947   6   8   0.0453   0.1418   0.0866  -0.0507   0.1067  -0.0482   0.00    0.0
2121 176190.000  -3120042.5476   4084614.7375   3764026.7964   6   8   0.0452   0.1414   0.0863  -0.0505   0.1063  -0.0480   0.00    0.0
2121 176220.000  -3120042.5486   4084614.7453   3764026.8014   6   8   0.0451   0.1410   0.0860  -0.0504   0.1060  -0.0479   0.00    0.0
2121 176250.000  -3120042.5483   4084614.7546   3764026.8058   6   8   0.0450   0.1406   0.0858  -0.0503   0.1057  -0.0478   0.00    0.0
2121 176280.000  -3120042.5491   4084614.7550   3764026.8064   6   8   0.0450   0.1402   0.0856  -0.0501   0.1054  -0.0477   0.00    0.0
2121 176310.000  -3120042.5501   4084614.7576   3764026.8086   6   8   0.0448   0.1396   0.0852  -0.0498   0.1049  -0.0475   0.00    0.0
2121 176340.000  -3120042.5514   4084614.7605   3764026.8110   6   8   0.0445   0.1387   0.0845  -0.0493   0.1042  -0.0470   0.00    0.0
2121 176370.000  -3120042.5520   4084614.7560   3764026.8082   6   8   0.0436   0.1368   0.0827  -0.0477   0.1023  -0.0457   0.00    0.0
2121 176400.000  -3120042.5436   4084614.7308   3764026.7903   6   8   0.0410   0.1316   0.0780  -0.0428   0.0974  -0.0417   0.00    0.0
2121 176430.000  -3120042.5476   4084614.7354   3764026.7957   6   8   0.0404   0.1301   0.0766  -0.0416   0.0960  -0.0407   0.00    0.0
2121 176460.000  -3120042.5493   4084614.7367   3764026.7978   6   8   0.0402   0.1293   0.0761  -0.0412   0.0954  -0.0404   0.00    0.0
2121 176490.000  -3120042.5501   4084614.7381   3764026.7995   6   8   0.0400   0.1289   0.0758  -0.0409   0.0950  -0.0402   0.00    0.0
2121 176520.000  -3120042.5497   4084614.7414   3764026.8011   6   8   0.0400   0.1285   0.0756  -0.0408   0.0947  -0.0401   0.00    0.0
2121 176550.000  -3120042.5496   4084614.7432   3764026.8017   6   8   0.0399   0.1282   0.0754  -0.0407   0.0945  -0.0400   0.00    0.0
2121 176580.000  -3120042.5492   4084614.7437   3764026.8014   6   8   0.0399   0.1278   0.0752  -0.0406   0.0942  -0.0399   0.00    0.0
2121 176610.000  -3120042.5496   4084614.7421   3764026.8004   6   8   0.0397   0.1272   0.0748  -0.0403   0.0937  -0.0397   0.00    0.0
2121 176640.000  -3120042.5489   4084614.7286   3764026.7929   6   7   0.0395   0.1263   0.0741  -0.0397   0.0930  -0.0392   0.00    0.0
2121 176670.000  -3120042.5466   4084614.7106   3764026.7816   6   7   0.0387   0.1242   0.0724  -0.0380   0.0910  -0.0379   0.00    0.0
2121 176700.000  -3120042.5448   4084614.7081   3764026.7814   6   7   0.0365   0.1187   0.0678  -0.0327   0.0860  -0.0341   0.00    0.0
2121 176730.000  -3120042.5449   4084614.7159   3764026.7864   6   7   0.0360   0.1171   0.0665  -0.0314   0.0846  -0.0332   0.00    0.0
2121 176760.000  -3120042.5431   4084614.7089   3764026.7817   6   7   0.0358   0.1164   0.0660  -0.0309   0.0840  -0.0329   0.00    0.0
2121 176790.000  -3120042.5415   4084614.7067   3764026.7794   6   7   0.0358   0.1159   0.0658  -0.0307   0.0836  -0.0327   0.00    0.0
2121 176820.000  -3120042.5411   4084614.7000   3764026.7758   6   7   0.0357   0.1156   0.0656  -0.0305   0.0834  -0.0326   0.00    0.0
2121 176850.000  -3120042.5404   4084614.6981   3764026.7745   6   7   0.0357   0.1153   0.0654  -0.0305   0.0831  -0.0325   0.00    0.0
2121 176880.000  -3120042.5394   4084614.6942   3764026.7717   6   7   0.0356   0.1150   0.0652  -0.0303   0.0829  -0.0324   0.00    0.0
2121 176910.000  -3120042.5389   4084614.6899   3764026.7687   6   7   0.0355   0.1144   0.0648  -0.0300   0.0824  -0.0322   0.00    0.0
2121 176940.000  -3120042.5372   4084614.6861   3764026.7645   6   7   0.0353   0.1135   0.0642  -0.0293   0.0816  -0.0318   0.00    0.0
2121 176970.000  -3120042.5344   4084614.6805   3764026.7603   6   7   0.0347   0.1113   0.0625  -0.0273   0.0797  -0.0305   0.00    0.0
2121 177000.000  -3120042.5344   4084614.6898   3764026.7642   6   7   0.0329   0.1061   0.0584  -0.0217   0.0751  -0.0271   0.00    0.0
2121 177030.000  -3120042.5333   4084614.6855   3764026.7626   6   7   0.0325   0.1045   0.0571  -0.0200   0.0736  -0.0261   0.00    0.0
2121 177060.000  -3120042.5316   4084614.6806   3764026.7592   6   7   0.0324   0.1038   0.0567  -0.0194   0.0731  -0.0258   0.00    0.0
2121 177090.000  -3120042.5310   4084614.6840   3764026.7606   6   7   0.0323   0.1034   0.0564  -0.0191   0.0727  -0.0256   0.00    0.0
2121 177120.000  -3120042.5307   4084614.6830   3764026.7598   6   7   0.0323   0.1031   0.0562  -0.0189   0.0725  -0.0255   0.00    0.0
2121 177150.000  -3120042.5304   4084614.6797   3764026.7580   6   7   0.0322   0.1028   0.0561  -0.0188   0.0723  -0.0255   0.00    0.0
2121 177180.000  -3120042.5301   4084614.6771   3764026.7568   6   7   0.0322   0.1025   0.0559  -0.0186   0.0720  -0.0254   0.00    0.0
2121 177210.000  -3120042.5300   4084614.6761   3764026.7564   6   7   0.0321   0.1019   0.0555  -0.0182   0.0716  -0.0252   0.00    0.0
2121 177240.000  -3120042.5297   4084614.6712   3764026.7542   6   7   0.0319   0.1010   0.0549  -0.0172   0.0708  -0.0247   0.00    0.0
2121 177270.000  -3120042.5307   4084614.6700   3764026.7532   6   7   0.0314   0.0989   0.0533  -0.0144   0.0689  -0.0234   0.00    0.0
2121 177300.000  -3120042.5363   4084614.6855   3764026.7637   6   7   0.0301   0.0944   0.0498  -0.0041   0.0649  -0.0204   0.00    0.0
2121 177330.000  -3120042.5370   4084614.6944   3764026.7702   6   7   0.0299   0.0938   0.0494   0.0021   0.0645  -0.0200   0.00    0.0
2121 177360.000  -3120042.5367   4084614.6946   3764026.7708   6   7   0.0298   0.0936   0.0493   0.0031   0.0643  -0.0199   0.00    0.0
2121 177390.000  -3120042.5369   4084614.6929   3764026.7702   6   7   0.0298   0.0934   0.0492   0.0033   0.0642  -0.0198   0.00    0.0
2121 177420.000  -3120042.5368   4084614.6913   3764026.7694   6   8   0.0297   0.0933   0.0491   0.0033   0.0641  -0.0198   0.00    0.0
2121 177450.000  -3120042.5363   4084614.6923   3764026.7699   6   8   0.0297   0.0931   0.0491   0.0031   0.0640  -0.0198   0.00    0.0
2121 177480.000  -3120042.5359   4084614.6958   3764026.7714   6   8   0.0297   0.0930   0.0490   0.0031   0.0639  -0.0198   0.00    0.0
2121 177510.000  -3120042.5362   4084614.6968   3764026.7724   6   8   0.0296   0.0928   0.0489   0.0034   0.0638  -0.0197   0.00    0.0
2121 177540.000  -3120042.5372   4084614.7014   3764026.7756   6   8   0.0295   0.0925   0.0487   0.0044   0.0635  -0.0196   0.00    0.0
2121 177570.000  -3120042.5392   4084614.7049   3764026.7795   6   8   0.0293   0.0919   0.0482   0.0066   0.0630  -0.0191   0.00    0.0
2121 177600.000  -3120042.5383   4084614.7094   3764026.7831   6   8   0.0285   0.0903   0.0470   0.0109   0.0617  -0.0176   0.00    0.0
2121 177630.000  -3120042.5371   4084614.7138   3764026.7843   6   8   0.0283   0.0899   0.0466   0.0116   0.0614  -0.0172   0.00    0.0
2121 177660.000  -3120042.5376   4084614.7146   3764026.7851   6   8   0.0283   0.0897   0.0465   0.0117   0.0612  -0.0171   0.00    0.0
2121 177690.000  -3120042.5380   4084614.7170   3764026.7864   6   8   0.0282   0.0895   0.0464   0.0117   0.0611  -0.0171   0.00    0.0
2121 177720.000  -3120042.5382   4084614.7192   3764026.7875   6   8   0.0282   0.0894   0.0464   0.0117   0.0610  -0.0171   0.00    0.0
2121 177750.000  -3120042.5386   4084614.7200   3764026.7878   6   8   0.0282   0.0893   0.0463   0.0116   0.0609  -0.0171   0.00    0.0
2121 177780.000  -3120042.5387   4084614.7219   3764026.7887   6   8   0.0282   0.0891   0.0463   0.0116   0.0608  -0.0171   0.00    0.0
2121 177810.000  -3120042.5393   4084614.7233   3764026.7896   6   8   0.0281   0.0890   0.0462   0.0117   0.0607  -0.0170   0.00    0.0
2121 177840.000  -3120042.5408   4084614.7232   3764026.7904   6   8   0.0281   0.0887   0.0460   0.0119   0.0605  -0.0169   0.00    0.0
2121 177870.000  -3120042.5429   4084614.7317   3764026.7953   6   8   0.0279   0.0883   0.0457   0.0125   0.0602  -0.0165   0.00    0.0
2121 177900.000  -3120042.5426   4084614.7377   3764026.7974   6   8   0.0273   0.0870   0.0447   0.0146   0.0591  -0.0152   0.00    0.0
2121 177930.000  -3120042.5429   4084614.7412   3764026.7996   6   8   0.0272   0.0867   0.0444   0.0150   0.0588  -0.0149   0.00    0.0
2121 177960.000  -3120042.5424   4084614.7430   3764026.8005   6   8   0.0271   0.0865   0.0443   0.0150   0.0587  -0.0149   0.00    0.0
2121 177990.000  -3120042.5417   4084614.7476   3764026.8026   6   8   0.0271   0.0863   0.0443   0.0150   0.0586  -0.0148   0.00    0.0
2121 178020.000  -3120042.5419   4084614.7466   3764026.8023   6   8   0.0270   0.0862   0.0442   0.0150   0.0585  -0.0148   0.00    0.0
2121 178050.000  -3120042.5417   4084614.7491   3764026.8035   6   7   0.0270   0.0861   0.0442   0.0149   0.0585  -0.0148   0.00    0.0
2121 178080.000  -3120042.5419   4084614.7508   3764026.8044   6   7   0.0270   0.0860   0.0441   0.0149   0.0584  -0.0148   0.00    0.0
2121 178110.000  -3120042.5427   4084614.7546   3764026.8063   6   7   0.0270   0.0859   0.0440   0.0149   0.0583  -0.0148   0.00    0.0
2121 178140.000  -3120042.5434   4084614.7575   3764026.8084   6   7   0.0269   0.0857   0.0439   0.0150   0.0582  -0.0147   0.00    0.0
2121 178170.000  -3120042.5447   4084614.7597   3764026.8106   6   7   0.0268   0.0853   0.0436   0.0154   0.0579  -0.0144   0.00    0.0
2121 178200.000  -3120042.5456   4084614.7611   3764026.8123   6   7   0.0263   0.0843   0.0429   0.0167   0.0571  -0.0133   0.00    0.0
2121 178230.000  -3120042.5435   4084614.7612   3764026.8107   6   7   0.0262   0.0840   0.0427   0.0169   0.0569  -0.0131   0.00    0.0
2121 178260.000  -3120042.5427   4084614.7597   3764026.8096   6   7   0.0262   0.0839   0.0426   0.0169   0.0567  -0.0130   0.00    0.0
2121 178290.000  -3120042.5429   4084614.7568   3764026.8083   6   7   0.0261   0.0837   0.0425   0.0169   0.0567  -0.0130   0.00    0.0
2121 178320.000  -3120042.5425   4084614.7595   3764026.8093   6   8   0.0261   0.0836   0.0425   0.0169   0.0566  -0.0130   0.00    0.0
2121 178350.000  -3120042.5424   4084614.7616   3764026.8102   6   8   0.0261   0.0835   0.0424   0.0168   0.0565  -0.0130   0.00    0.0
2121 178380.000  -3120042.5427   4084614.7604   3764026.8097   6   8   0.0261   0.0834   0.0424   0.0168   0.0564  -0.0130   0.00    0.0
2121 178410.000  -3120042.5436   4084614.7585   3764026.8089   6   8   0.0261   0.0832   0.0423   0.0168   0.0563  -0.0130   0.00    0.0
2121 178440.000  -3120042.5447   4084614.7590   3764026.8091   6   8   0.0260   0.0830   0.0422   0.0169   0.0562  -0.0129   0.00    0.0
2121 178470.000  -3120042.5453   4084614.7645   3764026.8109   6   8   0.0259   0.0827   0.0420   0.0171   0.0560  -0.0127   0.00    0.0
2121 178500.000  -3120042.5460   4084614.7687   3764026.8129   6   8   0.0255   0.0820   0.0415   0.0178   0.0554  -0.0119   0.00    0.0
2121 178530.000  -3120042.5466   4084614.7657   3764026.8120   6   8   0.0254   0.0817   0.0413   0.0179   0.0552  -0.0117   0.00    0.0
2121 178560.000  -3120042.5473   4084614.7665   3764026.8129   6   8   0.0254   0.0815   0.0412   0.0179   0.0551  -0.0116   0.00    0.0
2121 178590.000  -3120042.5473   4084614.7671   3764026.8132   6   8   0.0254   0.0814   0.0412   0.0179   0.0550  -0.0116   0.00    0.0
2121 178620.000  -3120042.5474   4084614.7669   3764026.8132   6   8   0.0253   0.0813   0.0411   0.0179   0.0549  -0.0116   0.00    0.0
2121 178650.000  -3120042.5470   4084614.7694   3764026.8141   6   8   0.0253   0.0812   0.0411   0.0178   0.0549  -0.0117   0.00    0.0
2121 178680.000  -3120042.5470   4084614.7698   3764026.8143   6   8   0.0253   0.0811   0.0410   0.0178   0.0548  -0.0117   0.00    0.0
2121 178710.000  -3120042.5472   4084614.7687   3764026.8139   6   8   0.0253   0.0810   0.0410   0.0178   0.0547  -0.0116   0.00    0.0
2121 178740.000  -3120042.5473   4084614.7688   3764026.8140   6   8   0.0252   0.0808   0.0409   0.0178   0.0546  -0.0116   0.00    0.0
2121 178770.000  -3120042.5476   4084614.7706   3764026.8150   6   8   0.0251   0.0805   0.0407   0.0179   0.0544  -0.0114   0.00    0.0
2121 178800.000  -3120042.5484   4084614.7775   3764026.8193   6   8   0.0248   0.0799   0.0404   0.0182   0.0540  -0.0109   0.00    0.0
2121 178830.000  -3120042.5485   4084614.7760   3764026.8188   6   8   0.0247   0.0797   0.0402   0.0183   0.0539  -0.0107   0.00    0.0
2121 178860.000  -3120042.5481   4084614.7790   3764026.8202   6   8   0.0247   0.0796   0.0402   0.0183   0.0538  -0.0107   0.00    0.0
2121 178890.000  -3120042.5476   4084614.7833   3764026.8220   6   8   0.0247   0.0795   0.0401   0.0183   0.0537  -0.0107   0.00    0.0
2121 178920.000  -3120042.5476   4084614.7828   3764026.8218   6   8   0.0246   0.0794   0.0401   0.0182   0.0537  -0.0107   0.00    0.0
2121 178950.000  -3120042.5478   4084614.7821   3764026.8214   6   8   0.0246   0.0793   0.0400   0.0182   0.0536  -0.0107   0.00    0.0
2121 178980.000  -3120042.5477   4084614.7826   3764026.8218   6   8   0.0246   0.0792   0.0400   0.0181   0.0535  -0.0107   0.00    0.0
2121 179010.000  -3120042.5475   4084614.7849   3764026.8229   6   8   0.0246   0.0790   0.0399   0.0181   0.0534  -0.0107   0.00    0.0
2121 179040.000  -3120042.5478   4084614.7840   3764026.8229   6   8   0.0245   0.0789   0.0399   0.0181   0.0534  -0.0107   0.00    0.0
2121 179070.000  -3120042.5482   4084614.7860   3764026.8247   6   8   0.0244   0.0787   0.0397   0.0181   0.0532  -0.0106   0.00    0.0
2121 179100.000  -3120042.5494   4084614.7861   3764026.8256   6   8   0.0242   0.0781   0.0395   0.0182   0.0529  -0.0103   0.00    0.0
2121 179130.000  -3120042.5499   4084614.7881   3764026.8266   6   8   0.0241   0.0779   0.0394   0.0181   0.0528  -0.0102   0.00    0.0
2121 179160.000  -3120042.5494   4084614.7913   3764026.8280   6   8   0.0240   0.0778   0.0393   0.0181   0.0527  -0.0102   0.00    0.0
2121 179190.000  -3120042.5497   4084614.7889   3764026.8269   6   8   0.0240   0.0777   0.0393   0.0181   0.0526  -0.0102   0.00    0.0
2121 179220.000  -3120042.5493   4084614.7910   3764026.8276   6   8   0.0240   0.0776   0.0392   0.0180   0.0526  -0.0102   0.00    0.0
2121 179250.000  -3120042.5492   4084614.7918   3764026.8279   6   8   0.0240   0.0775   0.0392   0.0180   0.0525  -0.0102   0.00    0.0
2121 179280.000  -3120042.5498   4084614.7888   3764026.8266   6   8   0.0239   0.0774   0.0392   0.0180   0.0525  -0.0102   0.00    0.0
2121 179310.000  -3120042.5498   4084614.7913   3764026.8277   6   8   0.0239   0.0773   0.0391   0.0179   0.0524  -0.0102   0.00    0.0
2121 179340.000  -3120042.5505   4084614.7894   3764026.8271   6   8   0.0239   0.0771   0.0391   0.0179   0.0523  -0.0102   0.00    0.0
2121 179370.000  -3120042.5507   4084614.7917   3764026.8284   6   8   0.0238   0.0769   0.0390   0.0178   0.0522  -0.0102   0.00    0.0
2121 179400.000  -3120042.5514   4084614.7912   3764026.8283   6   8   0.0235   0.0764   0.0387   0.0176   0.0519  -0.0101   0.00    0.0
2121 179430.000  -3120042.5524   4084614.7895   3764026.8278   6   8   0.0234   0.0762   0.0387   0.0175   0.0518  -0.0100   0.00    0.0
2121 179460.000  -3120042.5524   4084614.7898   3764026.8281   6   8   0.0233   0.0761   0.0386   0.0175   0.0517  -0.0100   0.00    0.0
2121 179490.000  -3120042.5519   4084614.7922   3764026.8293   6   8   0.0233   0.0759   0.0386   0.0175   0.0516  -0.0100   0.00    0.0
2121 179520.000  -3120042.5517   4084614.7931   3764026.8297   6   8   0.0233   0.0759   0.0385   0.0174   0.0516  -0.0100   0.00    0.0
2121 179550.000  -3120042.5514   4084614.7952   3764026.8305   6   8   0.0233   0.0758   0.0385   0.0174   0.0515  -0.0101   0.00    0.0
2121 179580.000  -3120042.5515   4084614.7951   3764026.8305   6   8   0.0233   0.0757   0.0384   0.0174   0.0515  -0.0101   0.00    0.0
2121 179610.000  -3120042.5511   4084614.7979   3764026.8315   6   8   0.0233   0.0756   0.0384   0.0173   0.0514  -0.0101   0.00    0.0
2121 179640.000  -3120042.5504   4084614.8003   3764026.8320   6   8   0.0232   0.0754   0.0383   0.0173   0.0513  -0.0100   0.00    0.0
2121 179670.000  -3120042.5498   4084614.8014   3764026.8314   6   8   0.0232   0.0752   0.0382   0.0173   0.0512  -0.0100   0.00    0.0
2121 179700.000  -3120042.5504   4084614.7987   3764026.8311   6   8   0.0231   0.0746   0.0380   0.0174   0.0508  -0.0098   0.00    0.0
2121 179730.000  -3120042.5503   4084614.7999   3764026.8313   6   8   0.0231   0.0744   0.0379   0.0174   0.0507  -0.0098   0.00    0.0
2121 179760.000  -3120042.5507   4084614.7983   3764026.8303   6   8   0.0231   0.0742   0.0378   0.0173   0.0506  -0.0098   0.00    0.0
2121 179790.000  -3120042.5508   4084614.7980   3764026.8300   6   8   0.0231   0.0741   0.0378   0.0173   0.0505  -0.0098   0.00    0.0
2121 179820.000  -3120042.5506   4084614.7995   3764026.8306   6   8   0.0231   0.0741   0.0377   0.0173   0.0505  -0.0098   0.00    0.0
2121 179850.000  -3120042.5504   4084614.8007   3764026.8311   6   8   0.0230   0.0740   0.0377   0.0173   0.0504  -0.0098   0.00    0.0
2121 179880.000  -3120042.5503   4084614.8011   3764026.8312   6   8   0.0230   0.0739   0.0376   0.0172   0.0503  -0.0098   0.00    0.0
2121 179910.000  -3120042.5505   4084614.7993   3764026.8305   6   8   0.0230   0.0738   0.0376   0.0172   0.0503  -0.0098   0.00    0.0
2121 179940.000  -3120042.5502   4084614.8001   3764026.8313   6   8   0.0230   0.0736   0.0375   0.0172   0.0502  -0.0097   0.00    0.0
2121 179970.000  -3120042.5502   4084614.7984   3764026.8311   6   8   0.0229   0.0733   0.0374   0.0173   0.0500  -0.0096   0.00    0.0
2121 180000.000  -3120042.5499   4084614.7952   3764026.8301   6   8   0.0229   0.0725   0.0370   0.0173   0.0494  -0.0094   0.00    0.0
2121 180030.000  -3120042.5494   4084614.7958   3764026.8304   6   8   0.0228   0.0723   0.0369   0.0173   0.0493  -0.0094   0.00    0.0
2121 180060.000  -3120042.5489   4084614.7980   3764026.8314   6   8   0.0228   0.0722   0.0368   0.0173   0.0492  -0.0094   0.00    0.0
2121 180090.000  -3120042.5489   4084614.7982   3764026.8315   6   8   0.0228   0.0721   0.0368   0.0173   0.0492  -0.0094   0.00    0.0
2121 180120.000  -3120042.5483   4084614.8018   3764026.8330   6   8   0.0228   0.0720   0.0368   0.0172   0.0491  -0.0094   0.00    0.0
2121 180150.000  -3120042.5481   4084614.8032   3764026.8336   6   8   0.0228   0.0720   0.0367   0.0172   0.0491  -0.0095   0.00    0.0
2121 180180.000  -3120042.5485   4084614.8006   3764026.8326   6   8   0.0228   0.0719   0.0367   0.0172   0.0490  -0.0095   0.00    0.0
2121 180210.000  -3120042.5482   4084614.8025   3764026.8336   6   9   0.0227   0.0718   0.0367   0.0171   0.0490  -0.0095   0.00    0.0
2121 180240.000  -3120042.5483   4084614.8015   3764026.8334   6   9   0.0227   0.0716   0.0366   0.0171   0.0489  -0.0095   0.00    0.0
2121 180270.000  -3120042.5486   4084614.7986   3764026.8326   6   9   0.0227   0.0713   0.0365   0.0170   0.0487  -0.0095   0.00    0.0
2121 180300.000  -3120042.5498   4084614.7934   3764026.8313   6   9   0.0226   0.0705   0.0362   0.0169   0.0482  -0.0095   0.00    0.0
2121 180330.000  -3120042.5493   4084614.7926   3764026.8307   6   9   0.0225   0.0703   0.0361   0.0168   0.0481  -0.0095   0.00    0.0
2121 180360.000  -3120042.5497   4084614.7899   3764026.8294   6   9   0.0225   0.0701   0.0361   0.0168   0.0480  -0.0095   0.00    0.0
2121 180390.000  -3120042.5502   4084614.7889   3764026.8290   6   9   0.0225   0.0700   0.0360   0.0167   0.0479  -0.0095   0.00    0.0
2121 180420.000  -3120042.5503   4084614.7908   3764026.8298   6   9   0.0225   0.0700   0.0360   0.0167   0.0479  -0.0095   0.00    0.0
2121 180450.000  -3120042.5504   4084614.7916   3764026.8300   6   9   0.0225   0.0699   0.0360   0.0167   0.0478  -0.0096   0.00    0.0
2121 180480.000  -3120042.5505   4084614.7920   3764026.8302   6   9   0.0224   0.0698   0.0359   0.0166   0.0478  -0.0096   0.00    0.0
2121 180510.000  -3120042.5510   4084614.7917   3764026.8302   6   9   0.0224   0.0697   0.0359   0.0166   0.0477  -0.0096   0.00    0.0
2121 180540.000  -3120042.5508   4084614.7930   3764026.8307   6   9   0.0224   0.0695   0.0358   0.0166   0.0476  -0.0096   0.00    0.0
2121 180570.000  -3120042.5508   4084614.7866   3764026.8273   6   9   0.0223   0.0691   0.0356   0.0165   0.0473  -0.0096   0.00    0.0
2121 180600.000  -3120042.5522   4084614.7830   3764026.8270   6   9   0.0222   0.0680   0.0352   0.0163   0.0466  -0.0095   0.00    0.0
2121 180630.000  -3120042.5523   4084614.7845   3764026.8276   6   9   0.0221   0.0677   0.0351   0.0162   0.0464  -0.0095   0.00    0.0
2121 180660.000  -3120042.5528   4084614.7805   3764026.8255   6   9   0.0221   0.0675   0.0350   0.0162   0.0463  -0.0095   0.00    0.0
2121 180690.000  -3120042.5531   4084614.7797   3764026.8252   6   9   0.0221   0.0674   0.0349   0.0162   0.0462  -0.0095   0.00    0.0
2121 180720.000  -3120042.5529   4084614.7808   3764026.8255   6   9   0.0221   0.0673   0.0349   0.0161   0.0462  -0.0095   0.00    0.0
2121 180750.000  -3120042.5530   4084614.7805   3764026.8253   6   9   0.0220   0.0672   0.0349   0.0161   0.0461  -0.0095   0.00    0.0
2121 180780.000  -3120042.5533   4084614.7784   3764026.8242   6   9   0.0220   0.0671   0.0348   0.0161   0.0461  -0.0095   0.00    0.0
2121 180810.000  -3120042.5536   4084614.7749   3764026.8224   6   9   0.0220   0.0670   0.0348   0.0160   0.0460  -0.0095   0.00    0.0
2121 180840.000  -3120042.5533   4084614.7747   3764026.8220   6   9   0.0219   0.0668   0.0347   0.0160   0.0458  -0.0095   0.00    0.0
2121 180870.000  -3120042.5540   4084614.7714   3764026.8213   6   9   0.0218   0.0662   0.0344   0.0160   0.0454  -0.0094   0.00    0.0
2121 180900.000  -3120042.5547   4084614.7722   3764026.8228   6   9   0.0216   0.0647   0.0338   0.0158   0.0445  -0.0093   0.00    0.0
2121 180930.000  -3120042.5549   4084614.7758   3764026.8245   6   9   0.0216   0.0644   0.0336   0.0157   0.0443  -0.0094   0.00    0.0
2121 180960.000  -3120042.5550   4084614.7789   3764026.8259   6   9   0.0216   0.0643   0.0336   0.0156   0.0442  -0.0094   0.00    0.0
2121 180990.000  -3120042.5552   4084614.7787   3764026.8257   6   9   0.0215   0.0642   0.0336   0.0155   0.0442  -0.0094   0.00    0.0
2121 181020.000  -3120042.5548   4084614.7815   3764026.8269   6   9   0.0215   0.0642   0.0335   0.0155   0.0441  -0.0095   0.00    0.0
2121 181050.000  -3120042.5551   4084614.7796   3764026.8260   6   9   0.0215   0.0641   0.0335   0.0154   0.0441  -0.0095   0.00    0.0
2121 181080.000  -3120042.5553   4084614.7778   3764026.8252   6   9   0.0215   0.0640   0.0335   0.0154   0.0440  -0.0095   0.00    0.0
2121 181110.000  -3120042.5550   4084614.7774   3764026.8248   6   9   0.0215   0.0639   0.0335   0.0153   0.0440  -0.0095   0.00    0.0
2121 181140.000  -3120042.5544   4084614.7773   3764026.8248   6   9   0.0214   0.0638   0.0334   0.0152   0.0439  -0.0096   0.00    0.0
2121 181170.000  -3120042.5541   4084614.7747   3764026.8240   6   9   0.0213   0.0634   0.0333   0.0149   0.0437  -0.0097   0.00    0.0
2121 181200.000  -3120042.5552   4084614.7705   3764026.8235   6   8   0.0212   0.0623   0.0329   0.0141   0.0431  -0.0101   0.00    0.0
2121 181230.000  -3120042.5560   4084614.7701   3764026.8239   6   8   0.0211   0.0619   0.0328   0.0139   0.0429  -0.0102   0.00    0.0
2121 181260.000  -3120042.5559   4084614.7721   3764026.8249   6   8   0.0211   0.0618   0.0328   0.0138   0.0428  -0.0102   0.00    0.0
2121 181290.000  -3120042.5564   4084614.7713   3764026.8246   6   8   0.0210   0.0617   0.0328   0.0137   0.0428  -0.0102   0.00    0.0
2121 181320.000  -3120042.5565   4084614.7722   3764026.8252   6   8   0.0210   0.0616   0.0327   0.0137   0.0427  -0.0103   0.00    0.0
2121 181350.000  -3120042.5565   4084614.7732   3764026.8257   6   8   0.0210   0.0616   0.0327   0.0136   0.0427  -0.0103   0.00    0.0
2121 181380.000  -3120042.5568   4084614.7723   3764026.8254   6   8   0.0210   0.0615   0.0327   0.0136   0.0426  -0.0103   0.00    0.0
2121 181410.000  -3120042.5570   4084614.7730   3764026.8257   6   8   0.0210   0.0614   0.0327   0.0135   0.0426  -0.0104   0.00    0.0
2121 181440.000  -3120042.5574   4084614.7730   3764026.8259   6   7   0.0209   0.0613   0.0326   0.0133   0.0425  -0.0104   0.00    0.0
2121 181470.000  -3120042.5585   4084614.7709   3764026.8254   6   7   0.0209   0.0608   0.0325   0.0130   0.0422  -0.0106   0.00    0.0
2121 181500.000  -3120042.5597   4084614.7640   3764026.8235   6   7   0.0207   0.0596   0.0321   0.0120   0.0416  -0.0109   0.00    0.0
2121 181530.000  -3120042.5598   4084614.7648   3764026.8241   6   7   0.0206   0.0593   0.0320   0.0117   0.0414  -0.0110   0.00    0.0
2121 181560.000  -3120042.5598   4084614.7650   3764026.8243   6   7   0.0206   0.0591   0.0319   0.0116   0.0413  -0.0111   0.00    0.0
2121 181590.000  -3120042.5594   4084614.7666   3764026.8253   6   7   0.0205   0.0591   0.0319   0.0115   0.0412  -0.0111   0.00    0.0
2121 181620.000  -3120042.5593   4084614.7675   3764026.8257   6   7   0.0205   0.0590   0.0319   0.0114   0.0412  -0.0111   0.00    0.0
2121 181650.000  -3120042.5594   4084614.7671   3764026.8256   6   7   0.0205   0.0589   0.0318   0.0114   0.0412  -0.0112   0.00    0.0
2121 181680.000  -3120042.5594   4084614.7683   3764026.8262   6   7   0.0205   0.0589   0.0318   0.0113   0.0411  -0.0112   0.00    0.0
2121 181710.000  -3120042.5594   4084614.7685   3764026.8264   6   7   0.0205   0.0588   0.0318   0.0112   0.0411  -0.0112   0.00    0.0
2121 181740.000  -3120042.5595   4084614.7686   3764026.8265   6   7   0.0204   0.0586   0.0317   0.0110   0.0410  -0.0113   0.00    0.0
2121 181770.000  -3120042.5598   4084614.7706   3764026.8283   6   7   0.0204   0.0582   0.0316   0.0106   0.0407  -0.0114   0.00    0.0
2121 181800.000  -3120042.5610   4084614.7634   3764026.8258   6   7   0.0202   0.0569   0.0312   0.0094   0.0400  -0.0117   0.00    0.0
2121 181830.000  -3120042.5614   4084614.7635   3764026.8255   6   7   0.0201   0.0566   0.0310   0.0090   0.0398  -0.0118   0.00    0.0
2121 181860.000  -3120042.5614   4084614.7641   3764026.8254   6   7   0.0201   0.0564   0.0310   0.0088   0.0397  -0.0119   0.00    0.0
2121 181890.000  -3120042.5618   4084614.7631   3764026.8248   6   7   0.0200   0.0564   0.0309   0.0087   0.0397  -0.0119   0.00    0.0
2121 181920.000  -3120042.5620   4084614.7630   3764026.8249   6   7   0.0200   0.0563   0.0309   0.0086   0.0396  -0.0119   0.00    0.0
2121 181950.000  -3120042.5618   4084614.7649   3764026.8257   6   7   0.0200   0.0563   0.0309   0.0086   0.0396  -0.0120   0.00    0.0
2121 181980.000  -3120042.5616   4084614.7670   3764026.8265   6   7   0.0200   0.0562   0.0309   0.0085   0.0395  -0.0120   0.00    0.0
2121 182010.000  -3120042.5617   4084614.7682   3764026.8269   6   7   0.0200   0.0561   0.0309   0.0084   0.0395  -0.0120   0.00    0.0
2121 182040.000  -3120042.5621   4084614.7690   3764026.8274   6   7   0.0200   0.0559   0.0308   0.0081   0.0394  -0.0121   0.00    0.0
2121 182070.000  -3120042.5628   4084614.7702   3764026.8281   6   7   0.0199   0.0555   0.0306   0.0076   0.0391  -0.0122   0.00    0.0
2121 182100.000  -3120042.5638   4084614.7636   3764026.8260   6   7   0.0197   0.0542   0.0302   0.0058   0.0384  -0.0125   0.00    0.0
2121 182130.000  -3120042.5636   4084614.7626   3764026.8265   6   7   0.0196   0.0539   0.0301   0.0052   0.0382  -0.0126   0.00    0.0
2121 182160.000  -3120042.5636   4084614.7617   3764026.8265   6   7   0.0196   0.0537   0.0300   0.0049   0.0381  -0.0127   0.00    0.0
2121 182190.000  -3120042.5636   4084614.7613   3764026.8265   6   7   0.0196   0.0537   0.0300   0.0047   0.0381  -0.0127   0.00    0.0
2121 182220.000  -3120042.5637   4084614.7602   3764026.8260   6   7   0.0196   0.0536   0.0300   0.0046   0.0380  -0.0127   0.00    0.0
2121 182250.000  -3120042.5635   4084614.7611   3764026.8265   6   7   0.0195   0.0536   0.0300   0.0045   0.0380  -0.0127   0.00    0.0
2121 182280.000  -3120042.5635   4084614.7603   3764026.8262   6   7   0.0195   0.0535   0.0299   0.0043   0.0380  -0.0127   0.00    0.0
2121 182310.000  -3120042.5638   4084614.7591   3764026.8258   6   8   0.0195   0.0534   0.0299   0.0041   0.0379  -0.0128   0.00    0.0
2121 182340.000  -3120042.5644   4084614.7589   3764026.8260   6   8   0.0195   0.0532   0.0298   0.0036   0.0378  -0.0128   0.00    0.0
2121 182370.000  -3120042.5649   4084614.7583   3764026.8259   6   8   0.0194   0.0528   0.0297   0.0024   0.0375  -0.0129   0.00    0.0
2121 182400.000  -3120042.5654   4084614.7535   3764026.8243   6   8   0.0192   0.0516   0.0292  -0.0039   0.0368  -0.0132   0.00    0.0
2121 182430.000  -3120042.5654   4084614.7522   3764026.8234   6   8   0.0192   0.0513   0.0291  -0.0046   0.0366  -0.0133   0.00    0.0
2121 182460.000  -3120042.5653   4084614.7514   3764026.8227   6   8   0.0191   0.0511   0.0291  -0.0049   0.0365  -0.0133   0.00    0.0
2121 182490.000  -3120042.5653   4084614.7509   3764026.8224   6   8   0.0191   0.0511   0.0290  -0.0050   0.0365  -0.0133   0.00    0.0
2121 182520.000  -3120042.5653   4084614.7511   3764026.8224   6   8   0.0191   0.0510   0.0290  -0.0051   0.0364  -0.0133   0.00    0.0
2121 182550.000  -3120042.5652   4084614.7518   3764026.8226   6   8   0.0191   0.0509   0.0290  -0.0052   0.0364  -0.0133   0.00    0.0
2121 182580.000  -3120042.5651   4084614.7535   3764026.8234   6   8   0.0191   0.0509   0.0290  -0.0053   0.0364  -0.0134   0.00    0.0
2121 182610.000  -3120042.5650   4084614.7545   3764026.8239   6   8   0.0191   0.0508   0.0289  -0.0055   0.0363  -0.0134   0.00    0.0
2121 182640.000  -3120042.5650   4084614.7550   3764026.8242   6   8   0.0191   0.0506   0.0289  -0.0058   0.0362  -0.0134   0.00    0.0
2121 182670.000  -3120042.5653   4084614.7547   3764026.8244   6   8   0.0190   0.0502   0.0287  -0.0063   0.0360  -0.0135   0.00    0.0
2121 182700.000  -3120042.5646   4084614.7567   3764026.8254   6   8   0.0188   0.0491   0.0283  -0.0077   0.0353  -0.0137   0.00    0.0
2121 182730.000  -3120042.5643   4084614.7567   3764026.8252   6   8   0.0188   0.0488   0.0281  -0.0080   0.0351  -0.0138   0.00    0.0
2121 182760.000  -3120042.5642   4084614.7580   3764026.8255   6   8   0.0188   0.0486   0.0281  -0.0082   0.0350  -0.0138   0.00    0.0
2121 182790.000  -3120042.5643   4084614.7574   3764026.8252   6   8   0.0187   0.0485   0.0281  -0.0082   0.0349  -0.0138   0.00    0.0
2121 182820.000  -3120042.5644   4084614.7569   3764026.8249   6   8   0.0187   0.0485   0.0280  -0.0083   0.0349  -0.0139   0.00    0.0
2121 182850.000  -3120042.5643   4084614.7567   3764026.8247   6   8   0.0187   0.0484   0.0280  -0.0083   0.0349  -0.0139   0.00    0.0
2121 182880.000  -3120042.5643   4084614.7562   3764026.8244   6   8   0.0187   0.0484   0.0280  -0.0084   0.0348  -0.0139   0.00    0.0
2121 182910.000  -3120042.5644   4084614.7548   3764026.8236   6   8   0.0187   0.0483   0.0280  -0.0085   0.0348  -0.0139   0.00    0.0
2121 182940.000  -3120042.5647   4084614.7531   3764026.8229   6   8   0.0187   0.0481   0.0279  -0.0086   0.0347  -0.0139   0.00    0.0
2121 182970.000  -3120042.5645   4084614.7507   3764026.8218   6   8   0.0186   0.0477   0.0277  -0.0089   0.0344  -0.0140   0.00    0.0
2121 183000.000  -3120042.5652   4084614.7483   3764026.8212   6   8   0.0184   0.0467   0.0273  -0.0097   0.0338  -0.0141   0.00    0.0
2121 183030.000  -3120042.5651   4084614.7494   3764026.8218   6   8   0.0184   0.0463   0.0272  -0.0099   0.0336  -0.0141   0.00    0.0
2121 183060.000  -3120042.5651   4084614.7486   3764026.8215   6   8   0.0184   0.0462   0.0271  -0.0100   0.0335  -0.0142   0.00    0.0
2121 183090.000  -3120042.5650   4084614.7478   3764026.8213   6   8   0.0183   0.0461   0.0271  -0.0101   0.0334  -0.0142   0.00    0.0
2121 183120.000  -3120042.5649   4084614.7482   3764026.8215   6   8   0.0183   0.0461   0.0271  -0.0101   0.0334  -0.0142   0.00    0.0
2121 183150.000  -3120042.5648   4084614.7481   3764026.8215   6   8   0.0183   0.0461   0.0270  -0.0101   0.0334  -0.0142   0.00    0.0
2121 183180.000  -3120042.5649   4084614.7473   3764026.8213   6   8   0.0183   0.0460   0.0270  -0.0102   0.0333  -0.0142   0.00    0.0
2121 183210.000  -3120042.5650   4084614.7475   3764026.8218   6   8   0.0183   0.0459   0.0270  -0.0102   0.0333  -0.0142   0.00    0.0
2121 183240.000  -3120042.5651   4084614.7481   3764026.8229   6   8   0.0183   0.0458   0.0269  -0.0103   0.0332  -0.0142   0.00    0.0
2121 183270.000  -3120042.5651   4084614.7455   3764026.8223   6   8   0.0182   0.0454   0.0267  -0.0104   0.0329  -0.0142   0.00    0.0
2121 183300.000  -3120042.5654   4084614.7454   3764026.8222   6   8   0.0180   0.0444   0.0263  -0.0109   0.0323  -0.0143   0.00    0.0
2121 183330.000  -3120042.5667   4084614.7469   3764026.8234   6   8   0.0180   0.0441   0.0262  -0.0110   0.0321  -0.0143   0.00    0.0
2121 183360.000  -3120042.5670   4084614.7470   3764026.8235   6   8   0.0179   0.0440   0.0261  -0.0111   0.0320  -0.0143   0.00    0.0
2121 183390.000  -3120042.5668   4084614.7477   3764026.8238   6   8   0.0179   0.0439   0.0261  -0.0111   0.0320  -0.0143   0.00    0.0
2121 183420.000  -3120042.5667   4084614.7476   3764026.8236   6   8   0.0179   0.0439   0.0260  -0.0111   0.0319  -0.0143   0.00    0.0
2121 183450.000  -3120042.5667   4084614.7474   3764026.8234   6   8   0.0179   0.0439   0.0260  -0.0112   0.0319  -0.0143   0.00    0.0
2121 183480.000  -3120042.5667   4084614.7471   3764026.8233   6   8   0.0179   0.0438   0.0260  -0.0112   0.0319  -0.0143   0.00    0.0
2121 183510.000  -3120042.5668   4084614.7465   3764026.8231   6   8   0.0179   0.0437   0.0260  -0.0112   0.0318  -0.0143   0.00    0.0
2121 183540.000  -3120042.5673   4084614.7464   3764026.8235   6   8   0.0179   0.0436   0.0259  -0.0113   0.0317  -0.0143   0.00    0.0
2121 183570.000  -3120042.5676   4084614.7462   3764026.8243   6   8   0.0178   0.0433   0.0257  -0.0114   0.0315  -0.0143   0.00    0.0
2121 183600.000  -3120042.5676   4084614.7456   3764026.8243   6   8   0.0176   0.0424   0.0253  -0.0117   0.0309  -0.0143   0.00    0.0
2121 183630.000  -3120042.5677   4084614.7465   3764026.8252   6   8   0.0175   0.0421   0.0252  -0.0118   0.0307  -0.0143   0.00    0.0
2121 183660.000  -3120042.5676   4084614.7468   3764026.8255   6   8   0.0175   0.0420   0.0251  -0.0118   0.0306  -0.0143   0.00    0.0
2121 183690.000  -3120042.5674   4084614.7472   3764026.8256   6   8   0.0175   0.0419   0.0251  -0.0118   0.0306  -0.0143   0.00    0.0
2121 183720.000  -3120042.5673   4084614.7467   3764026.8253   6   8   0.0175   0.0419   0.0250  -0.0118   0.0305  -0.0143   0.00    0.0
2121 183750.000  -3120042.5672   4084614.7471   3764026.8254   6   8   0.0175   0.0418   0.0250  -0.0118   0.0305  -0.0143   0.00    0.0
2121 183780.000  -3120042.5671   4084614.7465   3764026.8250   6   8   0.0175   0.0418   0.0250  -0.0119   0.0305  -0.0143   0.00    0.0
2121 183810.000  -3120042.5670   4084614.7474   3764026.8254   6   8   0.0175   0.0417   0.0250  -0.0119   0.0304  -0.0143   0.00    0.0
2121 183840.000  -3120042.5675   4084614.7459   3764026.8249   6   8   0.0174   0.0416   0.0249  -0.0119   0.0304  -0.0143   0.00    0.0
2121 183870.000  -3120042.5676   4084614.7465   3764026.8253   6   8   0.0174   0.0413   0.0248  -0.0121   0.0301  -0.0144   0.00    0.0
2121 183900.000  -3120042.5678   4084614.7449   3764026.8244   6   8   0.0173   0.0405   0.0244  -0.0124   0.0296  -0.0144   0.00    0.0
2121 183930.000  -3120042.5674   4084614.7450   3764026.8241   6   8   0.0173   0.0402   0.0243  -0.0125   0.0294  -0.0144   0.00    0.0
2121 183960.000  -3120042.5674   4084614.7434   3764026.8232   6   8   0.0173   0.0401   0.0242  -0.0125   0.0294  -0.0144   0.00    0.0
2121 183990.000  -3120042.5674   4084614.7427   3764026.8226   6   8   0.0172   0.0401   0.0242  -0.0125   0.0293  -0.0144   0.00    0.0
2121 184020.000  -3120042.5671   4084614.7429   3764026.8225   6   8   0.0172   0.0400   0.0242  -0.0125   0.0293  -0.0144   0.00    0.0
2121 184050.000  -3120042.5671   4084614.7427   3764026.8223   6   8   0.0172   0.0400   0.0242  -0.0125   0.0293  -0.0144   0.00    0.0
2121 184080.000  -3120042.5672   4084614.7423   3764026.8220   6   8   0.0172   0.0400   0.0241  -0.0126   0.0292  -0.0144   0.00    0.0
2121 184110.000  -3120042.5673   4084614.7419   3764026.8218   6   8   0.0172   0.0399   0.0241  -0.0126   0.0292  -0.0144   0.00    0.0
2121 184140.000  -3120042.5673   4084614.7418   3764026.8216   6   8   0.0172   0.0398   0.0240  -0.0126   0.0291  -0.0144   0.00    0.0
2121 184170.000  -3120042.5672   4084614.7413   3764026.8207   6   8   0.0172   0.0395   0.0239  -0.0127   0.0289  -0.0144   0.00    0.0
2121 184200.000  -3120042.5678   4084614.7415   3764026.8215   6   8   0.0171   0.0388   0.0235  -0.0129   0.0284  -0.0144   0.00    0.0
2121 184230.000  -3120042.5672   4084614.7415   3764026.8212   6   8   0.0170   0.0385   0.0234  -0.0129   0.0282  -0.0144   0.00    0.0
2121 184260.000  -3120042.5672   4084614.7409   3764026.8210   6   8   0.0170   0.0384   0.0233  -0.0129   0.0282  -0.0144   0.00    0.0
2121 184290.000  -3120042.5672   4084614.7406   3764026.8208   6   8   0.0170   0.0384   0.0233  -0.0130   0.0281  -0.0144   0.00    0.0
2121 184320.000  -3120042.5672   4084614.7401   3764026.8206   6   8   0.0170   0.0383   0.0233  -0.0130   0.0281  -0.0144   0.00    0.0
2121 184350.000  -3120042.5673   4084614.7395   3764026.8203   6   8   0.0170   0.0383   0.0233  -0.0130   0.0281  -0.0144   0.00    0.0
2121 184380.000  -3120042.5673   4084614.7389   3764026.8200   6   8   0.0170   0.0383   0.0233  -0.0130   0.0281  -0.0144   0.00    0.0
2121 184410.000  -3120042.5673   4084614.7385   3764026.8198   6   8   0.0170   0.0382   0.0232  -0.0130   0.0280  -0.0144   0.00    0.0
2121 184440.000  -3120042.5671   4084614.7372   3764026.8189   6   8   0.0170   0.0381   0.0232  -0.0130   0.0279  -0.0144   0.00    0.0
2121 184470.000  -3120042.5664   4084614.7351   3764026.8175   6   8   0.0169   0.0378   0.0230  -0.0130   0.0277  -0.0144   0.00    0.0
2121 184500.000  -3120042.5665   4084614.7382   3764026.8189   6   8   0.0168   0.0371   0.0226  -0.0132   0.0273  -0.0144   0.00    0.0
2121 184530.000  -3120042.5666   4084614.7387   3764026.8194   6   8   0.0168   0.0369   0.0225  -0.0132   0.0271  -0.0143   0.00    0.0
2121 184560.000  -3120042.5662   4084614.7380   3764026.8186   6   8   0.0168   0.0368   0.0225  -0.0132   0.0270  -0.0143   0.00    0.0
2121 184590.000  -3120042.5662   4084614.7368   3764026.8178   6   8   0.0168   0.0368   0.0224  -0.0132   0.0270  -0.0143   0.00    0.0
2121 184620.000  -3120042.5660   4084614.7371   3764026.8178   6   8   0.0168   0.0367   0.0224  -0.0132   0.0270  -0.0143   0.00    0.0
2121 184650.000  -3120042.5659   4084614.7374   3764026.8178   6   8   0.0168   0.0367   0.0224  -0.0132   0.0269  -0.0143   0.00    0.0
2121 184680.000  -3120042.5659   4084614.7376   3764026.8178   6   8   0.0168   0.0367   0.0224  -0.0132   0.0269  -0.0143   0.00    0.0
2121 184710.000  -3120042.5659   4084614.7378   3764026.8177   6   8   0.0168   0.0367   0.0224  -0.0132   0.0269  -0.0143   0.00    0.0
2121 184740.000  -3120042.5658   4084614.7387   3764026.8181   6   8   0.0167   0.0366   0.0223  -0.0133   0.0269  -0.0143   0.00    0.0
2121 184770.000  -3120042.5657   4084614.7389   3764026.8179   6   8   0.0167   0.0365   0.0223  -0.0133   0.0268  -0.0144   0.00    0.0
2121 184800.000  -3120042.5661   4084614.7421   3764026.8198   6   8   0.0166   0.0361   0.0221  -0.0135   0.0266  -0.0143   0.00    0.0
2121 184830.000  -3120042.5660   4084614.7420   3764026.8198   6   8   0.0166   0.0360   0.0221  -0.0136   0.0265  -0.0144   0.00    0.0
2121 184860.000  -3120042.5660   4084614.7416   3764026.8195   6   8   0.0166   0.0359   0.0221  -0.0136   0.0265  -0.0144   0.00    0.0
2121 184890.000  -3120042.5661   4084614.7411   3764026.8192   6   8   0.0166   0.0359   0.0220  -0.0136   0.0264  -0.0144   0.00    0.0
2121 184920.000  -3120042.5661   4084614.7411   3764026.8192   6   8   0.0166   0.0359   0.0220  -0.0136   0.0264  -0.0144   0.00    0.0
2121 184950.000  -3120042.5660   4084614.7413   3764026.8192   6   8   0.0165   0.0359   0.0220  -0.0136   0.0264  -0.0144   0.00    0.0
2121 184980.000  -3120042.5660   4084614.7409   3764026.8189   6   8   0.0165   0.0359   0.0220  -0.0136   0.0264  -0.0144   0.00    0.0
2121 185010.000  -3120042.5660   4084614.7406   3764026.8189   6   8   0.0165   0.0358   0.0220  -0.0136   0.0264  -0.0144   0.00    0.0
2121 185040.000  -3120042.5661   4084614.7408   3764026.8193   6   8   0.0165   0.0358   0.0220  -0.0137   0.0264  -0.0144   0.00    0.0
2121 185070.000  -3120042.5659   4084614.7437   3764026.8209   6   8   0.0165   0.0356   0.0219  -0.0137   0.0263  -0.0144   0.00    0.0
2121 185100.000  -3120042.5664   4084614.7471   3764026.8230   6   8   0.0164   0.0353   0.0217  -0.0138   0.0260  -0.0144   0.00    0.0
2121 185130.000  -3120042.5667   4084614.7484   3764026.8241   6   8   0.0164   0.0351   0.0217  -0.0139   0.0260  -0.0144   0.00    0.0
2121 185160.000  -3120042.5666   4084614.7495   3764026.8248   6   8   0.0164   0.0351   0.0217  -0.0139   0.0259  -0.0144   0.00    0.0
2121 185190.000  -3120042.5667   4084614.7497   3764026.8249   6   8   0.0163   0.0351   0.0216  -0.0139   0.0259  -0.0144   0.00    0.0
2121 185220.000  -3120042.5666   4084614.7506   3764026.8252   6   8   0.0163   0.0350   0.0216  -0.0139   0.0259  -0.0144   0.00    0.0
2121 185250.000  -3120042.5667   4084614.7509   3764026.8254   6   8   0.0163   0.0350   0.0216  -0.0139   0.0259  -0.0144   0.00    0.0
2121 185280.000  -3120042.5667   4084614.7509   3764026.8254   6   8   0.0163   0.0350   0.0216  -0.0139   0.0259  -0.0144   0.00    0.0
2121 185310.000  -3120042.5668   4084614.7507   3764026.8253   6   8   0.0163   0.0350   0.0216  -0.0139   0.0259  -0.0144   0.00    0.0
2121 185340.000  -3120042.5669   4084614.7498   3764026.8248   6   8   0.0163   0.0349   0.0216  -0.0140   0.0258  -0.0144   0.00    0.0
2121 185370.000  -3120042.5671   4084614.7497   3764026.8247   6   8   0.0163   0.0348   0.0215  -0.0140   0.0257  -0.0144   0.00    0.0
2121 185400.000  -3120042.5676   4084614.7547   3764026.8279   6   8   0.0162   0.0344   0.0213  -0.0141   0.0255  -0.0144   0.00    0.0
2121 185430.000  -3120042.5679   4084614.7568   3764026.8292   6   8   0.0162   0.0343   0.0213  -0.0141   0.0254  -0.0144   0.00    0.0
2121 185460.000  -3120042.5679   4084614.7576   3764026.8296   6   8   0.0162   0.0342   0.0212  -0.0141   0.0254  -0.0144   0.00    0.0
2121 185490.000  -3120042.5680   4084614.7580   3764026.8299   6   8   0.0161   0.0342   0.0212  -0.0142   0.0253  -0.0144   0.00    0.0
2121 185520.000  -3120042.5682   4084614.7583   3764026.8301   6   8   0.0161   0.0342   0.0212  -0.0142   0.0253  -0.0144   0.00    0.0
2121 185550.000  -3120042.5681   4084614.7590   3764026.8304   6   8   0.0161   0.0342   0.0212  -0.0142   0.0253  -0.0144   0.00    0.0
2121 185580.000  -3120042.5682   4084614.7595   3764026.8307   6   8   0.0161   0.0341   0.0212  -0.0142   0.0253  -0.0144   0.00    0.0
2121 185610.000  -3120042.5682   4084614.7598   3764026.8307   6   8   0.0161   0.0341   0.0212  -0.0142   0.0253  -0.0144   0.00    0.0
2121 185640.000  -3120042.5685   4084614.7597   3764026.8308   6   8   0.0161   0.0341   0.0212  -0.0142   0.0253  -0.0144   0.00    0.0
2121 185670.000  -3120042.5693   4084614.7620   3764026.8323   6   8   0.0161   0.0339   0.0211  -0.0142   0.0252  -0.0144   0.00    0.0
2121 185700.000  -3120042.5695   4084614.7657   3764026.8346   6   8   0.0160   0.0335   0.0209  -0.0143   0.0249  -0.0143   0.00    0.0
2121 185730.000  -3120042.5693   4084614.7679   3764026.8358   6   8   0.0160   0.0334   0.0208  -0.0143   0.0248  -0.0143   0.00    0.0
2121 185760.000  -3120042.5691   4084614.7690   3764026.8362   6   8   0.0160   0.0333   0.0208  -0.0143   0.0248  -0.0143   0.00    0.0
2121 185790.000  -3120042.5692   4084614.7688   3764026.8361   6   8   0.0159   0.0333   0.0208  -0.0143   0.0248  -0.0143   0.00    0.0
2121 185820.000  -3120042.5692   4084614.7687   3764026.8361   6   8   0.0159   0.0333   0.0208  -0.0143   0.0247  -0.0143   0.00    0.0
2121 185850.000  -3120042.5693   4084614.7684   3764026.8360   6   8   0.0159   0.0333   0.0208  -0.0143   0.0247  -0.0143   0.00    0.0
