%  GPST              x-ecef(m)      y-ecef(m)      z-ecef(m)   Q  ns   sdx(m)   sdy(m)   sdz(m)  sdxy(m)  sdyz(m)  sdzx(m) age(s)  ratio
2121 172800.000  -2448551.6300  -4668099.8010   3582741.9875   6   8   2.2817   2.7258   2.6800   2.2100  -2.3835  -2.0111   0.00    0.0
2121 172830.000  -2448551.5111  -4668099.6702   3582741.8439   6   8   1.5389   1.8301   1.7750   1.4661  -1.5666  -1.3135   0.00    0.0
2121 172860.000  -2448551.4862  -4668099.6177   3582741.7739   6   8   1.2295   1.4623   1.4065   1.1632  -1.2384  -1.0337   0.00    0.0
2121 172890.000  -2448551.4808  -4668099.5740   3582741.7510   6   8   1.0518   1.2534   1.1984   0.9919  -1.0549  -0.8771   0.00    0.0
2121 172920.000  -2448551.4384  -4668099.5228   3582741.6930   6   8   0.9336   1.1158   1.0619   0.8794  -0.9354  -0.7752   0.00    0.0
2121 172950.000  -2448551.3910  -4668099.4836   3582741.6333   6   8   0.8481   1.0171   0.9642   0.7989  -0.8506  -0.7026   0.00    0.0
2121 172980.000  -2448551.3316  -4668099.4283   3582741.5947   6   8   0.7669   0.9203   0.8639   0.7165  -0.7603  -0.6244   0.00    0.0
2121 173010.000  -2448551.1702  -4668099.2513   3582741.4703   6   8   0.6819   0.8164   0.7514   0.6236  -0.6560  -0.5328   0.00    0.0
2121 173040.000  -2448550.9238  -4668098.9474   3582741.1820   6   8   0.5865   0.6989   0.6197   0.5119  -0.5316  -0.4225   0.00    0.0
2121 173070.000  -2448550.7533  -4668098.7725   3582741.0776   6   8   0.4751   0.5678   0.4690   0.3734  -0.3913  -0.2966   0.00    0.0
2121 173100.000  -2448550.6803  -4668098.7373   3582741.0797   6   8   0.3740   0.4596   0.3422   0.2394  -0.2830  -0.2005   0.00    0.0
2121 173130.000  -2448550.6592  -4668098.6909   3582741.0268   6   8   0.3541   0.4389   0.3251   0.2247  -0.2711  -0.1909   0.00    0.0
2121 173160.000  -2448550.6577  -4668098.6929   3582741.0185   6   8   0.3429   0.4271   0.3179   0.2220  -0.2670  -0.1880   0.00    0.0
2121 173190.000  -2448550.6554  -4668098.6987   3582741.0089   6   8   0.3343   0.4179   0.3132   0.2217  -0.2647  -0.1866   0.00    0.0
2121 173220.000  -2448550.6586  -4668098.7022   3582741.0003   6   8   0.3271   0.4103   0.3095   0.2220  -0.2631  -0.1857   0.00    0.0
2121 173250.000  -2448550.6656  -4668098.7100   3582740.9907   6   8   0.3207   0.4036   0.3065   0.2224  -0.2619  -0.1852   0.00    0.0
2121 173280.000  -2448550.6711  -4668098.7063   3582740.9698   6   8   0.3136   0.3960   0.3020   0.2207  -0.2593  -0.1835   0.00    0.0
2121 173310.000  -2448550.6718  -4668098.6899   3582740.9460   6   8   0.3046   0.3862   0.2945   0.2152  -0.2539  -0.1794   0.00    0.0
2121 173340.000  -2448550.6773  -4668098.6783   3582740.9289   6   8   0.2908   0.3706   0.2801   0.2014  -0.2421  -0.1701   0.00    0.0
2121 173370.000  -2448550.6898  -4668098.7129   3582740.9736   6   8   0.2643   0.3402   0.2482   0.1652  -0.2149  -0.1479   0.00    0.0
2121 173400.000  -2448550.6700  -4668098.7667   3582741.0584   6   8   0.2221   0.2936   0.1947   0.0917  -0.1705  -0.1114   0.00    0.0
2121 173430.000  -2448550.6563  -4668098.7450   3582741.0562   6   8   0.2133   0.2827   0.1856   0.0806  -0.1627  -0.1059   0.00    0.0
2121 173460.000  -2448550.6587  -4668098.7422   3582741.0586   6   8   0.2088   0.2770   0.1821   0.0799  -0.1598  -0.1041   0.00    0.0
2121 173490.000  -2448550.6615  -4668098.7313   3582741.0559   6   8   0.2055   0.2727   0.1801   0.0816  -0.1582  -0.1032   0.00    0.0
2121 173520.000  -2448550.6611  -4668098.7209   3582741.0573   6   8   0.2028   0.2692   0.1787   0.0839  -0.1571  -0.1027   0.00    0.0
2121 173550.000  -2448550.6646  -4668098.7174   3582741.0604   6   8   0.2004   0.2661   0.1777   0.0863  -0.1563  -0.1024   0.00    0.0
2121 173580.000  -2448550.6703  -4668098.7241   3582741.0712   6   8   0.1977   0.2624   0.1759   0.0873  -0.1548  -0.1016   0.00    0.0
2121 173610.000  -2448550.6776  -4668098.7360   3582741.0871   6   8   0.1942   0.2576   0.1728   0.0860  -0.1520  -0.0999   0.00    0.0
2121 173640.000  -2448550.6811  -4668098.7411   3582741.1097   6   7   0.1891   0.2520   0.1680   0.0813  -0.1485  -0.0973   0.00    0.0
2121 173670.000  -2448550.6796  -4668098.7493   3582741.1321   6   7   0.1786   0.2409   0.1561   0.0633  -0.1396  -0.0903   0.00    0.0
2121 173700.000  -2448550.6714  -4668098.7300   3582741.1388   6   7   0.1580   0.2208   0.1317  -0.0299  -0.1222  -0.0752   0.00    0.0
2121 173730.000  -2448550.6738  -4668098.7165   3582741.1208   6   7   0.1533   0.2159   0.1276  -0.0355  -0.1195  -0.0731   0.00    0.0
2121 173760.000  -2448550.6755  -4668098.7067   3582741.1135   6   7   0.1510   0.2133   0.1262  -0.0335  -0.1185  -0.0725   0.00    0.0
2121 173790.000  -2448550.6767  -4668098.6972   3582741.1036   6   7   0.1494   0.2113   0.1255  -0.0297  -0.1180  -0.0723   0.00    0.0
2121 173820.000  -2448550.6820  -4668098.6899   3582741.0996   6   7   0.1481   0.2096   0.1250  -0.0249  -0.1177  -0.0722   0.00    0.0
2121 173850.000  -2448550.6889  -4668098.6826   3582741.0989   6   7   0.1470   0.2081   0.1246  -0.0187  -0.1174  -0.0722   0.00    0.0
2121 173880.000  -2448550.6961  -4668098.6736   3582741.0969   6   7   0.1456   0.2064   0.1241  -0.0115  -0.1170  -0.0721   0.00    0.0
2121 173910.000  -2448550.7011  -4668098.6660   3582741.0947   6   7   0.1439   0.2043   0.1231  -0.0029  -0.1163  -0.0717   0.00    0.0
2121 173940.000  -2448550.7030  -4668098.6642   3582741.0969   6   7   0.1413   0.2014   0.1210  -0.0096  -0.1149  -0.0706   0.00    0.0
2121 173970.000  -2448550.6869  -4668098.6819   3582741.1098   6   7   0.1355   0.1956   0.1153  -0.0277  -0.1110  -0.0675   0.00    0.0
2121 174000.000  -2448550.6662  -4668098.6598   3582741.0997   6   7   0.1226   0.1835   0.1019  -0.0490  -0.1020  -0.0588   0.00    0.0
2121 174030.000  -2448550.6565  -4668098.6616   3582741.1135   6   7   0.1195   0.1803   0.0995  -0.0497  -0.1004  -0.0574   0.00    0.0
2121 174060.000  -2448550.6548  -4668098.6611   3582741.1183   6   7   0.1181   0.1787   0.0986  -0.0486  -0.0997  -0.0570   0.00    0.0
2121 174090.000  -2448550.6570  -4668098.6582   3582741.1201   6   7   0.1171   0.1774   0.0982  -0.0471  -0.0994  -0.0569   0.00    0.0
2121 174120.000  -2448550.6580  -4668098.6560   3582741.1205   6   7   0.1163   0.1763   0.0979  -0.0454  -0.0991  -0.0569   0.00    0.0
2121 174150.000  -2448550.6593  -4668098.6544   3582741.1205   6   7   0.1156   0.1753   0.0977  -0.0436  -0.0989  -0.0569   0.00    0.0
2121 174180.000  -2448550.6610  -4668098.6536   3582741.1226   6   7   0.1148   0.1741   0.0974  -0.0420  -0.0986  -0.0568   0.00    0.0
2121 174210.000  -2448550.6636  -4668098.6530   3582741.1285   6   7   0.1138   0.1728   0.0969  -0.0408  -0.0982  -0.0566   0.00    0.0
2121 174240.000  -2448550.6612  -4668098.6494   3582741.1327   6   7   0.1122   0.1709   0.0957  -0.0404  -0.0973  -0.0560   0.00    0.0
2121 174270.000  -2448550.6442  -4668098.6398   3582741.1303   6   7   0.1085   0.1671   0.0926  -0.0426  -0.0950  -0.0540   0.00    0.0
2121 174300.000  -2448550.6176  -4668098.6457   3582741.1258   6   7   0.0996   0.1583   0.0841  -0.0488  -0.0893  -0.0479   0.00    0.0
2121 174330.000  -2448550.6134  -4668098.6565   3582741.1251   6   7   0.0973   0.1558   0.0824  -0.0487  -0.0880  -0.0468   0.00    0.0
2121 174360.000  -2448550.6155  -4668098.6604   3582741.1274   6   7   0.0964   0.1546   0.0819  -0.0479  -0.0875  -0.0466   0.00    0.0
2121 174390.000  -2448550.6163  -4668098.6657   3582741.1309   6   7   0.0957   0.1536   0.0816  -0.0470  -0.0872  -0.0465   0.00    0.0
2121 174420.000  -2448550.6158  -4668098.6682   3582741.1312   6   7   0.0952   0.1529   0.0814  -0.0460  -0.0870  -0.0465   0.00    0.0
2121 174450.000  -2448550.6159  -4668098.6707   3582741.1317   6   7   0.0948   0.1522   0.0813  -0.0450  -0.0868  -0.0466   0.00    0.0
2121 174480.000  -2448550.6156  -4668098.6764   3582741.1346   6   7   0.0942   0.1514   0.0811  -0.0440  -0.0866  -0.0465   0.00    0.0
2121 174510.000  -2448550.6166  -4668098.6858   3582741.1395   6   7   0.0936   0.1504   0.0807  -0.0432  -0.0862  -0.0464   0.00    0.0
2121 174540.000  -2448550.6169  -4668098.7023   3582741.1487   6   7   0.0924   0.1491   0.0799  -0.0426  -0.0856  -0.0460   0.00    0.0
2121 174570.000  -2448550.6112  -4668098.7194   3582741.1587   6   7   0.0898   0.1461   0.0778  -0.0429  -0.0840  -0.0446   0.00    0.0
2121 174600.000  -2448550.5902  -4668098.7054   3582741.1393   6   7   0.0832   0.1389   0.0719  -0.0448  -0.0796  -0.0400   0.00    0.0
2121 174630.000  -2448550.5850  -4668098.7029   3582741.1257   6   7   0.0815   0.1368   0.0706  -0.0443  -0.0785  -0.0391   0.00    0.0
2121 174660.000  -2448550.5857  -4668098.7013   3582741.1210   6   7   0.0808   0.1358   0.0702  -0.0437  -0.0781  -0.0389   0.00    0.0
2121 174690.000  -2448550.5876  -4668098.7008   3582741.1198   6   7   0.0803   0.1351   0.0699  -0.0431  -0.0779  -0.0389   0.00    0.0
2121 174720.000  -2448550.5886  -4668098.7000   3582741.1197   6   7   0.0800   0.1345   0.0698  -0.0425  -0.0777  -0.0389   0.00    0.0
2121 174750.000  -2448550.5895  -4668098.6990   3582741.1198   6   7   0.0797   0.1340   0.0697  -0.0418  -0.0775  -0.0389   0.00    0.0
2121 174780.000  -2448550.5895  -4668098.6987   3582741.1198   6   8   0.0793   0.1334   0.0695  -0.0412  -0.0773  -0.0389   0.00    0.0
2121 174810.000  -2448550.5880  -4668098.6995   3582741.1199   6   8   0.0788   0.1327   0.0693  -0.0406  -0.0770  -0.0388   0.00    0.0
2121 174840.000  -2448550.5855  -4668098.7034   3582741.1217   6   8   0.0780   0.1315   0.0687  -0.0400  -0.0765  -0.0385   0.00    0.0
2121 174870.000  -2448550.5770  -4668098.7086   3582741.1174   6   8   0.0760   0.1289   0.0671  -0.0397  -0.0751  -0.0375   0.00    0.0
2121 174900.000  -2448550.5625  -4668098.7251   3582741.1200   6   8   0.0707   0.1224   0.0625  -0.0397  -0.0714  -0.0339   0.00    0.0
2121 174930.000  -2448550.5627  -4668098.7189   3582741.1154   6   8   0.0693   0.1205   0.0615  -0.0392  -0.0704  -0.0332   0.00    0.0
2121 174960.000  -2448550.5614  -4668098.7147   3582741.1090   6   8   0.0688   0.1197   0.0611  -0.0388  -0.0699  -0.0331   0.00    0.0
2121 174990.000  -2448550.5592  -4668098.7135   3582741.1047   6   8   0.0684   0.1191   0.0609  -0.0383  -0.0697  -0.0330   0.00    0.0
2121 175020.000  -2448550.5590  -4668098.7131   3582741.1038   6   8   0.0682   0.1186   0.0608  -0.0379  -0.0695  -0.0330   0.00    0.0
2121 175050.000  -2448550.5595  -4668098.7126   3582741.1036   6   8   0.0680   0.1182   0.0607  -0.0375  -0.0693  -0.0330   0.00    0.0
2121 175080.000  -2448550.5601  -4668098.7125   3582741.1044   6   8   0.0677   0.1176   0.0605  -0.0370  -0.0691  -0.0330   0.00    0.0
2121 175110.000  -2448550.5613  -4668098.7153   3582741.1080   6   8   0.0673   0.1169   0.0602  -0.0367  -0.0687  -0.0329   0.00    0.0
2121 175140.000  -2448550.5605  -4668098.7233   3582741.1139   6   8   0.0667   0.1157   0.0596  -0.0364  -0.0679  -0.0325   0.00    0.0
2121 175170.000  -2448550.5556  -4668098.7444   3582741.1225   6   8   0.0651   0.1128   0.0580  -0.0364  -0.0661  -0.0315   0.00    0.0
2121 175200.000  -2448550.5503  -4668098.7554   3582741.1286   6   8   0.0609   0.1063   0.0540  -0.0359  -0.0623  -0.0285   0.00    0.0
2121 175230.000  -2448550.5534  -4668098.7516   3582741.1327   6   8   0.0598   0.1043   0.0529  -0.0356  -0.0611  -0.0279   0.00    0.0
2121 175260.000  -2448550.5553  -4668098.7487   3582741.1326   6   8   0.0593   0.1035   0.0525  -0.0353  -0.0605  -0.0277   0.00    0.0
2121 175290.000  -2448550.5564  -4668098.7462   3582741.1320   6   8   0.0591   0.1029   0.0523  -0.0350  -0.0602  -0.0276   0.00    0.0
2121 175320.000  -2448550.5573  -4668098.7454   3582741.1321   6   8   0.0589   0.1025   0.0522  -0.0348  -0.0600  -0.0276   0.00    0.0
2121 175350.000  -2448550.5582  -4668098.7439   3582741.1319   6   8   0.0587   0.1021   0.0521  -0.0345  -0.0599  -0.0276   0.00    0.0
2121 175380.000  -2448550.5594  -4668098.7425   3582741.1322   6   8   0.0585   0.1017   0.0519  -0.0343  -0.0596  -0.0275   0.00    0.0
2121 175410.000  -2448550.5618  -4668098.7403   3582741.1326   6   8   0.0583   0.1010   0.0516  -0.0340  -0.0592  -0.0274   0.00    0.0
2121 175440.000  -2448550.5649  -4668098.7372   3582741.1329   6   8   0.0578   0.0999   0.0510  -0.0339  -0.0584  -0.0271   0.00    0.0
2121 175470.000  -2448550.5689  -4668098.7405   3582741.1376   6   8   0.0566   0.0972   0.0496  -0.0338  -0.0567  -0.0262   0.00    0.0
2121 175500.000  -2448550.5594  -4668098.7474   3582741.1380   6   8   0.0532   0.0912   0.0462  -0.0329  -0.0531  -0.0239   0.00    0.0
2121 175530.000  -2448550.5468  -4668098.7606   3582741.1349   6   8   0.0523   0.0893   0.0452  -0.0327  -0.0519  -0.0234   0.00    0.0
2121 175560.000  -2448550.5437  -4668098.7637   3582741.1341   6   8   0.0520   0.0886   0.0449  -0.0325  -0.0514  -0.0232   0.00    0.0
2121 175590.000  -2448550.5418  -4668098.7653   3582741.1333   6   8   0.0518   0.0881   0.0447  -0.0323  -0.0511  -0.0231   0.00    0.0
2121 175620.000  -2448550.5410  -4668098.7657   3582741.1328   6   8   0.0516   0.0878   0.0446  -0.0321  -0.0510  -0.0231   0.00    0.0
2121 175650.000  -2448550.5413  -4668098.7653   3582741.1327   6   8   0.0515   0.0875   0.0445  -0.0319  -0.0508  -0.0231   0.00    0.0
2121 175680.000  -2448550.5409  -4668098.7661   3582741.1328   6   8   0.0513   0.0872   0.0443  -0.0318  -0.0506  -0.0231   0.00    0.0
2121 175710.000  -2448550.5398  -4668098.7680   3582741.1332   6   8   0.0511   0.0866   0.0441  -0.0316  -0.0503  -0.0230   0.00    0.0
2121 175740.000  -2448550.5386  -4668098.7692   3582741.1337   6   8   0.0507   0.0856   0.0436  -0.0315  -0.0496  -0.0227   0.00    0.0
2121 175770.000  -2448550.5386  -4668098.7754   3582741.1354   6   8   0.0497   0.0833   0.0424  -0.0313  -0.0481  -0.0220   0.00    0.0
2121 175800.000  -2448550.5385  -4668098.7771   3582741.1371   6   8   0.0470   0.0781   0.0397  -0.0301  -0.0450  -0.0203   0.00    0.0
2121 175830.000  -2448550.5423  -4668098.7785   3582741.1431   6   8   0.0463   0.0765   0.0389  -0.0298  -0.0440  -0.0199   0.00    0.0
2121 175860.000  -2448550.5452  -4668098.7783   3582741.1456   6   8   0.0460   0.0758   0.0386  -0.0297  -0.0436  -0.0198   0.00    0.0
2121 175890.000  -2448550.5474  -4668098.7765   3582741.1464   6   8   0.0458   0.0755   0.0384  -0.0295  -0.0434  -0.0197   0.00    0.0
2121 175920.000  -2448550.5488  -4668098.7752   3582741.1468   6   8   0.0457   0.0752   0.0383  -0.0294  -0.0432  -0.0197   0.00    0.0
2121 175950.000  -2448550.5498  -4668098.7748   3582741.1473   6   8   0.0456   0.0750   0.0382  -0.0293  -0.0431  -0.0197   0.00    0.0
2121 175980.000  -2448550.5514  -4668098.7732   3582741.1476   6   8   0.0455   0.0748   0.0381  -0.0292  -0.0430  -0.0196   0.00    0.0
2121 176010.000  -2448550.5537  -4668098.7706   3582741.1479   6   8   0.0453   0.0744   0.0380  -0.0291  -0.0427  -0.0196   0.00    0.0
2121 176040.000  -2448550.5570  -4668098.7694   3582741.1503   6   8   0.0450   0.0736   0.0376  -0.0289  -0.0422  -0.0194   0.00    0.0
2121 176070.000  -2448550.5615  -4668098.7598   3582741.1519   6   8   0.0442   0.0718   0.0367  -0.0286  -0.0410  -0.0189   0.00    0.0
2121 176100.000  -2448550.5484  -4668098.7752   3582741.1520   6   8   0.0420   0.0676   0.0346  -0.0273  -0.0387  -0.0176   0.00    0.0
2121 176130.000  -2448550.5447  -4668098.7779   3582741.1497   6   8   0.0414   0.0663   0.0339  -0.0271  -0.0379  -0.0172   0.00    0.0
2121 176160.000  -2448550.5429  -4668098.7783   3582741.1486   6   8   0.0411   0.0658   0.0337  -0.0269  -0.0376  -0.0171   0.00    0.0
2121 176190.000  -2448550.5417  -4668098.7786   3582741.1478   6   8   0.0410   0.0655   0.0336  -0.0268  -0.0374  -0.0171   0.00    0.0
2121 176220.000  -2448550.5410  -4668098.7788   3582741.1472   6   8   0.0409   0.0653   0.0335  -0.0268  -0.0373  -0.0170   0.00    0.0
2121 176250.000  -2448550.5408  -4668098.7787   3582741.1468   6   8   0.0409   0.0652   0.0334  -0.0267  -0.0372  -0.0170   0.00    0.0
2121 176280.000  -2448550.5404  -4668098.7796   3582741.1467   6   8   0.0408   0.0650   0.0334  -0.0266  -0.0371  -0.0170   0.00    0.0
2121 176310.000  -2448550.5396  -4668098.7816   3582741.1472   6   8   0.0406   0.0647   0.0332  -0.0265  -0.0369  -0.0170   0.00    0.0
2121 176340.000  -2448550.5391  -4668098.7850   3582741.1486   6   8   0.0404   0.0641   0.0329  -0.0263  -0.0366  -0.0168   0.00    0.0
2121 176370.000  -2448550.5372  -4668098.7914   3582741.1505   6   8   0.0397   0.0627   0.0323  -0.0260  -0.0357  -0.0164   0.00    0.0
2121 176400.000  -2448550.5298  -4668098.8107   3582741.1552   6   8   0.0379   0.0592   0.0306  -0.0248  -0.0339  -0.0155   0.00    0.0
2121 176430.000  -2448550.5269  -4668098.8258   3582741.1607   6   8   0.0374   0.0582   0.0301  -0.0245  -0.0332  -0.0152   0.00    0.0
2121 176460.000  -2448550.5257  -4668098.8299   3582741.1620   6   8   0.0372   0.0578   0.0299  -0.0244  -0.0330  -0.0151   0.00    0.0
2121 176490.000  -2448550.5259  -4668098.8299   3582741.1621   6   8   0.0371   0.0576   0.0298  -0.0244  -0.0328  -0.0151   0.00    0.0
2121 176520.000  -2448550.5265  -4668098.8286   3582741.1619   6   8   0.0370   0.0574   0.0298  -0.0243  -0.0328  -0.0151   0.00    0.0
2121 176550.000  -2448550.5272  -4668098.8269   3582741.1616   6   8   0.0369   0.0573   0.0297  -0.0242  -0.0327  -0.0151   0.00    0.0
2121 176580.000  -2448550.5286  -4668098.8235   3582741.1608   6   8   0.0369   0.0572   0.0297  -0.0242  -0.0326  -0.0150   0.00    0.0
2121 176610.000  -2448550.5303  -4668098.8180   3582741.1591   6   8   0.0368   0.0569   0.0296  -0.0241  -0.0325  -0.0150   0.00    0.0
2121 176640.000  -2448550.5321  -4668098.8122   3582741.1575   6   8   0.0366   0.0564   0.0293  -0.0240  -0.0322  -0.0149   0.00    0.0
2121 176670.000  -2448550.5307  -4668098.8093   3582741.1567   6   8   0.0360   0.0553   0.0288  -0.0237  -0.0315  -0.0146   0.00    0.0
2121 176700.000  -2448550.5220  -4668098.8212   3582741.1589   6   8   0.0345   0.0524   0.0275  -0.0225  -0.0301  -0.0138   0.00    0.0
2121 176730.000  -2448550.5199  -4668098.8229   3582741.1578   6   8   0.0341   0.0516   0.0271  -0.0223  -0.0295  -0.0136   0.00    0.0
2121 176760.000  -2448550.5202  -4668098.8217   3582741.1570   6   8   0.0339   0.0513   0.0269  -0.0222  -0.0293  -0.0135   0.00    0.0
2121 176790.000  -2448550.5204  -4668098.8212   3582741.1570   6   8   0.0338   0.0511   0.0268  -0.0222  -0.0292  -0.0135   0.00    0.0
2121 176820.000  -2448550.5206  -4668098.8208   3582741.1570   6   8   0.0338   0.0510   0.0268  -0.0221  -0.0291  -0.0135   0.00    0.0
2121 176850.000  -2448550.5210  -4668098.8206   3582741.1571   6   8   0.0337   0.0509   0.0268  -0.0221  -0.0291  -0.0135   0.00    0.0
2121 176880.000  -2448550.5216  -4668098.8207   3582741.1575   6   8   0.0337   0.0507   0.0267  -0.0220  -0.0290  -0.0134   0.00    0.0
2121 176910.000  -2448550.5216  -4668098.8218   3582741.1580   6   8   0.0336   0.0506   0.0266  -0.0220  -0.0289  -0.0134   0.00    0.0
2121 176940.000  -2448550.5210  -4668098.8239   3582741.1587   6   8   0.0334   0.0502   0.0264  -0.0219  -0.0286  -0.0133   0.00    0.0
2121 176970.000  -2448550.5195  -4668098.8300   3582741.1622   6   8   0.0330   0.0493   0.0260  -0.0216  -0.0281  -0.0130   0.00    0.0
2121 177000.000  -2448550.5104  -4668098.8508   3582741.1691   6   8   0.0317   0.0469   0.0250  -0.0206  -0.0269  -0.0125   0.00    0.0
2121 177030.000  -2448550.5077  -4668098.8528   3582741.1681   6   8   0.0313   0.0462   0.0246  -0.0204  -0.0265  -0.0123   0.00    0.0
2121 177060.000  -2448550.5076  -4668098.8524   3582741.1675   6   8   0.0312   0.0459   0.0245  -0.0203  -0.0263  -0.0122   0.00    0.0
2121 177090.000  -2448550.5077  -4668098.8529   3582741.1679   6   8   0.0311   0.0457   0.0244  -0.0203  -0.0262  -0.0122   0.00    0.0
2121 177120.000  -2448550.5077  -4668098.8529   3582741.1680   6   8   0.0311   0.0456   0.0244  -0.0202  -0.0262  -0.0122   0.00    0.0
2121 177150.000  -2448550.5080  -4668098.8522   3582741.1679   6   8   0.0310   0.0456   0.0243  -0.0202  -0.0261  -0.0122   0.00    0.0
2121 177180.000  -2448550.5085  -4668098.8520   3582741.1682   6   8   0.0310   0.0455   0.0243  -0.0202  -0.0260  -0.0122   0.00    0.0
2121 177210.000  -2448550.5087  -4668098.8526   3582741.1686   6   8   0.0309   0.0453   0.0242  -0.0201  -0.0259  -0.0121   0.00    0.0
2121 177240.000  -2448550.5088  -4668098.8533   3582741.1689   6   9   0.0308   0.0450   0.0240  -0.0201  -0.0257  -0.0120   0.00    0.0
2121 177270.000  -2448550.5082  -4668098.8515   3582741.1672   6   8   0.0304   0.0445   0.0239  -0.0197  -0.0256  -0.0120   0.00    0.0
2121 177300.000  -2448550.5026  -4668098.8571   3582741.1679   6   8   0.0294   0.0429   0.0234  -0.0185  -0.0251  -0.0119   0.00    0.0
2121 177330.000  -2448550.4998  -4668098.8628   3582741.1687   6   8   0.0291   0.0426   0.0233  -0.0182  -0.0250  -0.0118   0.00    0.0
2121 177360.000  -2448550.4982  -4668098.8658   3582741.1694   6   8   0.0290   0.0424   0.0232  -0.0180  -0.0250  -0.0118   0.00    0.0
2121 177390.000  -2448550.4978  -4668098.8668   3582741.1697   6   8   0.0290   0.0424   0.0232  -0.0180  -0.0250  -0.0118   0.00    0.0
2121 177420.000  -2448550.4977  -4668098.8672   3582741.1699   6   8   0.0289   0.0423   0.0232  -0.0179  -0.0249  -0.0118   0.00    0.0
2121 177450.000  -2448550.4977  -4668098.8675   3582741.1702   6   8   0.0289   0.0423   0.0232  -0.0179  -0.0249  -0.0118   0.00    0.0
2121 177480.000  -2448550.4977  -4668098.8678   3582741.1707   6   8   0.0289   0.0422   0.0232  -0.0178  -0.0249  -0.0119   0.00    0.0
2121 177510.000  -2448550.4973  -4668098.8690   3582741.1714   6   7   0.0288   0.0421   0.0232  -0.0178  -0.0249  -0.0119   0.00    0.0
2121 177540.000  -2448550.4959  -4668098.8727   3582741.1730   6   8   0.0287   0.0420   0.0231  -0.0176  -0.0248  -0.0119   0.00    0.0
2121 177570.000  -2448550.4913  -4668098.8809   3582741.1761   6   8   0.0284   0.0416   0.0230  -0.0173  -0.0247  -0.0118   0.00    0.0
2121 177600.000  -2448550.4835  -4668098.8866   3582741.1762   6   8   0.0275   0.0402   0.0226  -0.0161  -0.0244  -0.0118   0.00    0.0
2121 177630.000  -2448550.4804  -4668098.8917   3582741.1780   6   7   0.0273   0.0399   0.0225  -0.0158  -0.0243  -0.0118   0.00    0.0
2121 177660.000  -2448550.4788  -4668098.8954   3582741.1790   6   7   0.0272   0.0398   0.0225  -0.0157  -0.0242  -0.0118   0.00    0.0
2121 177690.000  -2448550.4782  -4668098.8969   3582741.1794   6   7   0.0272   0.0397   0.0225  -0.0157  -0.0242  -0.0118   0.00    0.0
2121 177720.000  -2448550.4780  -4668098.8980   3582741.1798   6   8   0.0272   0.0397   0.0225  -0.0156  -0.0242  -0.0118   0.00    0.0
2121 177750.000  -2448550.4779  -4668098.8986   3582741.1801   6   8   0.0271   0.0396   0.0225  -0.0156  -0.0242  -0.0118   0.00    0.0
2121 177780.000  -2448550.4780  -4668098.8990   3582741.1803   6   8   0.0271   0.0396   0.0225  -0.0155  -0.0242  -0.0118   0.00    0.0
2121 177810.000  -2448550.4781  -4668098.8989   3582741.1800   6   8   0.0271   0.0395   0.0224  -0.0155  -0.0241  -0.0119   0.00    0.0
2121 177840.000  -2448550.4775  -4668098.8998   3582741.1799   6   8   0.0270   0.0394   0.0224  -0.0153  -0.0241  -0.0119   0.00    0.0
2121 177870.000  -2448550.4760  -4668098.9006   3582741.1799   6   8   0.0267   0.0390   0.0223  -0.0150  -0.0240  -0.0119   0.00    0.0
2121 177900.000  -2448550.4727  -4668098.8978   3582741.1790   6   8   0.0261   0.0377   0.0220  -0.0139  -0.0236  -0.0119   0.00    0.0
2121 177930.000  -2448550.4707  -4668098.8992   3582741.1780   6   8   0.0259   0.0374   0.0219  -0.0136  -0.0235  -0.0120   0.00    0.0
2121 177960.000  -2448550.4705  -4668098.8986   3582741.1775   6   8   0.0258   0.0373   0.0218  -0.0135  -0.0234  -0.0120   0.00    0.0
2121 177990.000  -2448550.4702  -4668098.8985   3582741.1771   6   8   0.0258   0.0373   0.0218  -0.0135  -0.0234  -0.0120   0.00    0.0
2121 178020.000  -2448550.4700  -4668098.8982   3582741.1769   6   8   0.0257   0.0372   0.0218  -0.0134  -0.0234  -0.0120   0.00    0.0
2121 178050.000  -2448550.4700  -4668098.8980   3582741.1767   6   8   0.0257   0.0372   0.0218  -0.0134  -0.0234  -0.0120   0.00    0.0
2121 178080.000  -2448550.4699  -4668098.8980   3582741.1767   6   8   0.0257   0.0372   0.0218  -0.0134  -0.0234  -0.0120   0.00    0.0
2121 178110.000  -2448550.4699  -4668098.8982   3582741.1771   6   8   0.0257   0.0371   0.0218  -0.0133  -0.0233  -0.0120   0.00    0.0
2121 178140.000  -2448550.4695  -4668098.8997   3582741.1778   6   8   0.0256   0.0369   0.0217  -0.0132  -0.0233  -0.0120   0.00    0.0
2121 178170.000  -2448550.4672  -4668098.9041   3582741.1791   6   8   0.0254   0.0365   0.0216  -0.0129  -0.0231  -0.0120   0.00    0.0
2121 178200.000  -2448550.4646  -4668098.9011   3582741.1782   6   8   0.0248   0.0353   0.0213  -0.0118  -0.0227  -0.0121   0.00    0.0
2121 178230.000  -2448550.4626  -4668098.9034   3582741.1769   6   8   0.0247   0.0350   0.0212  -0.0115  -0.0226  -0.0122   0.00    0.0
2121 178260.000  -2448550.4616  -4668098.9042   3582741.1760   6   8   0.0246   0.0349   0.0212  -0.0114  -0.0225  -0.0122   0.00    0.0
2121 178290.000  -2448550.4613  -4668098.9042   3582741.1755   6   8   0.0246   0.0349   0.0212  -0.0114  -0.0225  -0.0122   0.00    0.0
2121 178320.000  -2448550.4611  -4668098.9041   3582741.1753   6   8   0.0246   0.0348   0.0212  -0.0113  -0.0225  -0.0122   0.00    0.0
2121 178350.000  -2448550.4610  -4668098.9041   3582741.1752   6   8   0.0246   0.0348   0.0212  -0.0113  -0.0225  -0.0122   0.00    0.0
2121 178380.000  -2448550.4610  -4668098.9037   3582741.1751   6   8   0.0246   0.0348   0.0212  -0.0113  -0.0225  -0.0122   0.00    0.0
2121 178410.000  -2448550.4607  -4668098.9032   3582741.1749   6   8   0.0245   0.0347   0.0211  -0.0112  -0.0224  -0.0122   0.00    0.0
2121 178440.000  -2448550.4605  -4668098.9010   3582741.1745   6   8   0.0245   0.0345   0.0211  -0.0111  -0.0224  -0.0122   0.00    0.0
2121 178470.000  -2448550.4593  -4668098.8985   3582741.1735   6   8   0.0243   0.0342   0.0210  -0.0108  -0.0222  -0.0123   0.00    0.0
2121 178500.000  -2448550.4581  -4668098.8969   3582741.1740   6   8   0.0239   0.0330   0.0207  -0.0097  -0.0218  -0.0124   0.00    0.0
2121 178530.000  -2448550.4576  -4668098.8990   3582741.1757   6   8   0.0237   0.0327   0.0206  -0.0095  -0.0216  -0.0124   0.00    0.0
2121 178560.000  -2448550.4573  -4668098.9003   3582741.1762   6   8   0.0237   0.0326   0.0206  -0.0094  -0.0216  -0.0124   0.00    0.0
2121 178590.000  -2448550.4572  -4668098.9000   3582741.1760   6   8   0.0237   0.0326   0.0206  -0.0093  -0.0216  -0.0124   0.00    0.0
2121 178620.000  -2448550.4571  -4668098.9001   3582741.1760   6   8   0.0237   0.0325   0.0206  -0.0093  -0.0215  -0.0124   0.00    0.0
2121 178650.000  -2448550.4570  -4668098.9002   3582741.1761   6   8   0.0236   0.0325   0.0205  -0.0093  -0.0215  -0.0124   0.00    0.0
2121 178680.000  -2448550.4569  -4668098.9008   3582741.1762   6   8   0.0236   0.0325   0.0205  -0.0092  -0.0215  -0.0124   0.00    0.0
2121 178710.000  -2448550.4567  -4668098.9011   3582741.1763   6   8   0.0236   0.0324   0.0205  -0.0092  -0.0215  -0.0124   0.00    0.0
2121 178740.000  -2448550.4564  -4668098.9013   3582741.1761   6   8   0.0235   0.0323   0.0205  -0.0091  -0.0214  -0.0125   0.00    0.0
2121 178770.000  -2448550.4556  -4668098.9000   3582741.1752   6   8   0.0234   0.0319   0.0204  -0.0088  -0.0212  -0.0125   0.00    0.0
2121 178800.000  -2448550.4556  -4668098.8961   3582741.1747   6   8   0.0231   0.0308   0.0201  -0.0078  -0.0208  -0.0126   0.00    0.0
2121 178830.000  -2448550.4554  -4668098.8952   3582741.1747   6   8   0.0230   0.0305   0.0200  -0.0075  -0.0207  -0.0126   0.00    0.0
2121 178860.000  -2448550.4553  -4668098.8950   3582741.1748   6   8   0.0229   0.0304   0.0200  -0.0074  -0.0206  -0.0126   0.00    0.0
2121 178890.000  -2448550.4553  -4668098.8951   3582741.1750   6   8   0.0229   0.0304   0.0200  -0.0074  -0.0206  -0.0126   0.00    0.0
2121 178920.000  -2448550.4553  -4668098.8951   3582741.1751   6   8   0.0229   0.0304   0.0200  -0.0073  -0.0206  -0.0127   0.00    0.0
2121 178950.000  -2448550.4553  -4668098.8950   3582741.1751   6   8   0.0229   0.0303   0.0200  -0.0073  -0.0206  -0.0127   0.00    0.0
2121 178980.000  -2448550.4554  -4668098.8950   3582741.1750   6   8   0.0229   0.0303   0.0199  -0.0073  -0.0205  -0.0127   0.00    0.0
2121 179010.000  -2448550.4554  -4668098.8954   3582741.1751   6   8   0.0229   0.0302   0.0199  -0.0072  -0.0205  -0.0127   0.00    0.0
2121 179040.000  -2448550.4555  -4668098.8957   3582741.1753   6   8   0.0228   0.0301   0.0199  -0.0071  -0.0204  -0.0127   0.00    0.0
2121 179070.000  -2448550.4563  -4668098.8957   3582741.1758   6   8   0.0227   0.0298   0.0198  -0.0069  -0.0203  -0.0127   0.00    0.0
2121 179100.000  -2448550.4567  -4668098.8927   3582741.1746   6   8   0.0224   0.0288   0.0195  -0.0058  -0.0198  -0.0128   0.00    0.0
2121 179130.000  -2448550.4559  -4668098.8921   3582741.1742   6   8   0.0224   0.0285   0.0194  -0.0056  -0.0197  -0.0128   0.00    0.0
2121 179160.000  -2448550.4557  -4668098.8919   3582741.1741   6   8   0.0223   0.0284   0.0194  -0.0055  -0.0197  -0.0128   0.00    0.0
2121 179190.000  -2448550.4556  -4668098.8917   3582741.1740   6   8   0.0223   0.0284   0.0194  -0.0054  -0.0196  -0.0128   0.00    0.0
2121 179220.000  -2448550.4555  -4668098.8918   3582741.1739   6   8   0.0223   0.0283   0.0194  -0.0054  -0.0196  -0.0128   0.00    0.0
2121 179250.000  -2448550.4554  -4668098.8918   3582741.1739   6   8   0.0223   0.0283   0.0194  -0.0054  -0.0196  -0.0128   0.00    0.0
2121 179280.000  -2448550.4555  -4668098.8916   3582741.1738   6   8   0.0223   0.0283   0.0194  -0.0053  -0.0196  -0.0128   0.00    0.0
2121 179310.000  -2448550.4556  -4668098.8913   3582741.1738   6   8   0.0223   0.0282   0.0194  -0.0053  -0.0196  -0.0128   0.00    0.0
2121 179340.000  -2448550.4556  -4668098.8915   3582741.1738   6   8   0.0222   0.0281   0.0193  -0.0052  -0.0195  -0.0129   0.00    0.0
2121 179370.000  -2448550.4551  -4668098.8926   3582741.1738   6   8   0.0222   0.0278   0.0192  -0.0049  -0.0193  -0.0129   0.00    0.0
2121 179400.000  -2448550.4548  -4668098.8915   3582741.1740   6   8   0.0219   0.0269   0.0190  -0.0038  -0.0189  -0.0130   0.00    0.0
2121 179430.000  -2448550.4542  -4668098.8903   3582741.1736   6   8   0.0219   0.0266   0.0189  -0.0035  -0.0188  -0.0130   0.00    0.0
2121 179460.000  -2448550.4541  -4668098.8888   3582741.1731   6   8   0.0218   0.0266   0.0189  -0.0034  -0.0187  -0.0130   0.00    0.0
2121 179490.000  -2448550.4542  -4668098.8886   3582741.1732   6   8   0.0218   0.0265   0.0189  -0.0033  -0.0187  -0.0130   0.00    0.0
2121 179520.000  -2448550.4543  -4668098.8883   3582741.1733   6   8   0.0218   0.0265   0.0188  -0.0033  -0.0187  -0.0130   0.00    0.0
2121 179550.000  -2448550.4545  -4668098.8881   3582741.1733   6   8   0.0218   0.0265   0.0188  -0.0033  -0.0187  -0.0130   0.00    0.0
2121 179580.000  -2448550.4547  -4668098.8881   3582741.1734   6   8   0.0218   0.0264   0.0188  -0.0032  -0.0187  -0.0130   0.00    0.0
2121 179610.000  -2448550.4550  -4668098.8883   3582741.1738   6   8   0.0218   0.0264   0.0188  -0.0032  -0.0186  -0.0130   0.00    0.0
2121 179640.000  -2448550.4557  -4668098.8885   3582741.1745   6   8   0.0218   0.0263   0.0188  -0.0031  -0.0186  -0.0130   0.00    0.0
2121 179670.000  -2448550.4564  -4668098.8871   3582741.1745   6   8   0.0217   0.0260   0.0187  -0.0027  -0.0184  -0.0130   0.00    0.0
2121 179700.000  -2448550.4561  -4668098.8861   3582741.1740   6   8   0.0215   0.0252   0.0184  -0.0005  -0.0180  -0.0131   0.00    0.0
2121 179730.000  -2448550.4555  -4668098.8839   3582741.1731   6   8   0.0215   0.0249   0.0184   0.0011  -0.0179  -0.0131   0.00    0.0
2121 179760.000  -2448550.4555  -4668098.8832   3582741.1729   6   8   0.0215   0.0249   0.0183   0.0012  -0.0178  -0.0131   0.00    0.0
2121 179790.000  -2448550.4554  -4668098.8828   3582741.1727   6   8   0.0214   0.0248   0.0183   0.0013  -0.0178  -0.0131   0.00    0.0
2121 179820.000  -2448550.4551  -4668098.8825   3582741.1724   6   8   0.0214   0.0248   0.0183   0.0014  -0.0178  -0.0131   0.00    0.0
2121 179850.000  -2448550.4549  -4668098.8822   3582741.1722   6   8   0.0214   0.0248   0.0183   0.0014  -0.0178  -0.0131   0.00    0.0
2121 179880.000  -2448550.4547  -4668098.8816   3582741.1718   6   8   0.0214   0.0248   0.0183   0.0015  -0.0178  -0.0131   0.00    0.0
2121 179910.000  -2448550.4544  -4668098.8811   3582741.1713   6   8   0.0214   0.0247   0.0183   0.0015  -0.0177  -0.0131   0.00    0.0
2121 179940.000  -2448550.4540  -4668098.8811   3582741.1711   6   8   0.0214   0.0246   0.0182   0.0016  -0.0177  -0.0131   0.00    0.0
2121 179970.000  -2448550.4532  -4668098.8813   3582741.1709   6   8   0.0213   0.0244   0.0182   0.0019  -0.0175  -0.0131   0.00    0.0
2121 180000.000  -2448550.4518  -4668098.8803   3582741.1696   6   8   0.0212   0.0236   0.0179   0.0030  -0.0171  -0.0131   0.00    0.0
2121 180030.000  -2448550.4522  -4668098.8827   3582741.1706   6   8   0.0211   0.0234   0.0178   0.0031  -0.0170  -0.0131   0.00    0.0
2121 180060.000  -2448550.4521  -4668098.8831   3582741.1707   6   8   0.0211   0.0233   0.0178   0.0031  -0.0170  -0.0131   0.00    0.0
2121 180090.000  -2448550.4518  -4668098.8831   3582741.1706   6   8   0.0211   0.0233   0.0178   0.0032  -0.0169  -0.0131   0.00    0.0
2121 180120.000  -2448550.4517  -4668098.8829   3582741.1705   6   8   0.0211   0.0233   0.0178   0.0032  -0.0169  -0.0131   0.00    0.0
2121 180150.000  -2448550.4517  -4668098.8829   3582741.1705   6   8   0.0211   0.0232   0.0178   0.0032  -0.0169  -0.0131   0.00    0.0
2121 180180.000  -2448550.4514  -4668098.8825   3582741.1702   6   8   0.0211   0.0232   0.0178   0.0032  -0.0169  -0.0131   0.00    0.0
2121 180210.000  -2448550.4511  -4668098.8819   3582741.1698   6   8   0.0211   0.0232   0.0177   0.0032  -0.0169  -0.0131   0.00    0.0
2121 180240.000  -2448550.4515  -4668098.8823   3582741.1703   6   8   0.0211   0.0231   0.0177   0.0032  -0.0168  -0.0131   0.00    0.0
2121 180270.000  -2448550.4515  -4668098.8831   3582741.1707   6   8   0.0210   0.0228   0.0176   0.0033  -0.0167  -0.0131   0.00    0.0
2121 180300.000  -2448550.4507  -4668098.8825   3582741.1697   6   8   0.0209   0.0221   0.0174   0.0038  -0.0163  -0.0131   0.00    0.0
2121 180330.000  -2448550.4509  -4668098.8816   3582741.1693   6   8   0.0209   0.0219   0.0173   0.0038  -0.0161  -0.0131   0.00    0.0
2121 180360.000  -2448550.4512  -4668098.8813   3582741.1693   6   8   0.0208   0.0219   0.0173   0.0038  -0.0161  -0.0131   0.00    0.0
2121 180390.000  -2448550.4512  -4668098.8811   3582741.1693   6   7   0.0208   0.0218   0.0173   0.0038  -0.0161  -0.0131   0.00    0.0
2121 180420.000  -2448550.4512  -4668098.8813   3582741.1693   6   7   0.0208   0.0218   0.0173   0.0038  -0.0161  -0.0131   0.00    0.0
2121 180450.000  -2448550.4512  -4668098.8815   3582741.1694   6   7   0.0208   0.0218   0.0172   0.0039  -0.0161  -0.0131   0.00    0.0
2121 180480.000  -2448550.4513  -4668098.8816   3582741.1694   6   7   0.0208   0.0218   0.0172   0.0039  -0.0161  -0.0131   0.00    0.0
2121 180510.000  -2448550.4513  -4668098.8815   3582741.1694   6   7   0.0208   0.0218   0.0172   0.0039  -0.0160  -0.0131   0.00    0.0
2121 180540.000  -2448550.4514  -4668098.8813   3582741.1693   6   7   0.0208   0.0217   0.0172   0.0040  -0.0160  -0.0131   0.00    0.0
2121 180570.000  -2448550.4515  -4668098.8801   3582741.1692   6   7   0.0208   0.0215   0.0172   0.0042  -0.0159  -0.0131   0.00    0.0
2121 180600.000  -2448550.4519  -4668098.8798   3582741.1689   6   7   0.0207   0.0209   0.0170   0.0046  -0.0156  -0.0132   0.00    0.0
2121 180630.000  -2448550.4520  -4668098.8801   3582741.1690   6   7   0.0207   0.0208   0.0170   0.0048  -0.0156  -0.0132   0.00    0.0
2121 180660.000  -2448550.4519  -4668098.8805   3582741.1691   6   7   0.0207   0.0208   0.0170   0.0048  -0.0155  -0.0133   0.00    0.0
2121 180690.000  -2448550.4519  -4668098.8805   3582741.1691   6   7   0.0207   0.0207   0.0170   0.0048  -0.0155  -0.0133   0.00    0.0
2121 180720.000  -2448550.4519  -4668098.8807   3582741.1692   6   7   0.0207   0.0207   0.0169   0.0048  -0.0155  -0.0133   0.00    0.0
2121 180750.000  -2448550.4519  -4668098.8808   3582741.1692   6   7   0.0207   0.0207   0.0169   0.0048  -0.0155  -0.0133   0.00    0.0
2121 180780.000  -2448550.4519  -4668098.8810   3582741.1693   6   7   0.0207   0.0207   0.0169   0.0049  -0.0155  -0.0133   0.00    0.0
2121 180810.000  -2448550.4519  -4668098.8813   3582741.1694   6   7   0.0207   0.0207   0.0169   0.0049  -0.0155  -0.0133   0.00    0.0
2121 180840.000  -2448550.4519  -4668098.8823   3582741.1697   6   7   0.0207   0.0206   0.0169   0.0049  -0.0154  -0.0133   0.00    0.0
2121 180870.000  -2448550.4518  -4668098.8850   3582741.1707   6   7   0.0207   0.0204   0.0168   0.0050  -0.0154  -0.0133   0.00    0.0
2121 180900.000  -2448550.4521  -4668098.8852   3582741.1715   6   7   0.0207   0.0199   0.0167   0.0053  -0.0151  -0.0134   0.00    0.0
2121 180930.000  -2448550.4522  -4668098.8856   3582741.1717   6   7   0.0206   0.0198   0.0166   0.0053  -0.0150  -0.0134   0.00    0.0
2121 180960.000  -2448550.4522  -4668098.8860   3582741.1718   6   7   0.0206   0.0197   0.0166   0.0053  -0.0150  -0.0134   0.00    0.0
2121 180990.000  -2448550.4522  -4668098.8861   3582741.1718   6   6   0.0206   0.0197   0.0166   0.0053  -0.0150  -0.0134   0.00    0.0
2121 181020.000  -2448550.4522  -4668098.8862   3582741.1718   6   6   0.0206   0.0197   0.0166   0.0053  -0.0150  -0.0134   0.00    0.0
2121 181050.000  -2448550.4522  -4668098.8861   3582741.1718   6   6   0.0206   0.0197   0.0166   0.0054  -0.0150  -0.0134   0.00    0.0
2121 181080.000  -2448550.4522  -4668098.8860   3582741.1717   6   6   0.0206   0.0197   0.0166   0.0054  -0.0150  -0.0134   0.00    0.0
2121 181110.000  -2448550.4522  -4668098.8860   3582741.1718   6   6   0.0206   0.0197   0.0166   0.0054  -0.0149  -0.0134   0.00    0.0
2121 181140.000  -2448550.4522  -4668098.8862   3582741.1718   6   6   0.0206   0.0196   0.0166   0.0054  -0.0149  -0.0134   0.00    0.0
2121 181170.000  -2448550.4523  -4668098.8858   3582741.1716   6   6   0.0206   0.0195   0.0166   0.0055  -0.0149  -0.0134   0.00    0.0
2121 181200.000  -2448550.4523  -4668098.8848   3582741.1716   6   6   0.0206   0.0191   0.0165   0.0057  -0.0147  -0.0135   0.00    0.0
2121 181230.000  -2448550.4520  -4668098.8850   3582741.1716   6   6   0.0206   0.0190   0.0164   0.0057  -0.0146  -0.0135   0.00    0.0
2121 181260.000  -2448550.4520  -4668098.8849   3582741.1715   6   6   0.0206   0.0190   0.0164   0.0057  -0.0146  -0.0135   0.00    0.0
2121 181290.000  -2448550.4519  -4668098.8850   3582741.1715   6   6   0.0206   0.0190   0.0164   0.0057  -0.0146  -0.0135   0.00    0.0
2121 181320.000  -2448550.4518  -4668098.8851   3582741.1715   6   6   0.0206   0.0189   0.0164   0.0057  -0.0146  -0.0135   0.00    0.0
2121 181350.000  -2448550.4518  -4668098.8851   3582741.1715   6   6   0.0206   0.0189   0.0164   0.0058  -0.0146  -0.0135   0.00    0.0
2121 181380.000  -2448550.4517  -4668098.8851   3582741.1714   6   7   0.0206   0.0189   0.0164   0.0058  -0.0146  -0.0135   0.00    0.0
2121 181410.000  -2448550.4517  -4668098.8850   3582741.1714   6   7   0.0206   0.0189   0.0164   0.0058  -0.0146  -0.0135   0.00    0.0
2121 181440.000  -2448550.4517  -4668098.8847   3582741.1713   6   7   0.0205   0.0189   0.0164   0.0058  -0.0146  -0.0135   0.00    0.0
2121 181470.000  -2448550.4518  -4668098.8845   3582741.1710   6   7   0.0205   0.0188   0.0164   0.0058  -0.0145  -0.0135   0.00    0.0
2121 181500.000  -2448550.4520  -4668098.8838   3582741.1707   6   7   0.0205   0.0184   0.0163   0.0060  -0.0144  -0.0135   0.00    0.0
2121 181530.000  -2448550.4519  -4668098.8839   3582741.1707   6   7   0.0205   0.0183   0.0163   0.0060  -0.0143  -0.0135   0.00    0.0
2121 181560.000  -2448550.4519  -4668098.8840   3582741.1708   6   7   0.0205   0.0183   0.0163   0.0060  -0.0143  -0.0135   0.00    0.0
2121 181590.000  -2448550.4519  -4668098.8843   3582741.1708   6   7   0.0205   0.0183   0.0163   0.0060  -0.0143  -0.0135   0.00    0.0
2121 181620.000  -2448550.4518  -4668098.8846   3582741.1708   6   7   0.0205   0.0183   0.0162   0.0060  -0.0143  -0.0135   0.00    0.0
2121 181650.000  -2448550.4518  -4668098.8848   3582741.1709   6   7   0.0205   0.0183   0.0162   0.0060  -0.0143  -0.0135   0.00    0.0
2121 181680.000  -2448550.4517  -4668098.8851   3582741.1709   6   7   0.0205   0.0183   0.0162   0.0060  -0.0143  -0.0135   0.00    0.0
2121 181710.000  -2448550.4517  -4668098.8855   3582741.1710   6   7   0.0205   0.0183   0.0162   0.0060  -0.0143  -0.0135   0.00    0.0
2121 181740.000  -2448550.4518  -4668098.8854   3582741.1710   6   7   0.0205   0.0182   0.0162   0.0060  -0.0143  -0.0135   0.00    0.0
2121 181770.000  -2448550.4520  -4668098.8846   3582741.1709   6   7   0.0205   0.0182   0.0162   0.0061  -0.0142  -0.0135   0.00    0.0
2121 181800.000  -2448550.4523  -4668098.8839   3582741.1702   6   7   0.0204   0.0178   0.0161   0.0061  -0.0141  -0.0136   0.00    0.0
2121 181830.000  -2448550.4519  -4668098.8843   3582741.1703   6   7   0.0204   0.0178   0.0161   0.0062  -0.0140  -0.0136   0.00    0.0
2121 181860.000  -2448550.4517  -4668098.8841   3582741.1701   6   7   0.0204   0.0177   0.0161   0.0062  -0.0140  -0.0136   0.00    0.0
2121 181890.000  -2448550.4514  -4668098.8840   3582741.1701   6   7   0.0204   0.0177   0.0161   0.0062  -0.0140  -0.0136   0.00    0.0
2121 181920.000  -2448550.4512  -4668098.8841   3582741.1701   6   7   0.0204   0.0177   0.0160   0.0062  -0.0140  -0.0136   0.00    0.0
2121 181950.000  -2448550.4511  -4668098.8842   3582741.1701   6   7   0.0204   0.0177   0.0160   0.0062  -0.0140  -0.0135   0.00    0.0
2121 181980.000  -2448550.4511  -4668098.8842   3582741.1701   6   7   0.0204   0.0177   0.0160   0.0062  -0.0140  -0.0135   0.00    0.0
2121 182010.000  -2448550.4509  -4668098.8842   3582741.1700   6   7   0.0204   0.0177   0.0160   0.0062  -0.0140  -0.0135   0.00    0.0
2121 182040.000  -2448550.4506  -4668098.8841   3582741.1697   6   7   0.0204   0.0177   0.0160   0.0062  -0.0140  -0.0135   0.00    0.0
2121 182070.000  -2448550.4499  -4668098.8839   3582741.1691   6   7   0.0204   0.0176   0.0160   0.0062  -0.0139  -0.0135   0.00    0.0
2121 182100.000  -2448550.4502  -4668098.8834   3582741.1688   6   7   0.0203   0.0173   0.0159   0.0062  -0.0138  -0.0135   0.00    0.0
2121 182130.000  -2448550.4504  -4668098.8840   3582741.1692   6   7   0.0203   0.0173   0.0159   0.0062  -0.0138  -0.0135   0.00    0.0
2121 182160.000  -2448550.4504  -4668098.8843   3582741.1693   6   7   0.0203   0.0172   0.0158   0.0062  -0.0137  -0.0135   0.00    0.0
2121 182190.000  -2448550.4503  -4668098.8844   3582741.1692   6   7   0.0203   0.0172   0.0158   0.0062  -0.0137  -0.0135   0.00    0.0
2121 182220.000  -2448550.4503  -4668098.8845   3582741.1693   6   7   0.0203   0.0172   0.0158   0.0062  -0.0137  -0.0135   0.00    0.0
2121 182250.000  -2448550.4503  -4668098.8846   3582741.1693   6   7   0.0203   0.0172   0.0158   0.0062  -0.0137  -0.0135   0.00    0.0
2121 182280.000  -2448550.4503  -4668098.8847   3582741.1693   6   7   0.0203   0.0172   0.0158   0.0062  -0.0137  -0.0135   0.00    0.0
2121 182310.000  -2448550.4503  -4668098.8846   3582741.1693   6   7   0.0203   0.0172   0.0158   0.0062  -0.0137  -0.0135   0.00    0.0
2121 182340.000  -2448550.4504  -4668098.8846   3582741.1693   6   7   0.0203   0.0172   0.0158   0.0062  -0.0137  -0.0135   0.00    0.0
2121 182370.000  -2448550.4503  -4668098.8849   3582741.1691   6   7   0.0203   0.0171   0.0158   0.0062  -0.0137  -0.0135   0.00    0.0
2121 182400.000  -2448550.4500  -4668098.8838   3582741.1684   6   7   0.0202   0.0169   0.0157   0.0062  -0.0135  -0.0134   0.00    0.0
2121 182430.000  -2448550.4502  -4668098.8843   3582741.1685   6   7   0.0202   0.0168   0.0156   0.0062  -0.0135  -0.0134   0.00    0.0
2121 182460.000  -2448550.4504  -4668098.8846   3582741.1686   6   7   0.0202   0.0168   0.0156   0.0062  -0.0135  -0.0134   0.00    0.0
2121 182490.000  -2448550.4505  -4668098.8846   3582741.1686   6   7   0.0202   0.0168   0.0156   0.0062  -0.0135  -0.0134   0.00    0.0
2121 182520.000  -2448550.4506  -4668098.8845   3582741.1686   6   7   0.0202   0.0168   0.0156   0.0062  -0.0135  -0.0134   0.00    0.0
2121 182550.000  -2448550.4505  -4668098.8845   3582741.1686   6   7   0.0202   0.0168   0.0156   0.0062  -0.0135  -0.0134   0.00    0.0
2121 182580.000  -2448550.4506  -4668098.8846   3582741.1687   6   7   0.0202   0.0168   0.0156   0.0062  -0.0135  -0.0134   0.00    0.0
2121 182610.000  -2448550.4507  -4668098.8846   3582741.1687   6   7   0.0202   0.0168   0.0156   0.0062  -0.0135  -0.0134   0.00    0.0
2121 182640.000  -2448550.4506  -4668098.8844   3582741.1687   6   7   0.0201   0.0167   0.0156   0.0062  -0.0134  -0.0134   0.00    0.0
2121 182670.000  -2448550.4502  -4668098.8834   3582741.1683   6   7   0.0201   0.0167   0.0155   0.0062  -0.0134  -0.0134   0.00    0.0
2121 182700.000  -2448550.4500  -4668098.8823   3582741.1680   6   7   0.0201   0.0165   0.0154   0.0061  -0.0133  -0.0133   0.00    0.0
2121 182730.000  -2448550.4501  -4668098.8813   3582741.1682   6   7   0.0200   0.0164   0.0154   0.0061  -0.0133  -0.0133   0.00    0.0
2121 182760.000  -2448550.4501  -4668098.8811   3582741.1681   6   7   0.0200   0.0164   0.0154   0.0061  -0.0132  -0.0133   0.00    0.0
2121 182790.000  -2448550.4501  -4668098.8810   3582741.1680   6   7   0.0200   0.0164   0.0154   0.0061  -0.0132  -0.0133   0.00    0.0
2121 182820.000  -2448550.4500  -4668098.8811   3582741.1680   6   7   0.0200   0.0164   0.0154   0.0061  -0.0132  -0.0133   0.00    0.0
2121 182850.000  -2448550.4499  -4668098.8812   3582741.1680   6   7   0.0200   0.0164   0.0154   0.0061  -0.0132  -0.0133   0.00    0.0
2121 182880.000  -2448550.4499  -4668098.8814   3582741.1681   6   7   0.0200   0.0164   0.0154   0.0061  -0.0132  -0.0133   0.00    0.0
2121 182910.000  -2448550.4500  -4668098.8816   3582741.1681   6   7   0.0200   0.0164   0.0154   0.0061  -0.0132  -0.0133   0.00    0.0
2121 182940.000  -2448550.4504  -4668098.8817   3582741.1683   6   7   0.0200   0.0164   0.0153   0.0061  -0.0132  -0.0133   0.00    0.0
2121 182970.000  -2448550.4509  -4668098.8816   3582741.1686   6   7   0.0200   0.0163   0.0153   0.0061  -0.0132  -0.0133   0.00    0.0
2121 183000.000  -2448550.4509  -4668098.8817   3582741.1683   6   7   0.0199   0.0162   0.0152   0.0061  -0.0131  -0.0132   0.00    0.0
2121 183030.000  -2448550.4508  -4668098.8818   3582741.1681   6   7   0.0199   0.0161   0.0152   0.0061  -0.0131  -0.0132   0.00    0.0
2121 183060.000  -2448550.4509  -4668098.8817   3582741.1682   6   7   0.0198   0.0161   0.0152   0.0061  -0.0130  -0.0132   0.00    0.0
2121 183090.000  -2448550.4510  -4668098.8817   3582741.1682   6   7   0.0198   0.0161   0.0151   0.0061  -0.0130  -0.0132   0.00    0.0
2121 183120.000  -2448550.4510  -4668098.8817   3582741.1682   6   7   0.0198   0.0161   0.0151   0.0061  -0.0130  -0.0132   0.00    0.0
2121 183150.000  -2448550.4510  -4668098.8817   3582741.1682   6   7   0.0198   0.0161   0.0151   0.0061  -0.0130  -0.0132   0.00    0.0
2121 183180.000  -2448550.4510  -4668098.8817   3582741.1682   6   7   0.0198   0.0161   0.0151   0.0061  -0.0130  -0.0132   0.00    0.0
2121 183210.000  -2448550.4512  -4668098.8817   3582741.1682   6   7   0.0198   0.0161   0.0151   0.0061  -0.0130  -0.0132   0.00    0.0
2121 183240.000  -2448550.4515  -4668098.8818   3582741.1683   6   7   0.0198   0.0161   0.0151   0.0061  -0.0130  -0.0132   0.00    0.0
2121 183270.000  -2448550.4521  -4668098.8820   3582741.1685   6   7   0.0198   0.0160   0.0151   0.0060  -0.0130  -0.0131   0.00    0.0
2121 183300.000  -2448550.4517  -4668098.8823   3582741.1680   6   7   0.0197   0.0159   0.0150   0.0060  -0.0129  -0.0131   0.00    0.0
2121 183330.000  -2448550.4517  -4668098.8822   3582741.1683   6   7   0.0197   0.0159   0.0150   0.0060  -0.0129  -0.0130   0.00    0.0
2121 183360.000  -2448550.4517  -4668098.8821   3582741.1682   6   7   0.0197   0.0159   0.0149   0.0060  -0.0129  -0.0130   0.00    0.0
2121 183390.000  -2448550.4516  -4668098.8821   3582741.1682   6   7   0.0196   0.0159   0.0149   0.0060  -0.0129  -0.0130   0.00    0.0
2121 183420.000  -2448550.4515  -4668098.8821   3582741.1682   6   7   0.0196   0.0159   0.0149   0.0060  -0.0129  -0.0130   0.00    0.0
2121 183450.000  -2448550.4514  -4668098.8820   3582741.1682   6   7   0.0196   0.0159   0.0149   0.0060  -0.0129  -0.0130   0.00    0.0
2121 183480.000  -2448550.4513  -4668098.8818   3582741.1681   6   7   0.0196   0.0159   0.0149   0.0060  -0.0129  -0.0130   0.00    0.0
2121 183510.000  -2448550.4512  -4668098.8815   3582741.1680   6   7   0.0196   0.0158   0.0149   0.0060  -0.0129  -0.0130   0.00    0.0
2121 183540.000  -2448550.4511  -4668098.8812   3582741.1679   6   7   0.0196   0.0158   0.0149   0.0060  -0.0129  -0.0130   0.00    0.0
2121 183570.000  -2448550.4510  -4668098.8806   3582741.1677   6   7   0.0196   0.0158   0.0149   0.0060  -0.0129  -0.0130   0.00    0.0
2121 183600.000  -2448550.4503  -4668098.8803   3582741.1668   6   7   0.0195   0.0157   0.0148   0.0060  -0.0128  -0.0129   0.00    0.0
2121 183630.000  -2448550.4499  -4668098.8802   3582741.1664   6   7   0.0195   0.0157   0.0148   0.0060  -0.0128  -0.0129   0.00    0.0
2121 183660.000  -2448550.4498  -4668098.8802   3582741.1662   6   7   0.0194   0.0157   0.0148   0.0060  -0.0128  -0.0129   0.00    0.0
2121 183690.000  -2448550.4496  -4668098.8801   3582741.1661   6   7   0.0194   0.0157   0.0148   0.0060  -0.0128  -0.0129   0.00    0.0
2121 183720.000  -2448550.4496  -4668098.8801   3582741.1661   6   7   0.0194   0.0157   0.0147   0.0060  -0.0128  -0.0129   0.00    0.0
2121 183750.000  -2448550.4495  -4668098.8801   3582741.1661   6   7   0.0194   0.0157   0.0147   0.0060  -0.0128  -0.0129   0.00    0.0
2121 183780.000  -2448550.4494  -4668098.8801   3582741.1661   6   7   0.0194   0.0157   0.0147   0.0060  -0.0128  -0.0129   0.00    0.0
2121 183810.000  -2448550.4493  -4668098.8800   3582741.1660   6   7   0.0194   0.0157   0.0147   0.0060  -0.0128  -0.0129   0.00    0.0
2121 183840.000  -2448550.4494  -4668098.8800   3582741.1660   6   7   0.0194   0.0157   0.0147   0.0060  -0.0128  -0.0128   0.00    0.0
2121 183870.000  -2448550.4496  -4668098.8800   3582741.1658   6   7   0.0194   0.0156   0.0147   0.0060  -0.0128  -0.0128   0.00    0.0
2121 183900.000  -2448550.4498  -4668098.8796   3582741.1652   6   7   0.0193   0.0156   0.0146   0.0060  -0.0127  -0.0127   0.00    0.0
2121 183930.000  -2448550.4498  -4668098.8797   3582741.1653   6   7   0.0192   0.0155   0.0146   0.0061  -0.0127  -0.0127   0.00    0.0
2121 183960.000  -2448550.4498  -4668098.8798   3582741.1653   6   7   0.0192   0.0155   0.0146   0.0061  -0.0127  -0.0127   0.00    0.0
2121 183990.000  -2448550.4498  -4668098.8798   3582741.1654   6   7   0.0192   0.0155   0.0146   0.0061  -0.0127  -0.0127   0.00    0.0
2121 184020.000  -2448550.4498  -4668098.8798   3582741.1654   6   7   0.0192   0.0155   0.0146   0.0061  -0.0127  -0.0127   0.00    0.0
2121 184050.000  -2448550.4497  -4668098.8798   3582741.1654   6   7   0.0192   0.0155   0.0146   0.0061  -0.0127  -0.0127   0.00    0.0
2121 184080.000  -2448550.4497  -4668098.8798   3582741.1654   6   7   0.0192   0.0155   0.0146   0.0061  -0.0127  -0.0127   0.00    0.0
2121 184110.000  -2448550.4497  -4668098.8798   3582741.1654   6   7   0.0192   0.0155   0.0146   0.0061  -0.0127  -0.0127   0.00    0.0
2121 184140.000  -2448550.4497  -4668098.8799   3582741.1656   6   7   0.0192   0.0155   0.0146   0.0061  -0.0127  -0.0127   0.00    0.0
2121 184170.000  -2448550.4497  -4668098.8798   3582741.1655   6   7   0.0191   0.0155   0.0145   0.0061  -0.0127  -0.0127   0.00    0.0
2121 184200.000  -2448550.4496  -4668098.8797   3582741.1646   6   7   0.0190   0.0154   0.0144   0.0061  -0.0127  -0.0126   0.00    0.0
2121 184230.000  -2448550.4499  -4668098.8801   3582741.1652   6   7   0.0190   0.0154   0.0144   0.0061  -0.0127  -0.0126   0.00    0.0
2121 184260.000  -2448550.4498  -4668098.8802   3582741.1654   6   7   0.0190   0.0154   0.0144   0.0061  -0.0127  -0.0126   0.00    0.0
2121 184290.000  -2448550.4498  -4668098.8802   3582741.1655   6   7   0.0190   0.0154   0.0144   0.0061  -0.0127  -0.0126   0.00    0.0
2121 184320.000  -2448550.4498  -4668098.8801   3582741.1654   6   8   0.0190   0.0154   0.0144   0.0061  -0.0127  -0.0126   0.00    0.0
2121 184350.000  -2448550.4498  -4668098.8801   3582741.1653   6   8   0.0190   0.0154   0.0144   0.0061  -0.0126  -0.0126   0.00    0.0
2121 184380.000  -2448550.4498  -4668098.8801   3582741.1653   6   8   0.0190   0.0154   0.0144   0.0061  -0.0126  -0.0126   0.00    0.0
2121 184410.000  -2448550.4497  -4668098.8800   3582741.1652   6   8   0.0190   0.0154   0.0144   0.0061  -0.0126  -0.0126   0.00    0.0
2121 184440.000  -2448550.4496  -4668098.8798   3582741.1649   6   8   0.0190   0.0154   0.0144   0.0061  -0.0126  -0.0125   0.00    0.0
2121 184470.000  -2448550.4491  -4668098.8792   3582741.1639   6   8   0.0189   0.0154   0.0144   0.0062  -0.0126  -0.0125   0.00    0.0
2121 184500.000  -2448550.4491  -4668098.8793   3582741.1633   6   8   0.0188   0.0153   0.0143   0.0062  -0.0126  -0.0124   0.00    0.0
2121 184530.000  -2448550.4491  -4668098.8789   3582741.1629   6   8   0.0188   0.0153   0.0143   0.0062  -0.0126  -0.0124   0.00    0.0
2121 184560.000  -2448550.4490  -4668098.8784   3582741.1625   6   8   0.0188   0.0153   0.0143   0.0062  -0.0126  -0.0124   0.00    0.0
2121 184590.000  -2448550.4490  -4668098.8782   3582741.1623   6   8   0.0187   0.0153   0.0143   0.0062  -0.0126  -0.0124   0.00    0.0
2121 184620.000  -2448550.4490  -4668098.8781   3582741.1622   6   8   0.0187   0.0153   0.0142   0.0062  -0.0126  -0.0124   0.00    0.0
2121 184650.000  -2448550.4490  -4668098.8781   3582741.1622   6   8   0.0187   0.0153   0.0142   0.0062  -0.0126  -0.0124   0.00    0.0
2121 184680.000  -2448550.4490  -4668098.8780   3582741.1620   6   8   0.0187   0.0153   0.0142   0.0062  -0.0126  -0.0124   0.00    0.0
2121 184710.000  -2448550.4490  -4668098.8779   3582741.1619   6   8   0.0187   0.0153   0.0142   0.0062  -0.0126  -0.0124   0.00    0.0
2121 184740.000  -2448550.4488  -4668098.8777   3582741.1616   6   8   0.0187   0.0153   0.0142   0.0062  -0.0126  -0.0124   0.00    0.0
2121 184770.000  -2448550.4485  -4668098.8770   3582741.1609   6   8   0.0187   0.0152   0.0142   0.0063  -0.0126  -0.0124   0.00    0.0
2121 184800.000  -2448550.4482  -4668098.8763   3582741.1595   6   8   0.0186   0.0152   0.0141   0.0063  -0.0125  -0.0123   0.00    0.0
2121 184830.000  -2448550.4480  -4668098.8768   3582741.1598   6   7   0.0185   0.0152   0.0141   0.0064  -0.0125  -0.0123   0.00    0.0
2121 184860.000  -2448550.4479  -4668098.8770   3582741.1599   6   7   0.0185   0.0152   0.0141   0.0064  -0.0125  -0.0123   0.00    0.0
2121 184890.000  -2448550.4479  -4668098.8771   3582741.1600   6   7   0.0185   0.0152   0.0141   0.0064  -0.0125  -0.0123   0.00    0.0
2121 184920.000  -2448550.4478  -4668098.8772   3582741.1600   6   7   0.0185   0.0152   0.0141   0.0064  -0.0125  -0.0122   0.00    0.0
2121 184950.000  -2448550.4479  -4668098.8772   3582741.1600   6   7   0.0185   0.0152   0.0141   0.0064  -0.0125  -0.0122   0.00    0.0
2121 184980.000  -2448550.4478  -4668098.8773   3582741.1600   6   8   0.0185   0.0152   0.0141   0.0064  -0.0125  -0.0122   0.00    0.0
2121 185010.000  -2448550.4477  -4668098.8774   3582741.1600   6   8   0.0185   0.0152   0.0141   0.0064  -0.0125  -0.0122   0.00    0.0
2121 185040.000  -2448550.4475  -4668098.8776   3582741.1602   6   8   0.0185   0.0151   0.0140   0.0064  -0.0125  -0.0122   0.00    0.0
2121 185070.000  -2448550.4473  -4668098.8782   3582741.1605   6   8   0.0184   0.0151   0.0140   0.0064  -0.0125  -0.0122   0.00    0.0
2121 185100.000  -2448550.4461  -4668098.8781   3582741.1594   6   8   0.0183   0.0151   0.0139   0.0065  -0.0124  -0.0121   0.00    0.0
2121 185130.000  -2448550.4457  -4668098.8779   3582741.1588   6   8   0.0183   0.0150   0.0139   0.0065  -0.0124  -0.0121   0.00    0.0
2121 185160.000  -2448550.4457  -4668098.8780   3582741.1590   6   8   0.0183   0.0150   0.0139   0.0065  -0.0124  -0.0121   0.00    0.0
2121 185190.000  -2448550.4458  -4668098.8782   3582741.1591   6   8   0.0183   0.0150   0.0139   0.0065  -0.0124  -0.0121   0.00    0.0
2121 185220.000  -2448550.4459  -4668098.8782   3582741.1591   6   8   0.0183   0.0150   0.0139   0.0065  -0.0124  -0.0121   0.00    0.0
2121 185250.000  -2448550.4459  -4668098.8781   3582741.1591   6   8   0.0183   0.0150   0.0138   0.0065  -0.0124  -0.0121   0.00    0.0
2121 185280.000  -2448550.4459  -4668098.8780   3582741.1590   6   8   0.0182   0.0150   0.0138   0.0065  -0.0124  -0.0121   0.00    0.0
2121 185310.000  -2448550.4459  -4668098.8778   3582741.1589   6   8   0.0182   0.0150   0.0138   0.0065  -0.0124  -0.0121   0.00    0.0
2121 185340.000  -2448550.4458  -4668098.8776   3582741.1586   6   8   0.0182   0.0150   0.0138   0.0065  -0.0124  -0.0121   0.00    0.0
2121 185370.000  -2448550.4454  -4668098.8773   3582741.1581   6   8   0.0182   0.0150   0.0138   0.0065  -0.0124  -0.0120   0.00    0.0
2121 185400.000  -2448550.4443  -4668098.8757   3582741.1558   6   8   0.0181   0.0149   0.0137   0.0066  -0.0123  -0.0119   0.00    0.0
2121 185430.000  -2448550.4439  -4668098.8754   3582741.1552   6   8   0.0180   0.0148   0.0136   0.0066  -0.0123  -0.0119   0.00    0.0
2121 185460.000  -2448550.4437  -4668098.8753   3582741.1549   6   8   0.0180   0.0148   0.0136   0.0066  -0.0123  -0.0119   0.00    0.0
2121 185490.000  -2448550.4435  -4668098.8752   3582741.1547   6   8   0.0180   0.0148   0.0136   0.0066  -0.0123  -0.0119   0.00    0.0
2121 185520.000  -2448550.4433  -4668098.8751   3582741.1545   6   8   0.0180   0.0148   0.0136   0.0066  -0.0122  -0.0119   0.00    0.0
2121 185550.000  -2448550.4433  -4668098.8750   3582741.1545   6   8   0.0180   0.0148   0.0136   0.0066  -0.0122  -0.0119   0.00    0.0
2121 185580.000  -2448550.4433  -4668098.8749   3582741.1543   6   7   0.0180   0.0148   0.0136   0.0066  -0.0122  -0.0119   0.00    0.0
2121 185610.000  -2448550.4432  -4668098.8746   3582741.1540   6   7   0.0180   0.0148   0.0136   0.0066  -0.0122  -0.0119   0.00    0.0
2121 185640.000  -2448550.4431  -4668098.8742   3582741.1536   6   7   0.0180   0.0148   0.0136   0.0066  -0.0122  -0.0119   0.00    0.0
2121 185670.000  -2448550.4425  -4668098.8733   3582741.1525   6   7   0.0179   0.0148   0.0135   0.0066  -0.0122  -0.0118   0.00    0.0
2121 185700.000  -2448550.4419  -4668098.8729   3582741.1512   6   7   0.0178   0.0147   0.0134   0.0067  -0.0121  -0.0117   0.00    0.0
2121 185730.000  -2448550.4417  -4668098.8731   3582741.1511   6   7   0.0177   0.0146   0.0133   0.0067  -0.0121  -0.0117   0.00    0.0
2121 185760.000  -2448550.4415  -4668098.8731   3582741.1509   6   7   0.0177   0.0146   0.0133   0.0067  -0.0121  -0.0117   0.00    0.0
2121 185790.000  -2448550.4414  -4668098.8730   3582741.1507   6   7   0.0177   0.0146   0.0133   0.0067  -0.0121  -0.0117   0.00    0.0
2121 185820.000  -2448550.4413  -4668098.8730   3582741.1506   6   7   0.0177   0.0146   0.0133   0.0067  -0.0120  -0.0117   0.00    0.0
2121 185850.000  -2448550.4412  -4668098.8730   3582741.1506   6   7   0.0177   0.0146   0.0133   0.0067  -0.0120  -0.0117   0.00    0.0
