%  GPST              x-ecef(m)      y-ecef(m)      z-ecef(m)   Q  ns   sdx(m)   sdy(m)   sdz(m)  sdxy(m)  sdyz(m)  sdzx(m) age(s)  ratio
2121 172800.000  -4460997.4028   2682556.6547  -3674442.3153   6   7   2.7597   1.7969   2.6186  -1.8114   0.2328   1.4818   0.00    0.0
2121 172830.000  -4460997.8450   2682557.3267  -3674442.8244   6   7   1.9246   1.2632   1.7878  -1.2661   0.1287   1.0172   0.00    0.0
2121 172860.000  -4460997.8637   2682557.3443  -3674442.6481   6   7   1.5602   1.0285   1.4360  -1.0276   0.0646   0.8232   0.00    0.0
2121 172890.000  -4460997.9250   2682557.3856  -3674442.8084   6   7   1.3456   0.8895   1.2324  -0.8868  -0.0488   0.7128   0.00    0.0
2121 172920.000  -4460998.0338   2682557.3603  -3674442.7348   6   7   1.2006   0.7952   1.0966  -0.7916  -0.0807   0.6402   0.00    0.0
2121 172950.000  -4460998.1226   2682557.4439  -3674442.7906   6   7   1.0944   0.7259   0.9981  -0.7219  -0.0967   0.5883   0.00    0.0
2121 172980.000  -4460998.0907   2682557.3176  -3674442.8892   6   7   1.0043   0.6696   0.9053  -0.6634  -0.1088   0.5391   0.00    0.0
2121 173010.000  -4460998.0611   2682557.3000  -3674442.8239   6   7   0.9201   0.6208   0.8064  -0.6099  -0.1202   0.4863   0.00    0.0
2121 173040.000  -4460998.0539   2682557.2796  -3674442.9155   6   7   0.8309   0.5740   0.6880  -0.5544  -0.1351   0.4236   0.00    0.0
2121 173070.000  -4460997.7988   2682557.1140  -3674442.8483   6   7   0.7218   0.5229   0.5394  -0.4873  -0.1623   0.3524   0.00    0.0
2121 173100.000  -4460997.4365   2682556.9944  -3674442.6725   6   7   0.6121   0.4724   0.4076  -0.4209  -0.1958   0.3046   0.00    0.0
2121 173130.000  -4460997.4842   2682557.0535  -3674442.6629   6   7   0.5818   0.4520   0.3874  -0.4019  -0.1948   0.2961   0.00    0.0
2121 173160.000  -4460997.5108   2682557.0487  -3674442.6465   6   7   0.5643   0.4371   0.3785  -0.3907  -0.1928   0.2922   0.00    0.0
2121 173190.000  -4460997.5572   2682557.0786  -3674442.6352   6   7   0.5508   0.4244   0.3725  -0.3818  -0.1908   0.2894   0.00    0.0
2121 173220.000  -4460997.5539   2682557.0394  -3674442.6342   6   7   0.5392   0.4132   0.3677  -0.3741  -0.1889   0.2871   0.00    0.0
2121 173250.000  -4460997.5821   2682557.0668  -3674442.6509   6   7   0.5289   0.4032   0.3636  -0.3672  -0.1871   0.2851   0.00    0.0
2121 173280.000  -4460997.6071   2682557.0643  -3674442.6579   6   7   0.5177   0.3934   0.3581  -0.3598  -0.1857   0.2827   0.00    0.0
2121 173310.000  -4460997.6055   2682557.0743  -3674442.6617   6   7   0.5043   0.3834   0.3498  -0.3513  -0.1851   0.2794   0.00    0.0
2121 173340.000  -4460997.5809   2682557.0849  -3674442.6477   6   7   0.4860   0.3726   0.3352  -0.3407  -0.1859   0.2739   0.00    0.0
2121 173370.000  -4460997.5475   2682557.0998  -3674442.6558   6   7   0.4561   0.3591   0.3059  -0.3254  -0.1905   0.2638   0.00    0.0
2121 173400.000  -4460997.3368   2682557.0333  -3674442.6126   6   7   0.4152   0.3436   0.2617  -0.3085  -0.2007   0.2505   0.00    0.0
2121 173430.000  -4460997.3905   2682557.0532  -3674442.6375   6   7   0.4035   0.3364   0.2542  -0.3024  -0.2003   0.2474   0.00    0.0
2121 173460.000  -4460997.3994   2682557.0564  -3674442.6396   6   7   0.3973   0.3308   0.2512  -0.2985  -0.1990   0.2457   0.00    0.0
2121 173490.000  -4460997.3968   2682557.0578  -3674442.6425   6   7   0.3927   0.3259   0.2493  -0.2952  -0.1975   0.2444   0.00    0.0
2121 173520.000  -4460997.3828   2682557.0436  -3674442.6431   6   7   0.3889   0.3214   0.2478  -0.2923  -0.1960   0.2432   0.00    0.0
2121 173550.000  -4460997.3917   2682557.0574  -3674442.6432   6   7   0.3855   0.3171   0.2466  -0.2896  -0.1946   0.2421   0.00    0.0
2121 173580.000  -4460997.3959   2682557.0461  -3674442.6397   6   7   0.3816   0.3130   0.2449  -0.2868  -0.1933   0.2410   0.00    0.0
2121 173610.000  -4460997.3980   2682557.0378  -3674442.6410   6   7   0.3768   0.3087   0.2424  -0.2837  -0.1922   0.2396   0.00    0.0
2121 173640.000  -4460997.4115   2682557.0518  -3674442.6449   6   7   0.3702   0.3043   0.2379  -0.2803  -0.1917   0.2376   0.00    0.0
2121 173670.000  -4460997.3699   2682557.0764  -3674442.6456   6   7   0.3587   0.2994   0.2273  -0.2764  -0.1924   0.2334   0.00    0.0
2121 173700.000  -4460997.3298   2682557.0905  -3674442.6400   6   7   0.3396   0.2939   0.2066  -0.2725  -0.1951   0.2250   0.00    0.0
2121 173730.000  -4460997.3235   2682557.0951  -3674442.6406   6   7   0.3333   0.2902   0.2023  -0.2698  -0.1942   0.2226   0.00    0.0
2121 173760.000  -4460997.3307   2682557.0877  -3674442.6416   6   7   0.3298   0.2871   0.2005  -0.2674  -0.1930   0.2211   0.00    0.0
2121 173790.000  -4460997.3571   2682557.1105  -3674442.6529   6   7   0.3272   0.2841   0.1993  -0.2652  -0.1916   0.2199   0.00    0.0
2121 173820.000  -4460997.3687   2682557.1145  -3674442.6559   6   7   0.3249   0.2814   0.1983  -0.2632  -0.1903   0.2189   0.00    0.0
2121 173850.000  -4460997.3735   2682557.1165  -3674442.6589   6   7   0.3229   0.2788   0.1975  -0.2613  -0.1891   0.2179   0.00    0.0
2121 173880.000  -4460997.3858   2682557.1213  -3674442.6650   6   7   0.3206   0.2762   0.1965  -0.2593  -0.1879   0.2168   0.00    0.0
2121 173910.000  -4460997.3985   2682557.1231  -3674442.6688   6   7   0.3178   0.2735   0.1950  -0.2573  -0.1867   0.2156   0.00    0.0
2121 173940.000  -4460997.4155   2682557.1436  -3674442.6781   6   7   0.3141   0.2709   0.1925  -0.2553  -0.1856   0.2139   0.00    0.0
2121 173970.000  -4460997.4111   2682557.1631  -3674442.6789   6   7   0.3077   0.2680   0.1867  -0.2533  -0.1847   0.2106   0.00    0.0
2121 174000.000  -4460997.3572   2682557.1766  -3674442.6683   6   7   0.2964   0.2647   0.1739  -0.2518  -0.1840   0.2035   0.00    0.0
2121 174030.000  -4460997.3761   2682557.1689  -3674442.6756   6   7   0.2922   0.2621   0.1708  -0.2498  -0.1826   0.2013   0.00    0.0
2121 174060.000  -4460997.3773   2682557.1699  -3674442.6782   6   7   0.2896   0.2598   0.1694  -0.2478  -0.1813   0.1998   0.00    0.0
2121 174090.000  -4460997.3845   2682557.1823  -3674442.6829   6   7   0.2876   0.2576   0.1683  -0.2460  -0.1801   0.1987   0.00    0.0
2121 174120.000  -4460997.3843   2682557.1828  -3674442.6848   6   7   0.2858   0.2556   0.1675  -0.2443  -0.1789   0.1976   0.00    0.0
2121 174150.000  -4460997.3898   2682557.1899  -3674442.6877   6   7   0.2843   0.2536   0.1668  -0.2427  -0.1778   0.1967   0.00    0.0
2121 174180.000  -4460997.3887   2682557.1880  -3674442.6877   6   7   0.2825   0.2517   0.1659  -0.2410  -0.1767   0.1956   0.00    0.0
2121 174210.000  -4460997.3843   2682557.1804  -3674442.6830   6   7   0.2804   0.2496   0.1647  -0.2393  -0.1754   0.1944   0.00    0.0
2121 174240.000  -4460997.3841   2682557.1784  -3674442.6816   6   7   0.2776   0.2474   0.1627  -0.2374  -0.1740   0.1926   0.00    0.0
2121 174270.000  -4460997.3742   2682557.1669  -3674442.6754   6   7   0.2727   0.2446   0.1582  -0.2351  -0.1719   0.1891   0.00    0.0
2121 174300.000  -4460997.3592   2682557.1942  -3674442.6772   6   7   0.2639   0.2403   0.1484  -0.2323  -0.1686   0.1823   0.00    0.0
2121 174330.000  -4460997.3526   2682557.2040  -3674442.6774   6   7   0.2603   0.2377   0.1456  -0.2300  -0.1667   0.1797   0.00    0.0
2121 174360.000  -4460997.3532   2682557.2052  -3674442.6749   6   7   0.2580   0.2357   0.1443  -0.2281  -0.1653   0.1782   0.00    0.0
2121 174390.000  -4460997.3512   2682557.2013  -3674442.6717   6   7   0.2562   0.2339   0.1433  -0.2264  -0.1641   0.1771   0.00    0.0
2121 174420.000  -4460997.3444   2682557.1917  -3674442.6679   6   7   0.2547   0.2322   0.1426  -0.2249  -0.1631   0.1761   0.00    0.0
2121 174450.000  -4460997.3492   2682557.1950  -3674442.6697   6   7   0.2533   0.2307   0.1419  -0.2236  -0.1621   0.1752   0.00    0.0
2121 174480.000  -4460997.3468   2682557.1924  -3674442.6678   6   7   0.2518   0.2291   0.1411  -0.2221  -0.1610   0.1742   0.00    0.0
2121 174510.000  -4460997.3519   2682557.1995  -3674442.6702   6   7   0.2499   0.2273   0.1400  -0.2203  -0.1597   0.1729   0.00    0.0
2121 174540.000  -4460997.3488   2682557.2021  -3674442.6678   6   7   0.2471   0.2250   0.1381  -0.2181  -0.1580   0.1708   0.00    0.0
2121 174570.000  -4460997.3375   2682557.2217  -3674442.6670   6   7   0.2420   0.2213   0.1339  -0.2147  -0.1548   0.1668   0.00    0.0
2121 174600.000  -4460997.3287   2682557.2243  -3674442.6711   6   7   0.2328   0.2148   0.1252  -0.2091  -0.1491   0.1590   0.00    0.0
2121 174630.000  -4460997.3525   2682557.2467  -3674442.6882   6   7   0.2286   0.2116   0.1223  -0.2059  -0.1465   0.1560   0.00    0.0
2121 174660.000  -4460997.3472   2682557.2426  -3674442.6877   6   7   0.2263   0.2095   0.1210  -0.2039  -0.1450   0.1543   0.00    0.0
2121 174690.000  -4460997.3504   2682557.2454  -3674442.6890   6   7   0.2246   0.2079   0.1201  -0.2023  -0.1439   0.1532   0.00    0.0
2121 174720.000  -4460997.3550   2682557.2495  -3674442.6910   6   7   0.2232   0.2065   0.1195  -0.2009  -0.1429   0.1523   0.00    0.0
2121 174750.000  -4460997.3565   2682557.2500  -3674442.6919   6   7   0.2220   0.2053   0.1189  -0.1997  -0.1421   0.1515   0.00    0.0
2121 174780.000  -4460997.3579   2682557.2510  -3674442.6918   6   7   0.2205   0.2039   0.1181  -0.1983  -0.1411   0.1505   0.00    0.0
2121 174810.000  -4460997.3551   2682557.2486  -3674442.6900   6   7   0.2186   0.2021   0.1171  -0.1965  -0.1397   0.1491   0.00    0.0
2121 174840.000  -4460997.3614   2682557.2593  -3674442.6941   6   7   0.2155   0.1995   0.1151  -0.1938  -0.1376   0.1467   0.00    0.0
2121 174870.000  -4460997.3611   2682557.2649  -3674442.6968   6   7   0.2094   0.1947   0.1109  -0.1889  -0.1335   0.1419   0.00    0.0
2121 174900.000  -4460997.3596   2682557.2752  -3674442.7076   6   7   0.1990   0.1862   0.1027  -0.1809  -0.1263   0.1334   0.00    0.0
2121 174930.000  -4460997.3199   2682557.2287  -3674442.6857   6   7   0.1946   0.1826   0.0999  -0.1772  -0.1233   0.1300   0.00    0.0
2121 174960.000  -4460997.2992   2682557.2065  -3674442.6735   6   7   0.1924   0.1807   0.0986  -0.1752  -0.1218   0.1284   0.00    0.0
2121 174990.000  -4460997.2891   2682557.1972  -3674442.6687   6   7   0.1909   0.1793   0.0978  -0.1738  -0.1208   0.1274   0.00    0.0
2121 175020.000  -4460997.2818   2682557.1885  -3674442.6648   6   7   0.1897   0.1781   0.0973  -0.1727  -0.1200   0.1266   0.00    0.0
2121 175050.000  -4460997.2807   2682557.1868  -3674442.6637   6   7   0.1888   0.1772   0.0968  -0.1717  -0.1193   0.1259   0.00    0.0
2121 175080.000  -4460997.2776   2682557.1830  -3674442.6620   6   7   0.1875   0.1760   0.0961  -0.1705  -0.1184   0.1250   0.00    0.0
2121 175110.000  -4460997.2790   2682557.1864  -3674442.6642   6   7   0.1856   0.1743   0.0951  -0.1688  -0.1172   0.1237   0.00    0.0
2121 175140.000  -4460997.2853   2682557.1902  -3674442.6699   6   7   0.1825   0.1717   0.0933  -0.1660  -0.1150   0.1213   0.00    0.0
2121 175170.000  -4460997.3154   2682557.2111  -3674442.6883   6   8   0.1763   0.1667   0.0894  -0.1606  -0.1107   0.1165   0.00    0.0
2121 175200.000  -4460997.3221   2682557.2294  -3674442.6970   6   8   0.1661   0.1578   0.0824  -0.1521  -0.1035   0.1084   0.00    0.0
2121 175230.000  -4460997.2929   2682557.2086  -3674442.6812   6   8   0.1617   0.1542   0.0797  -0.1483  -0.1005   0.1051   0.00    0.0
2121 175260.000  -4460997.2876   2682557.2064  -3674442.6785   6   8   0.1596   0.1524   0.0786  -0.1463  -0.0991   0.1035   0.00    0.0
2121 175290.000  -4460997.2911   2682557.2113  -3674442.6812   6   8   0.1582   0.1511   0.0779  -0.1450  -0.0981   0.1025   0.00    0.0
2121 175320.000  -4460997.2934   2682557.2148  -3674442.6829   6   8   0.1572   0.1502   0.0774  -0.1440  -0.0974   0.1018   0.00    0.0
2121 175350.000  -4460997.2909   2682557.2130  -3674442.6826   6   8   0.1563   0.1493   0.0770  -0.1432  -0.0969   0.1012   0.00    0.0
2121 175380.000  -4460997.2871   2682557.2102  -3674442.6813   6   9   0.1551   0.1483   0.0764  -0.1420  -0.0961   0.1004   0.00    0.0
2121 175410.000  -4460997.2838   2682557.2081  -3674442.6812   6   8   0.1543   0.1475   0.0761  -0.1413  -0.0956   0.0999   0.00    0.0
2121 175440.000  -4460997.2790   2682557.2054  -3674442.6800   6   8   0.1530   0.1464   0.0755  -0.1402  -0.0949   0.0992   0.00    0.0
2121 175470.000  -4460997.2768   2682557.2146  -3674442.6816   6   8   0.1507   0.1446   0.0743  -0.1385  -0.0938   0.0977   0.00    0.0
2121 175500.000  -4460997.2583   2682557.2146  -3674442.6759   6   8   0.1461   0.1406   0.0716  -0.1352  -0.0912   0.0947   0.00    0.0
2121 175530.000  -4460997.2541   2682557.2194  -3674442.6739   6   8   0.1442   0.1390   0.0707  -0.1337  -0.0902   0.0936   0.00    0.0
2121 175560.000  -4460997.2514   2682557.2180  -3674442.6730   6   8   0.1432   0.1381   0.0703  -0.1328  -0.0897   0.0930   0.00    0.0
2121 175590.000  -4460997.2495   2682557.2161  -3674442.6718   6   8   0.1424   0.1374   0.0700  -0.1321  -0.0893   0.0925   0.00    0.0
2121 175620.000  -4460997.2495   2682557.2156  -3674442.6716   6   8   0.1419   0.1369   0.0698  -0.1315  -0.0890   0.0922   0.00    0.0
2121 175650.000  -4460997.2478   2682557.2140  -3674442.6711   6   8   0.1414   0.1364   0.0697  -0.1311  -0.0887   0.0920   0.00    0.0
2121 175680.000  -4460997.2449   2682557.2102  -3674442.6693   6   8   0.1408   0.1359   0.0695  -0.1305  -0.0884   0.0916   0.00    0.0
2121 175710.000  -4460997.2402   2682557.2050  -3674442.6670   6   8   0.1400   0.1352   0.0692  -0.1298  -0.0879   0.0912   0.00    0.0
2121 175740.000  -4460997.2335   2682557.1984  -3674442.6639   6   8   0.1388   0.1341   0.0686  -0.1288  -0.0873   0.0904   0.00    0.0
2121 175770.000  -4460997.2295   2682557.1946  -3674442.6608   6   8   0.1365   0.1322   0.0675  -0.1269  -0.0860   0.0890   0.00    0.0
2121 175800.000  -4460997.2381   2682557.2031  -3674442.6659   6   8   0.1321   0.1281   0.0650  -0.1234  -0.0833   0.0860   0.00    0.0
2121 175830.000  -4460997.2367   2682557.1945  -3674442.6620   6   8   0.1303   0.1266   0.0641  -0.1219  -0.0824   0.0849   0.00    0.0
2121 175860.000  -4460997.2352   2682557.1907  -3674442.6597   6   8   0.1295   0.1258   0.0638  -0.1211  -0.0819   0.0844   0.00    0.0
2121 175890.000  -4460997.2347   2682557.1876  -3674442.6579   6   8   0.1289   0.1253   0.0636  -0.1206  -0.0815   0.0841   0.00    0.0
2121 175920.000  -4460997.2340   2682557.1854  -3674442.6567   6   8   0.1284   0.1248   0.0634  -0.1201  -0.0813   0.0838   0.00    0.0
2121 175950.000  -4460997.2301   2682557.1805  -3674442.6549   6   8   0.1281   0.1245   0.0633  -0.1198  -0.0811   0.0836   0.00    0.0
2121 175980.000  -4460997.2323   2682557.1830  -3674442.6559   6   8   0.1276   0.1240   0.0631  -0.1193  -0.0808   0.0833   0.00    0.0
2121 176010.000  -4460997.2332   2682557.1819  -3674442.6559   6   8   0.1270   0.1235   0.0629  -0.1188  -0.0805   0.0830   0.00    0.0
2121 176040.000  -4460997.2351   2682557.1814  -3674442.6582   6   8   0.1260   0.1226   0.0625  -0.1179  -0.0799   0.0824   0.00    0.0
2121 176070.000  -4460997.2345   2682557.1770  -3674442.6599   6   8   0.1242   0.1210   0.0615  -0.1164  -0.0789   0.0812   0.00    0.0
2121 176100.000  -4460997.2338   2682557.1831  -3674442.6598   6   8   0.1203   0.1173   0.0594  -0.1131  -0.0765   0.0786   0.00    0.0
2121 176130.000  -4460997.2320   2682557.1834  -3674442.6589   6   8   0.1188   0.1160   0.0587  -0.1119  -0.0757   0.0778   0.00    0.0
2121 176160.000  -4460997.2298   2682557.1822  -3674442.6576   6   8   0.1181   0.1154   0.0584  -0.1112  -0.0753   0.0774   0.00    0.0
2121 176190.000  -4460997.2300   2682557.1827  -3674442.6576   6   8   0.1177   0.1150   0.0583  -0.1108  -0.0750   0.0771   0.00    0.0
2121 176220.000  -4460997.2298   2682557.1822  -3674442.6575   6   8   0.1173   0.1146   0.0581  -0.1105  -0.0748   0.0769   0.00    0.0
2121 176250.000  -4460997.2290   2682557.1811  -3674442.6571   6   8   0.1170   0.1143   0.0580  -0.1102  -0.0747   0.0767   0.00    0.0
2121 176280.000  -4460997.2292   2682557.1814  -3674442.6570   6   8   0.1167   0.1140   0.0579  -0.1099  -0.0745   0.0766   0.00    0.0
2121 176310.000  -4460997.2281   2682557.1796  -3674442.6565   6   8   0.1162   0.1135   0.0577  -0.1094  -0.0742   0.0763   0.00    0.0
2121 176340.000  -4460997.2278   2682557.1790  -3674442.6570   6   8   0.1155   0.1129   0.0574  -0.1087  -0.0738   0.0759   0.00    0.0
2121 176370.000  -4460997.2255   2682557.1755  -3674442.6552   6   8   0.1139   0.1114   0.0567  -0.1074  -0.0730   0.0749   0.00    0.0
2121 176400.000  -4460997.2277   2682557.1810  -3674442.6566   6   8   0.1106   0.1080   0.0549  -0.1045  -0.0708   0.0728   0.00    0.0
2121 176430.000  -4460997.2360   2682557.1930  -3674442.6613   6   8   0.1094   0.1069   0.0544  -0.1034  -0.0702   0.0721   0.00    0.0
2121 176460.000  -4460997.2409   2682557.1976  -3674442.6638   6   8   0.1089   0.1064   0.0542  -0.1029  -0.0699   0.0718   0.00    0.0
2121 176490.000  -4460997.2415   2682557.1973  -3674442.6645   6   8   0.1085   0.1061   0.0541  -0.1026  -0.0697   0.0716   0.00    0.0
2121 176520.000  -4460997.2424   2682557.1977  -3674442.6650   6   8   0.1083   0.1058   0.0540  -0.1023  -0.0695   0.0714   0.00    0.0
2121 176550.000  -4460997.2435   2682557.1987  -3674442.6655   6   8   0.1080   0.1056   0.0539  -0.1021  -0.0694   0.0713   0.00    0.0
2121 176580.000  -4460997.2452   2682557.1995  -3674442.6658   6   8   0.1078   0.1053   0.0538  -0.1019  -0.0693   0.0712   0.00    0.0
2121 176610.000  -4460997.2475   2682557.2001  -3674442.6668   6   8   0.1074   0.1050   0.0537  -0.1015  -0.0691   0.0710   0.00    0.0
2121 176640.000  -4460997.2476   2682557.1967  -3674442.6670   6   8   0.1068   0.1044   0.0534  -0.1010  -0.0688   0.0707   0.00    0.0
2121 176670.000  -4460997.2384   2682557.1774  -3674442.6642   6   8   0.1056   0.1032   0.0529  -0.0999  -0.0681   0.0700   0.00    0.0
2121 176700.000  -4460997.2475   2682557.1939  -3674442.6702   6   8   0.1027   0.1001   0.0515  -0.0971  -0.0662   0.0681   0.00    0.0
2121 176730.000  -4460997.2564   2682557.2045  -3674442.6722   6   8   0.1017   0.0991   0.0511  -0.0962  -0.0657   0.0676   0.00    0.0
2121 176760.000  -4460997.2588   2682557.2075  -3674442.6720   6   8   0.1012   0.0986   0.0509  -0.0958  -0.0655   0.0673   0.00    0.0
2121 176790.000  -4460997.2592   2682557.2074  -3674442.6717   6   8   0.1010   0.0984   0.0508  -0.0956  -0.0653   0.0672   0.00    0.0
2121 176820.000  -4460997.2598   2682557.2080  -3674442.6717   6   8   0.1008   0.0982   0.0507  -0.0953  -0.0652   0.0671   0.00    0.0
2121 176850.000  -4460997.2613   2682557.2094  -3674442.6720   6   8   0.1006   0.0980   0.0507  -0.0952  -0.0651   0.0670   0.00    0.0
2121 176880.000  -4460997.2621   2682557.2102  -3674442.6721   6   8   0.1004   0.0978   0.0506  -0.0950  -0.0650   0.0669   0.00    0.0
2121 176910.000  -4460997.2612   2682557.2089  -3674442.6715   6   8   0.1001   0.0975   0.0505  -0.0947  -0.0648   0.0667   0.00    0.0
2121 176940.000  -4460997.2550   2682557.2023  -3674442.6690   6   8   0.0996   0.0970   0.0503  -0.0942  -0.0646   0.0665   0.00    0.0
2121 176970.000  -4460997.2433   2682557.1903  -3674442.6659   6   8   0.0986   0.0958   0.0499  -0.0932  -0.0640   0.0659   0.00    0.0
2121 177000.000  -4460997.2416   2682557.1977  -3674442.6682   6   8   0.0959   0.0929   0.0487  -0.0906  -0.0623   0.0643   0.00    0.0
2121 177030.000  -4460997.2496   2682557.2105  -3674442.6714   6   8   0.0950   0.0920   0.0484  -0.0898  -0.0618   0.0638   0.00    0.0
2121 177060.000  -4460997.2488   2682557.2107  -3674442.6710   6   8   0.0947   0.0916   0.0483  -0.0894  -0.0616   0.0637   0.00    0.0
2121 177090.000  -4460997.2494   2682557.2117  -3674442.6712   6   8   0.0944   0.0913   0.0482  -0.0892  -0.0615   0.0635   0.00    0.0
2121 177120.000  -4460997.2476   2682557.2098  -3674442.6704   6   8   0.0943   0.0912   0.0481  -0.0890  -0.0614   0.0635   0.00    0.0
2121 177150.000  -4460997.2456   2682557.2077  -3674442.6697   6   8   0.0941   0.0910   0.0481  -0.0889  -0.0614   0.0634   0.00    0.0
2121 177180.000  -4460997.2436   2682557.2056  -3674442.6692   6   8   0.0940   0.0908   0.0480  -0.0887  -0.0613   0.0633   0.00    0.0
2121 177210.000  -4460997.2403   2682557.2015  -3674442.6685   6   8   0.0937   0.0906   0.0480  -0.0885  -0.0611   0.0632   0.00    0.0
2121 177240.000  -4460997.2375   2682557.1975  -3674442.6678   6   8   0.0933   0.0901   0.0478  -0.0881  -0.0609   0.0630   0.00    0.0
2121 177270.000  -4460997.2329   2682557.1961  -3674442.6676   6   8   0.0923   0.0890   0.0475  -0.0871  -0.0604   0.0625   0.00    0.0
2121 177300.000  -4460997.2329   2682557.2048  -3674442.6686   6   8   0.0897   0.0861   0.0464  -0.0845  -0.0587   0.0609   0.00    0.0
2121 177330.000  -4460997.2384   2682557.2088  -3674442.6700   6   8   0.0889   0.0853   0.0461  -0.0837  -0.0583   0.0605   0.00    0.0
2121 177360.000  -4460997.2374   2682557.2087  -3674442.6700   6   8   0.0886   0.0849   0.0460  -0.0834  -0.0581   0.0603   0.00    0.0
2121 177390.000  -4460997.2379   2682557.2098  -3674442.6701   6   8   0.0884   0.0847   0.0459  -0.0832  -0.0580   0.0602   0.00    0.0
2121 177420.000  -4460997.2378   2682557.2101  -3674442.6701   6   8   0.0882   0.0845   0.0459  -0.0830  -0.0579   0.0602   0.00    0.0
2121 177450.000  -4460997.2379   2682557.2103  -3674442.6700   6   8   0.0881   0.0844   0.0458  -0.0829  -0.0579   0.0601   0.00    0.0
2121 177480.000  -4460997.2393   2682557.2117  -3674442.6705   6   8   0.0880   0.0843   0.0458  -0.0828  -0.0578   0.0600   0.00    0.0
2121 177510.000  -4460997.2416   2682557.2146  -3674442.6717   6   8   0.0878   0.0840   0.0457  -0.0826  -0.0577   0.0599   0.00    0.0
2121 177540.000  -4460997.2432   2682557.2183  -3674442.6733   6   8   0.0874   0.0836   0.0456  -0.0822  -0.0574   0.0597   0.00    0.0
2121 177570.000  -4460997.2444   2682557.2223  -3674442.6751   6   8   0.0864   0.0825   0.0452  -0.0812  -0.0568   0.0592   0.00    0.0
2121 177600.000  -4460997.2452   2682557.2297  -3674442.6765   6   8   0.0837   0.0795   0.0441  -0.0784  -0.0551   0.0576   0.00    0.0
2121 177630.000  -4460997.2384   2682557.2270  -3674442.6755   6   8   0.0829   0.0786   0.0438  -0.0776  -0.0546   0.0571   0.00    0.0
2121 177660.000  -4460997.2377   2682557.2279  -3674442.6759   6   8   0.0826   0.0782   0.0437  -0.0773  -0.0545   0.0570   0.00    0.0
2121 177690.000  -4460997.2383   2682557.2297  -3674442.6767   6   8   0.0824   0.0780   0.0437  -0.0771  -0.0544   0.0569   0.00    0.0
2121 177720.000  -4460997.2397   2682557.2322  -3674442.6776   6   8   0.0823   0.0779   0.0436  -0.0770  -0.0543   0.0568   0.00    0.0
2121 177750.000  -4460997.2411   2682557.2342  -3674442.6783   6   8   0.0822   0.0778   0.0436  -0.0769  -0.0542   0.0568   0.00    0.0
2121 177780.000  -4460997.2435   2682557.2375  -3674442.6794   6   8   0.0821   0.0777   0.0435  -0.0767  -0.0541   0.0567   0.00    0.0
2121 177810.000  -4460997.2450   2682557.2399  -3674442.6804   6   8   0.0818   0.0774   0.0435  -0.0765  -0.0540   0.0566   0.00    0.0
2121 177840.000  -4460997.2488   2682557.2446  -3674442.6824   6   8   0.0815   0.0770   0.0433  -0.0761  -0.0538   0.0564   0.00    0.0
2121 177870.000  -4460997.2475   2682557.2477  -3674442.6839   6   8   0.0804   0.0759   0.0429  -0.0751  -0.0532   0.0557   0.00    0.0
2121 177900.000  -4460997.2437   2682557.2453  -3674442.6821   6   8   0.0775   0.0728   0.0417  -0.0722  -0.0513   0.0540   0.00    0.0
2121 177930.000  -4460997.2493   2682557.2520  -3674442.6850   6   8   0.0767   0.0720   0.0414  -0.0714  -0.0508   0.0535   0.00    0.0
2121 177960.000  -4460997.2496   2682557.2525  -3674442.6858   6   8   0.0764   0.0716   0.0413  -0.0710  -0.0506   0.0533   0.00    0.0
2121 177990.000  -4460997.2507   2682557.2530  -3674442.6863   6   8   0.0762   0.0714   0.0412  -0.0709  -0.0505   0.0532   0.00    0.0
2121 178020.000  -4460997.2524   2682557.2543  -3674442.6869   6   8   0.0761   0.0713   0.0412  -0.0707  -0.0504   0.0531   0.00    0.0
2121 178050.000  -4460997.2536   2682557.2551  -3674442.6872   6   8   0.0760   0.0712   0.0411  -0.0706  -0.0504   0.0531   0.00    0.0
2121 178080.000  -4460997.2554   2682557.2565  -3674442.6878   6   8   0.0759   0.0711   0.0411  -0.0705  -0.0503   0.0530   0.00    0.0
2121 178110.000  -4460997.2570   2682557.2572  -3674442.6880   6   8   0.0756   0.0709   0.0410  -0.0703  -0.0501   0.0529   0.00    0.0
2121 178140.000  -4460997.2605   2682557.2583  -3674442.6887   6   8   0.0752   0.0704   0.0408  -0.0698  -0.0499   0.0526   0.00    0.0
2121 178170.000  -4460997.2677   2682557.2654  -3674442.6926   6   8   0.0740   0.0692   0.0403  -0.0687  -0.0491   0.0519   0.00    0.0
2121 178200.000  -4460997.2524   2682557.2524  -3674442.6865   6   8   0.0710   0.0661   0.0390  -0.0657  -0.0471   0.0499   0.00    0.0
2121 178230.000  -4460997.2432   2682557.2472  -3674442.6838   6   8   0.0701   0.0652   0.0386  -0.0648  -0.0465   0.0494   0.00    0.0
2121 178260.000  -4460997.2418   2682557.2467  -3674442.6834   6   9   0.0697   0.0649   0.0385  -0.0644  -0.0463   0.0491   0.00    0.0
2121 178290.000  -4460997.2409   2682557.2468  -3674442.6832   6   9   0.0695   0.0647   0.0384  -0.0642  -0.0462   0.0490   0.00    0.0
2121 178320.000  -4460997.2405   2682557.2464  -3674442.6830   6   9   0.0694   0.0646   0.0383  -0.0641  -0.0461   0.0489   0.00    0.0
2121 178350.000  -4460997.2401   2682557.2463  -3674442.6829   6   9   0.0693   0.0645   0.0383  -0.0640  -0.0460   0.0489   0.00    0.0
2121 178380.000  -4460997.2392   2682557.2460  -3674442.6830   6   9   0.0691   0.0643   0.0382  -0.0638  -0.0459   0.0488   0.00    0.0
2121 178410.000  -4460997.2365   2682557.2441  -3674442.6826   6   9   0.0689   0.0641   0.0381  -0.0636  -0.0458   0.0486   0.00    0.0
2121 178440.000  -4460997.2299   2682557.2387  -3674442.6804   6   9   0.0684   0.0636   0.0378  -0.0631  -0.0454   0.0482   0.00    0.0
2121 178470.000  -4460997.2259   2682557.2366  -3674442.6794   6   9   0.0671   0.0624   0.0372  -0.0618  -0.0446   0.0474   0.00    0.0
2121 178500.000  -4460997.2258   2682557.2354  -3674442.6803   6   9   0.0640   0.0594   0.0359  -0.0588  -0.0426   0.0454   0.00    0.0
2121 178530.000  -4460997.2181   2682557.2251  -3674442.6764   6   9   0.0630   0.0585   0.0354  -0.0579  -0.0419   0.0447   0.00    0.0
2121 178560.000  -4460997.2119   2682557.2186  -3674442.6735   6   9   0.0626   0.0582   0.0352  -0.0575  -0.0417   0.0444   0.00    0.0
2121 178590.000  -4460997.2113   2682557.2179  -3674442.6733   6   9   0.0624   0.0580   0.0351  -0.0573  -0.0415   0.0443   0.00    0.0
2121 178620.000  -4460997.2116   2682557.2180  -3674442.6735   6   9   0.0623   0.0578   0.0350  -0.0572  -0.0414   0.0442   0.00    0.0
2121 178650.000  -4460997.2116   2682557.2180  -3674442.6735   6   9   0.0621   0.0577   0.0349  -0.0570  -0.0414   0.0441   0.00    0.0
2121 178680.000  -4460997.2118   2682557.2182  -3674442.6737   6   8   0.0620   0.0576   0.0349  -0.0569  -0.0413   0.0440   0.00    0.0
2121 178710.000  -4460997.2116   2682557.2185  -3674442.6740   6   8   0.0619   0.0574   0.0348  -0.0568  -0.0412   0.0439   0.00    0.0
2121 178740.000  -4460997.2097   2682557.2182  -3674442.6740   6   7   0.0616   0.0571   0.0347  -0.0565  -0.0410   0.0437   0.00    0.0
2121 178770.000  -4460997.2037   2682557.2157  -3674442.6729   6   7   0.0608   0.0564   0.0344  -0.0557  -0.0405   0.0432   0.00    0.0
2121 178800.000  -4460997.1985   2682557.2104  -3674442.6710   6   7   0.0586   0.0543   0.0335  -0.0536  -0.0391   0.0418   0.00    0.0
2121 178830.000  -4460997.1982   2682557.2079  -3674442.6701   6   7   0.0580   0.0536   0.0332  -0.0530  -0.0387   0.0415   0.00    0.0
2121 178860.000  -4460997.1974   2682557.2067  -3674442.6698   6   7   0.0578   0.0534   0.0331  -0.0528  -0.0386   0.0413   0.00    0.0
2121 178890.000  -4460997.1964   2682557.2052  -3674442.6692   6   7   0.0577   0.0533   0.0331  -0.0527  -0.0385   0.0412   0.00    0.0
2121 178920.000  -4460997.1961   2682557.2048  -3674442.6691   6   7   0.0576   0.0532   0.0330  -0.0526  -0.0384   0.0412   0.00    0.0
2121 178950.000  -4460997.1960   2682557.2046  -3674442.6690   6   7   0.0575   0.0531   0.0330  -0.0525  -0.0384   0.0411   0.00    0.0
2121 178980.000  -4460997.1954   2682557.2039  -3674442.6687   6   7   0.0574   0.0531   0.0329  -0.0524  -0.0383   0.0411   0.00    0.0
2121 179010.000  -4460997.1934   2682557.2023  -3674442.6679   6   7   0.0573   0.0529   0.0329  -0.0523  -0.0382   0.0410   0.00    0.0
2121 179040.000  -4460997.1899   2682557.1992  -3674442.6663   6   7   0.0570   0.0526   0.0327  -0.0520  -0.0380   0.0408   0.00    0.0
2121 179070.000  -4460997.1769   2682557.1885  -3674442.6604   6   7   0.0562   0.0518   0.0324  -0.0512  -0.0375   0.0403   0.00    0.0
2121 179100.000  -4460997.1737   2682557.1868  -3674442.6587   6   7   0.0541   0.0498   0.0315  -0.0492  -0.0361   0.0389   0.00    0.0
2121 179130.000  -4460997.1693   2682557.1836  -3674442.6570   6   7   0.0534   0.0492   0.0312  -0.0485  -0.0357   0.0385   0.00    0.0
2121 179160.000  -4460997.1676   2682557.1822  -3674442.6563   6   7   0.0532   0.0490   0.0311  -0.0483  -0.0356   0.0383   0.00    0.0
2121 179190.000  -4460997.1681   2682557.1831  -3674442.6568   6   7   0.0531   0.0489   0.0311  -0.0482  -0.0355   0.0382   0.00    0.0
2121 179220.000  -4460997.1673   2682557.1825  -3674442.6566   6   7   0.0530   0.0488   0.0310  -0.0481  -0.0355   0.0382   0.00    0.0
2121 179250.000  -4460997.1670   2682557.1821  -3674442.6566   6   7   0.0529   0.0487   0.0310  -0.0481  -0.0354   0.0381   0.00    0.0
2121 179280.000  -4460997.1672   2682557.1825  -3674442.6567   6   7   0.0529   0.0487   0.0309  -0.0480  -0.0354   0.0381   0.00    0.0
2121 179310.000  -4460997.1676   2682557.1832  -3674442.6568   6   7   0.0527   0.0485   0.0309  -0.0478  -0.0353   0.0380   0.00    0.0
2121 179340.000  -4460997.1660   2682557.1821  -3674442.6562   6   7   0.0524   0.0482   0.0307  -0.0475  -0.0351   0.0378   0.00    0.0
2121 179370.000  -4460997.1632   2682557.1813  -3674442.6555   6   7   0.0517   0.0475   0.0304  -0.0468  -0.0346   0.0373   0.00    0.0
2121 179400.000  -4460997.1691   2682557.1878  -3674442.6583   6   7   0.0497   0.0457   0.0295  -0.0449  -0.0332   0.0360   0.00    0.0
2121 179430.000  -4460997.1720   2682557.1905  -3674442.6600   6   7   0.0491   0.0451   0.0293  -0.0443  -0.0329   0.0356   0.00    0.0
2121 179460.000  -4460997.1707   2682557.1890  -3674442.6598   6   7   0.0488   0.0449   0.0292  -0.0441  -0.0327   0.0354   0.00    0.0
2121 179490.000  -4460997.1696   2682557.1876  -3674442.6593   6   7   0.0487   0.0448   0.0291  -0.0440  -0.0326   0.0353   0.00    0.0
2121 179520.000  -4460997.1687   2682557.1867  -3674442.6589   6   7   0.0486   0.0447   0.0291  -0.0439  -0.0326   0.0353   0.00    0.0
2121 179550.000  -4460997.1688   2682557.1868  -3674442.6590   6   7   0.0486   0.0447   0.0290  -0.0439  -0.0326   0.0352   0.00    0.0
2121 179580.000  -4460997.1691   2682557.1869  -3674442.6590   6   7   0.0485   0.0446   0.0290  -0.0438  -0.0325   0.0352   0.00    0.0
2121 179610.000  -4460997.1696   2682557.1874  -3674442.6591   6   7   0.0484   0.0445   0.0289  -0.0436  -0.0324   0.0351   0.00    0.0
2121 179640.000  -4460997.1718   2682557.1898  -3674442.6597   6   7   0.0481   0.0442   0.0288  -0.0434  -0.0322   0.0349   0.00    0.0
2121 179670.000  -4460997.1763   2682557.1942  -3674442.6614   6   7   0.0474   0.0436   0.0285  -0.0427  -0.0318   0.0344   0.00    0.0
2121 179700.000  -4460997.1813   2682557.1983  -3674442.6630   6   7   0.0456   0.0419   0.0276  -0.0410  -0.0305   0.0332   0.00    0.0
2121 179730.000  -4460997.1872   2682557.2061  -3674442.6671   6   7   0.0450   0.0414   0.0274  -0.0404  -0.0302   0.0329   0.00    0.0
2121 179760.000  -4460997.1901   2682557.2093  -3674442.6687   6   7   0.0448   0.0412   0.0273  -0.0402  -0.0300   0.0327   0.00    0.0
2121 179790.000  -4460997.1918   2682557.2108  -3674442.6694   6   8   0.0447   0.0411   0.0272  -0.0401  -0.0300   0.0326   0.00    0.0
2121 179820.000  -4460997.1930   2682557.2118  -3674442.6699   6   8   0.0446   0.0411   0.0272  -0.0401  -0.0299   0.0326   0.00    0.0
2121 179850.000  -4460997.1938   2682557.2123  -3674442.6702   6   8   0.0446   0.0410   0.0272  -0.0400  -0.0299   0.0325   0.00    0.0
2121 179880.000  -4460997.1947   2682557.2130  -3674442.6704   6   8   0.0445   0.0409   0.0271  -0.0399  -0.0298   0.0325   0.00    0.0
2121 179910.000  -4460997.1954   2682557.2135  -3674442.6707   6   8   0.0444   0.0408   0.0271  -0.0398  -0.0297   0.0324   0.00    0.0
2121 179940.000  -4460997.1964   2682557.2141  -3674442.6711   6   8   0.0441   0.0406   0.0270  -0.0396  -0.0296   0.0322   0.00    0.0
2121 179970.000  -4460997.1967   2682557.2134  -3674442.6708   6   8   0.0435   0.0400   0.0267  -0.0390  -0.0292   0.0318   0.00    0.0
2121 180000.000  -4460997.1942   2682557.2115  -3674442.6693   6   8   0.0419   0.0386   0.0259  -0.0374  -0.0281   0.0307   0.00    0.0
2121 180030.000  -4460997.1854   2682557.2039  -3674442.6660   6   8   0.0414   0.0381   0.0257  -0.0369  -0.0277   0.0304   0.00    0.0
2121 180060.000  -4460997.1829   2682557.2020  -3674442.6653   6   8   0.0412   0.0380   0.0256  -0.0367  -0.0276   0.0302   0.00    0.0
2121 180090.000  -4460997.1824   2682557.2017  -3674442.6654   6   8   0.0411   0.0379   0.0255  -0.0366  -0.0275   0.0302   0.00    0.0
2121 180120.000  -4460997.1825   2682557.2020  -3674442.6656   6   8   0.0410   0.0378   0.0255  -0.0366  -0.0275   0.0301   0.00    0.0
2121 180150.000  -4460997.1824   2682557.2021  -3674442.6657   6   8   0.0410   0.0378   0.0255  -0.0365  -0.0275   0.0301   0.00    0.0
2121 180180.000  -4460997.1828   2682557.2024  -3674442.6659   6   8   0.0409   0.0377   0.0254  -0.0365  -0.0274   0.0300   0.00    0.0
2121 180210.000  -4460997.1823   2682557.2020  -3674442.6659   6   8   0.0408   0.0376   0.0254  -0.0364  -0.0273   0.0300   0.00    0.0
2121 180240.000  -4460997.1813   2682557.2009  -3674442.6653   6   8   0.0406   0.0374   0.0253  -0.0361  -0.0272   0.0298   0.00    0.0
2121 180270.000  -4460997.1798   2682557.1988  -3674442.6640   6   8   0.0400   0.0369   0.0250  -0.0356  -0.0268   0.0294   0.00    0.0
2121 180300.000  -4460997.1797   2682557.1993  -3674442.6639   6   8   0.0385   0.0356   0.0243  -0.0342  -0.0258   0.0284   0.00    0.0
2121 180330.000  -4460997.1837   2682557.2033  -3674442.6653   6   8   0.0381   0.0352   0.0241  -0.0338  -0.0255   0.0281   0.00    0.0
2121 180360.000  -4460997.1861   2682557.2057  -3674442.6661   6   8   0.0379   0.0351   0.0240  -0.0336  -0.0254   0.0280   0.00    0.0
2121 180390.000  -4460997.1873   2682557.2069  -3674442.6665   6   8   0.0378   0.0350   0.0240  -0.0335  -0.0253   0.0279   0.00    0.0
2121 180420.000  -4460997.1876   2682557.2072  -3674442.6665   6   8   0.0377   0.0350   0.0239  -0.0335  -0.0253   0.0279   0.00    0.0
2121 180450.000  -4460997.1873   2682557.2068  -3674442.6663   6   8   0.0377   0.0349   0.0239  -0.0334  -0.0252   0.0278   0.00    0.0
2121 180480.000  -4460997.1873   2682557.2066  -3674442.6660   6   8   0.0376   0.0349   0.0239  -0.0334  -0.0252   0.0278   0.00    0.0
2121 180510.000  -4460997.1865   2682557.2058  -3674442.6654   6   8   0.0375   0.0348   0.0238  -0.0333  -0.0251   0.0277   0.00    0.0
2121 180540.000  -4460997.1834   2682557.2029  -3674442.6639   6   8   0.0373   0.0346   0.0237  -0.0331  -0.0250   0.0276   0.00    0.0
2121 180570.000  -4460997.1780   2682557.1980  -3674442.6609   6   8   0.0368   0.0342   0.0235  -0.0326  -0.0246   0.0272   0.00    0.0
2121 180600.000  -4460997.1750   2682557.1962  -3674442.6596   6   8   0.0356   0.0331   0.0228  -0.0314  -0.0238   0.0263   0.00    0.0
2121 180630.000  -4460997.1771   2682557.1974  -3674442.6604   6   8   0.0351   0.0328   0.0226  -0.0310  -0.0235   0.0261   0.00    0.0
2121 180660.000  -4460997.1780   2682557.1981  -3674442.6608   6   8   0.0350   0.0326   0.0226  -0.0309  -0.0234   0.0260   0.00    0.0
2121 180690.000  -4460997.1788   2682557.1988  -3674442.6613   6   8   0.0349   0.0326   0.0225  -0.0308  -0.0233   0.0259   0.00    0.0
2121 180720.000  -4460997.1795   2682557.1994  -3674442.6617   6   8   0.0348   0.0325   0.0225  -0.0307  -0.0233   0.0259   0.00    0.0
2121 180750.000  -4460997.1797   2682557.1995  -3674442.6618   6   8   0.0348   0.0325   0.0225  -0.0307  -0.0233   0.0258   0.00    0.0
2121 180780.000  -4460997.1797   2682557.1995  -3674442.6617   6   8   0.0348   0.0324   0.0224  -0.0307  -0.0232   0.0258   0.00    0.0
2121 180810.000  -4460997.1795   2682557.1991  -3674442.6615   6   8   0.0347   0.0323   0.0224  -0.0306  -0.0232   0.0257   0.00    0.0
2121 180840.000  -4460997.1794   2682557.1992  -3674442.6618   6   8   0.0345   0.0322   0.0223  -0.0304  -0.0230   0.0256   0.00    0.0
2121 180870.000  -4460997.1790   2682557.1994  -3674442.6625   6   8   0.0340   0.0318   0.0221  -0.0300  -0.0228   0.0253   0.00    0.0
2121 180900.000  -4460997.1745   2682557.1971  -3674442.6609   6   8   0.0330   0.0309   0.0215  -0.0290  -0.0220   0.0245   0.00    0.0
2121 180930.000  -4460997.1725   2682557.1947  -3674442.6608   6   8   0.0326   0.0306   0.0213  -0.0286  -0.0218   0.0243   0.00    0.0
2121 180960.000  -4460997.1723   2682557.1944  -3674442.6608   6   8   0.0325   0.0305   0.0213  -0.0285  -0.0217   0.0242   0.00    0.0
2121 180990.000  -4460997.1721   2682557.1943  -3674442.6608   6   8   0.0324   0.0305   0.0212  -0.0284  -0.0216   0.0241   0.00    0.0
2121 181020.000  -4460997.1717   2682557.1937  -3674442.6605   6   8   0.0323   0.0304   0.0212  -0.0284  -0.0216   0.0241   0.00    0.0
2121 181050.000  -4460997.1715   2682557.1935  -3674442.6603   6   8   0.0323   0.0304   0.0212  -0.0284  -0.0215   0.0241   0.00    0.0
2121 181080.000  -4460997.1707   2682557.1927  -3674442.6598   6   8   0.0322   0.0303   0.0212  -0.0283  -0.0215   0.0240   0.00    0.0
2121 181110.000  -4460997.1692   2682557.1913  -3674442.6590   6   8   0.0322   0.0303   0.0211  -0.0282  -0.0215   0.0240   0.00    0.0
2121 181140.000  -4460997.1682   2682557.1903  -3674442.6581   6   8   0.0320   0.0301   0.0210  -0.0281  -0.0213   0.0239   0.00    0.0
2121 181170.000  -4460997.1685   2682557.1903  -3674442.6578   6   8   0.0316   0.0298   0.0208  -0.0277  -0.0211   0.0236   0.00    0.0
2121 181200.000  -4460997.1693   2682557.1917  -3674442.6585   6   8   0.0307   0.0291   0.0203  -0.0269  -0.0204   0.0229   0.00    0.0
2121 181230.000  -4460997.1712   2682557.1938  -3674442.6584   6   8   0.0304   0.0288   0.0202  -0.0266  -0.0202   0.0227   0.00    0.0
2121 181260.000  -4460997.1716   2682557.1943  -3674442.6580   6   8   0.0302   0.0287   0.0201  -0.0264  -0.0201   0.0226   0.00    0.0
2121 181290.000  -4460997.1719   2682557.1946  -3674442.6579   6   8   0.0302   0.0286   0.0201  -0.0264  -0.0201   0.0226   0.00    0.0
2121 181320.000  -4460997.1721   2682557.1950  -3674442.6579   6   8   0.0301   0.0286   0.0201  -0.0263  -0.0201   0.0225   0.00    0.0
2121 181350.000  -4460997.1718   2682557.1947  -3674442.6578   6   8   0.0301   0.0286   0.0200  -0.0263  -0.0200   0.0225   0.00    0.0
2121 181380.000  -4460997.1716   2682557.1945  -3674442.6577   6   8   0.0300   0.0285   0.0200  -0.0263  -0.0200   0.0225   0.00    0.0
2121 181410.000  -4460997.1705   2682557.1933  -3674442.6576   6   8   0.0300   0.0285   0.0200  -0.0262  -0.0200   0.0224   0.00    0.0
2121 181440.000  -4460997.1680   2682557.1905  -3674442.6572   6   8   0.0298   0.0284   0.0199  -0.0260  -0.0199   0.0223   0.00    0.0
2121 181470.000  -4460997.1676   2682557.1906  -3674442.6582   6   9   0.0295   0.0281   0.0197  -0.0257  -0.0196   0.0221   0.00    0.0
2121 181500.000  -4460997.1681   2682557.1921  -3674442.6589   6   9   0.0287   0.0274   0.0193  -0.0250  -0.0191   0.0215   0.00    0.0
2121 181530.000  -4460997.1672   2682557.1912  -3674442.6584   6   9   0.0284   0.0272   0.0191  -0.0247  -0.0189   0.0213   0.00    0.0
2121 181560.000  -4460997.1666   2682557.1907  -3674442.6581   6   9   0.0283   0.0271   0.0191  -0.0246  -0.0188   0.0212   0.00    0.0
2121 181590.000  -4460997.1657   2682557.1900  -3674442.6579   6   9   0.0282   0.0271   0.0190  -0.0246  -0.0188   0.0212   0.00    0.0
2121 181620.000  -4460997.1650   2682557.1894  -3674442.6576   6   9   0.0282   0.0270   0.0190  -0.0245  -0.0187   0.0212   0.00    0.0
2121 181650.000  -4460997.1646   2682557.1889  -3674442.6575   6   9   0.0282   0.0270   0.0190  -0.0245  -0.0187   0.0211   0.00    0.0
2121 181680.000  -4460997.1640   2682557.1885  -3674442.6573   6   9   0.0281   0.0270   0.0190  -0.0245  -0.0187   0.0211   0.00    0.0
2121 181710.000  -4460997.1631   2682557.1878  -3674442.6568   6   8   0.0281   0.0270   0.0189  -0.0244  -0.0187   0.0211   0.00    0.0
2121 181740.000  -4460997.1621   2682557.1873  -3674442.6563   6   8   0.0280   0.0269   0.0189  -0.0244  -0.0186   0.0210   0.00    0.0
2121 181770.000  -4460997.1599   2682557.1866  -3674442.6554   6   8   0.0279   0.0268   0.0188  -0.0242  -0.0185   0.0209   0.00    0.0
2121 181800.000  -4460997.1591   2682557.1872  -3674442.6547   6   8   0.0274   0.0264   0.0185  -0.0238  -0.0182   0.0206   0.00    0.0
2121 181830.000  -4460997.1594   2682557.1876  -3674442.6557   6   8   0.0273   0.0263   0.0184  -0.0237  -0.0181   0.0205   0.00    0.0
2121 181860.000  -4460997.1598   2682557.1878  -3674442.6561   6   8   0.0272   0.0262   0.0184  -0.0237  -0.0181   0.0205   0.00    0.0
2121 181890.000  -4460997.1602   2682557.1883  -3674442.6565   6   8   0.0272   0.0262   0.0184  -0.0237  -0.0180   0.0204   0.00    0.0
2121 181920.000  -4460997.1607   2682557.1889  -3674442.6568   6   8   0.0272   0.0262   0.0183  -0.0236  -0.0180   0.0204   0.00    0.0
2121 181950.000  -4460997.1609   2682557.1892  -3674442.6571   6   8   0.0272   0.0262   0.0183  -0.0236  -0.0180   0.0204   0.00    0.0
2121 181980.000  -4460997.1614   2682557.1898  -3674442.6575   6   8   0.0272   0.0262   0.0183  -0.0236  -0.0180   0.0204   0.00    0.0
2121 182010.000  -4460997.1615   2682557.1898  -3674442.6575   6   8   0.0271   0.0262   0.0183  -0.0236  -0.0180   0.0204   0.00    0.0
2121 182040.000  -4460997.1609   2682557.1889  -3674442.6569   6   8   0.0271   0.0261   0.0183  -0.0235  -0.0180   0.0204   0.00    0.0
2121 182070.000  -4460997.1604   2682557.1883  -3674442.6566   6   8   0.0270   0.0260   0.0182  -0.0234  -0.0179   0.0203   0.00    0.0
2121 182100.000  -4460997.1593   2682557.1890  -3674442.6559   6   8   0.0266   0.0257   0.0179  -0.0231  -0.0176   0.0200   0.00    0.0
2121 182130.000  -4460997.1601   2682557.1898  -3674442.6551   6   8   0.0265   0.0256   0.0178  -0.0230  -0.0175   0.0199   0.00    0.0
2121 182160.000  -4460997.1608   2682557.1905  -3674442.6554   6   8   0.0265   0.0255   0.0178  -0.0230  -0.0175   0.0199   0.00    0.0
2121 182190.000  -4460997.1612   2682557.1910  -3674442.6556   6   8   0.0265   0.0255   0.0178  -0.0230  -0.0175   0.0199   0.00    0.0
2121 182220.000  -4460997.1613   2682557.1912  -3674442.6556   6   8   0.0265   0.0255   0.0178  -0.0230  -0.0175   0.0199   0.00    0.0
2121 182250.000  -4460997.1613   2682557.1912  -3674442.6556   6   8   0.0264   0.0255   0.0178  -0.0230  -0.0175   0.0198   0.00    0.0
2121 182280.000  -4460997.1612   2682557.1914  -3674442.6555   6   8   0.0264   0.0255   0.0178  -0.0230  -0.0175   0.0198   0.00    0.0
2121 182310.000  -4460997.1610   2682557.1912  -3674442.6553   6   8   0.0264   0.0255   0.0177  -0.0229  -0.0175   0.0198   0.00    0.0
2121 182340.000  -4460997.1606   2682557.1910  -3674442.6550   6   8   0.0264   0.0254   0.0177  -0.0229  -0.0174   0.0198   0.00    0.0
2121 182370.000  -4460997.1590   2682557.1900  -3674442.6537   6   8   0.0263   0.0253   0.0176  -0.0228  -0.0174   0.0197   0.00    0.0
2121 182400.000  -4460997.1574   2682557.1904  -3674442.6528   6   8   0.0260   0.0251   0.0174  -0.0226  -0.0172   0.0195   0.00    0.0
2121 182430.000  -4460997.1552   2682557.1888  -3674442.6506   6   8   0.0259   0.0250   0.0173  -0.0225  -0.0171   0.0194   0.00    0.0
2121 182460.000  -4460997.1539   2682557.1877  -3674442.6493   6   8   0.0259   0.0250   0.0173  -0.0225  -0.0171   0.0194   0.00    0.0
2121 182490.000  -4460997.1532   2682557.1871  -3674442.6488   6   8   0.0259   0.0249   0.0173  -0.0225  -0.0171   0.0194   0.00    0.0
2121 182520.000  -4460997.1529   2682557.1870  -3674442.6486   6   8   0.0259   0.0249   0.0173  -0.0224  -0.0171   0.0194   0.00    0.0
2121 182550.000  -4460997.1526   2682557.1867  -3674442.6485   6   8   0.0259   0.0249   0.0173  -0.0224  -0.0171   0.0194   0.00    0.0
2121 182580.000  -4460997.1526   2682557.1867  -3674442.6485   6   8   0.0258   0.0249   0.0173  -0.0224  -0.0171   0.0194   0.00    0.0
2121 182610.000  -4460997.1526   2682557.1866  -3674442.6486   6   8   0.0258   0.0249   0.0173  -0.0224  -0.0171   0.0194   0.00    0.0
2121 182640.000  -4460997.1523   2682557.1863  -3674442.6488   6   8   0.0258   0.0249   0.0172  -0.0224  -0.0170   0.0193   0.00    0.0
2121 182670.000  -4460997.1525   2682557.1868  -3674442.6486   6   8   0.0257   0.0248   0.0172  -0.0223  -0.0170   0.0193   0.00    0.0
2121 182700.000  -4460997.1508   2682557.1869  -3674442.6481   6   8   0.0255   0.0245   0.0169  -0.0221  -0.0168   0.0191   0.00    0.0
2121 182730.000  -4460997.1499   2682557.1865  -3674442.6470   6   8   0.0254   0.0245   0.0169  -0.0221  -0.0168   0.0190   0.00    0.0
2121 182760.000  -4460997.1495   2682557.1863  -3674442.6466   6   8   0.0254   0.0244   0.0169  -0.0220  -0.0168   0.0190   0.00    0.0
2121 182790.000  -4460997.1491   2682557.1861  -3674442.6460   6   8   0.0254   0.0244   0.0169  -0.0220  -0.0167   0.0190   0.00    0.0
2121 182820.000  -4460997.1489   2682557.1861  -3674442.6457   6   8   0.0254   0.0244   0.0169  -0.0220  -0.0167   0.0190   0.00    0.0
2121 182850.000  -4460997.1487   2682557.1859  -3674442.6455   6   8   0.0254   0.0244   0.0168  -0.0220  -0.0167   0.0190   0.00    0.0
2121 182880.000  -4460997.1484   2682557.1857  -3674442.6453   6   8   0.0254   0.0244   0.0168  -0.0220  -0.0167   0.0190   0.00    0.0
2121 182910.000  -4460997.1480   2682557.1852  -3674442.6450   6   8   0.0254   0.0244   0.0168  -0.0220  -0.0167   0.0190   0.00    0.0
2121 182940.000  -4460997.1478   2682557.1845  -3674442.6449   6   8   0.0253   0.0244   0.0168  -0.0220  -0.0167   0.0190   0.00    0.0
2121 182970.000  -4460997.1482   2682557.1850  -3674442.6451   6   8   0.0253   0.0243   0.0167  -0.0219  -0.0167   0.0189   0.00    0.0
2121 183000.000  -4460997.1478   2682557.1857  -3674442.6458   6   8   0.0251   0.0240   0.0165  -0.0217  -0.0165   0.0187   0.00    0.0
2121 183030.000  -4460997.1475   2682557.1854  -3674442.6463   6   8   0.0250   0.0240   0.0165  -0.0217  -0.0165   0.0187   0.00    0.0
2121 183060.000  -4460997.1469   2682557.1846  -3674442.6465   6   8   0.0250   0.0239   0.0165  -0.0216  -0.0164   0.0187   0.00    0.0
2121 183090.000  -4460997.1467   2682557.1843  -3674442.6466   6   8   0.0250   0.0239   0.0165  -0.0216  -0.0164   0.0187   0.00    0.0
2121 183120.000  -4460997.1466   2682557.1840  -3674442.6468   6   8   0.0250   0.0239   0.0165  -0.0216  -0.0164   0.0187   0.00    0.0
2121 183150.000  -4460997.1467   2682557.1840  -3674442.6470   6   8   0.0249   0.0239   0.0164  -0.0216  -0.0164   0.0187   0.00    0.0
2121 183180.000  -4460997.1470   2682557.1840  -3674442.6473   6   8   0.0249   0.0239   0.0164  -0.0216  -0.0164   0.0186   0.00    0.0
2121 183210.000  -4460997.1474   2682557.1841  -3674442.6477   6   8   0.0249   0.0239   0.0164  -0.0216  -0.0164   0.0186   0.00    0.0
2121 183240.000  -4460997.1483   2682557.1844  -3674442.6485   6   8   0.0249   0.0239   0.0164  -0.0216  -0.0164   0.0186   0.00    0.0
2121 183270.000  -4460997.1491   2682557.1854  -3674442.6494   6   8   0.0248   0.0238   0.0163  -0.0215  -0.0163   0.0185   0.00    0.0
2121 183300.000  -4460997.1479   2682557.1859  -3674442.6494   6   8   0.0246   0.0235   0.0161  -0.0213  -0.0162   0.0184   0.00    0.0
2121 183330.000  -4460997.1475   2682557.1855  -3674442.6499   6   8   0.0245   0.0235   0.0161  -0.0212  -0.0161   0.0183   0.00    0.0
2121 183360.000  -4460997.1472   2682557.1854  -3674442.6502   6   8   0.0245   0.0234   0.0161  -0.0212  -0.0161   0.0183   0.00    0.0
2121 183390.000  -4460997.1474   2682557.1856  -3674442.6504   6   8   0.0245   0.0234   0.0160  -0.0212  -0.0161   0.0183   0.00    0.0
2121 183420.000  -4460997.1477   2682557.1859  -3674442.6507   6   7   0.0245   0.0234   0.0160  -0.0212  -0.0161   0.0183   0.00    0.0
2121 183450.000  -4460997.1480   2682557.1862  -3674442.6509   6   7   0.0244   0.0234   0.0160  -0.0212  -0.0161   0.0182   0.00    0.0
2121 183480.000  -4460997.1485   2682557.1867  -3674442.6512   6   7   0.0244   0.0234   0.0160  -0.0212  -0.0161   0.0182   0.00    0.0
2121 183510.000  -4460997.1494   2682557.1878  -3674442.6517   6   7   0.0244   0.0234   0.0160  -0.0212  -0.0161   0.0182   0.00    0.0
2121 183540.000  -4460997.1510   2682557.1897  -3674442.6522   6   7   0.0244   0.0233   0.0160  -0.0211  -0.0161   0.0182   0.00    0.0
2121 183570.000  -4460997.1547   2682557.1948  -3674442.6534   6   7   0.0243   0.0232   0.0159  -0.0210  -0.0160   0.0181   0.00    0.0
2121 183600.000  -4460997.1538   2682557.1949  -3674442.6533   6   7   0.0241   0.0230   0.0157  -0.0208  -0.0158   0.0179   0.00    0.0
2121 183630.000  -4460997.1530   2682557.1944  -3674442.6527   6   7   0.0240   0.0229   0.0156  -0.0207  -0.0157   0.0178   0.00    0.0
2121 183660.000  -4460997.1532   2682557.1950  -3674442.6526   6   6   0.0239   0.0229   0.0156  -0.0207  -0.0157   0.0178   0.00    0.0
2121 183690.000  -4460997.1534   2682557.1954  -3674442.6526   6   7   0.0239   0.0228   0.0156  -0.0207  -0.0157   0.0178   0.00    0.0
2121 183720.000  -4460997.1536   2682557.1957  -3674442.6526   6   7   0.0239   0.0228   0.0156  -0.0207  -0.0157   0.0178   0.00    0.0
2121 183750.000  -4460997.1536   2682557.1958  -3674442.6525   6   7   0.0239   0.0228   0.0156  -0.0207  -0.0157   0.0178   0.00    0.0
2121 183780.000  -4460997.1535   2682557.1958  -3674442.6525   6   7   0.0239   0.0228   0.0156  -0.0207  -0.0157   0.0178   0.00    0.0
2121 183810.000  -4460997.1536   2682557.1959  -3674442.6526   6   7   0.0239   0.0228   0.0156  -0.0207  -0.0157   0.0178   0.00    0.0
2121 183840.000  -4460997.1541   2682557.1964  -3674442.6530   6   7   0.0239   0.0228   0.0156  -0.0206  -0.0157   0.0178   0.00    0.0
2121 183870.000  -4460997.1546   2682557.1971  -3674442.6536   6   7   0.0238   0.0227   0.0155  -0.0205  -0.0156   0.0177   0.00    0.0
2121 183900.000  -4460997.1549   2682557.1982  -3674442.6543   6   7   0.0236   0.0224   0.0154  -0.0203  -0.0154   0.0176   0.00    0.0
2121 183930.000  -4460997.1548   2682557.1985  -3674442.6540   6   7   0.0235   0.0223   0.0154  -0.0202  -0.0154   0.0176   0.00    0.0
2121 183960.000  -4460997.1551   2682557.1990  -3674442.6540   6   7   0.0235   0.0223   0.0153  -0.0202  -0.0154   0.0175   0.00    0.0
2121 183990.000  -4460997.1554   2682557.1995  -3674442.6542   6   7   0.0235   0.0222   0.0153  -0.0202  -0.0154   0.0175   0.00    0.0
2121 184020.000  -4460997.1556   2682557.1998  -3674442.6543   6   7   0.0235   0.0222   0.0153  -0.0202  -0.0154   0.0175   0.00    0.0
2121 184050.000  -4460997.1557   2682557.2000  -3674442.6544   6   7   0.0235   0.0222   0.0153  -0.0202  -0.0154   0.0175   0.00    0.0
2121 184080.000  -4460997.1559   2682557.2003  -3674442.6545   6   7   0.0235   0.0222   0.0153  -0.0202  -0.0154   0.0175   0.00    0.0
2121 184110.000  -4460997.1561   2682557.2007  -3674442.6547   6   7   0.0235   0.0222   0.0153  -0.0202  -0.0154   0.0175   0.00    0.0
2121 184140.000  -4460997.1562   2682557.2010  -3674442.6546   6   7   0.0235   0.0222   0.0153  -0.0201  -0.0153   0.0175   0.00    0.0
2121 184170.000  -4460997.1557   2682557.2007  -3674442.6539   6   7   0.0234   0.0221   0.0153  -0.0201  -0.0153   0.0174   0.00    0.0
2121 184200.000  -4460997.1560   2682557.2009  -3674442.6543   6   7   0.0232   0.0217   0.0151  -0.0198  -0.0151   0.0173   0.00    0.0
2121 184230.000  -4460997.1556   2682557.2005  -3674442.6544   6   7   0.0231   0.0217   0.0151  -0.0197  -0.0150   0.0173   0.00    0.0
2121 184260.000  -4460997.1555   2682557.2006  -3674442.6544   6   7   0.0231   0.0216   0.0151  -0.0197  -0.0150   0.0172   0.00    0.0
2121 184290.000  -4460997.1556   2682557.2008  -3674442.6545   6   7   0.0231   0.0216   0.0151  -0.0197  -0.0150   0.0172   0.00    0.0
2121 184320.000  -4460997.1556   2682557.2008  -3674442.6546   6   7   0.0231   0.0216   0.0151  -0.0197  -0.0150   0.0172   0.00    0.0
2121 184350.000  -4460997.1556   2682557.2008  -3674442.6546   6   7   0.0231   0.0216   0.0151  -0.0197  -0.0150   0.0172   0.00    0.0
2121 184380.000  -4460997.1557   2682557.2010  -3674442.6548   6   7   0.0230   0.0216   0.0151  -0.0196  -0.0150   0.0172   0.00    0.0
2121 184410.000  -4460997.1560   2682557.2013  -3674442.6550   6   7   0.0230   0.0216   0.0151  -0.0196  -0.0150   0.0172   0.00    0.0
2121 184440.000  -4460997.1563   2682557.2019  -3674442.6553   6   7   0.0230   0.0215   0.0150  -0.0196  -0.0150   0.0172   0.00    0.0
2121 184470.000  -4460997.1562   2682557.2024  -3674442.6554   6   7   0.0229   0.0214   0.0150  -0.0195  -0.0149   0.0171   0.00    0.0
2121 184500.000  -4460997.1544   2682557.2013  -3674442.6548   6   7   0.0227   0.0211   0.0149  -0.0192  -0.0147   0.0170   0.00    0.0
2121 184530.000  -4460997.1544   2682557.2015  -3674442.6550   6   7   0.0226   0.0210   0.0148  -0.0191  -0.0147   0.0169   0.00    0.0
2121 184560.000  -4460997.1547   2682557.2021  -3674442.6553   6   7   0.0226   0.0209   0.0148  -0.0191  -0.0146   0.0169   0.00    0.0
2121 184590.000  -4460997.1548   2682557.2025  -3674442.6555   6   7   0.0226   0.0209   0.0148  -0.0191  -0.0146   0.0169   0.00    0.0
2121 184620.000  -4460997.1551   2682557.2028  -3674442.6557   6   7   0.0226   0.0209   0.0148  -0.0191  -0.0146   0.0169   0.00    0.0
2121 184650.000  -4460997.1553   2682557.2030  -3674442.6558   6   8   0.0226   0.0209   0.0148  -0.0191  -0.0146   0.0169   0.00    0.0
2121 184680.000  -4460997.1553   2682557.2030  -3674442.6558   6   8   0.0226   0.0209   0.0148  -0.0191  -0.0146   0.0169   0.00    0.0
2121 184710.000  -4460997.1552   2682557.2028  -3674442.6559   6   8   0.0226   0.0209   0.0148  -0.0191  -0.0146   0.0169   0.00    0.0
2121 184740.000  -4460997.1553   2682557.2028  -3674442.6563   6   9   0.0225   0.0208   0.0148  -0.0190  -0.0146   0.0169   0.00    0.0
2121 184770.000  -4460997.1553   2682557.2026  -3674442.6570   6   9   0.0225   0.0207   0.0147  -0.0189  -0.0145   0.0168   0.00    0.0
2121 184800.000  -4460997.1534   2682557.2013  -3674442.6562   6   9   0.0222   0.0204   0.0146  -0.0186  -0.0143   0.0167   0.00    0.0
2121 184830.000  -4460997.1532   2682557.2014  -3674442.6561   6   9   0.0221   0.0203   0.0146  -0.0185  -0.0143   0.0166   0.00    0.0
2121 184860.000  -4460997.1529   2682557.2014  -3674442.6560   6   9   0.0221   0.0202   0.0146  -0.0185  -0.0143   0.0166   0.00    0.0
2121 184890.000  -4460997.1528   2682557.2013  -3674442.6560   6   9   0.0221   0.0202   0.0145  -0.0185  -0.0142   0.0166   0.00    0.0
2121 184920.000  -4460997.1527   2682557.2012  -3674442.6559   6   9   0.0221   0.0202   0.0145  -0.0185  -0.0142   0.0166   0.00    0.0
2121 184950.000  -4460997.1525   2682557.2010  -3674442.6558   6   9   0.0221   0.0202   0.0145  -0.0185  -0.0142   0.0166   0.00    0.0
2121 184980.000  -4460997.1524   2682557.2009  -3674442.6558   6   9   0.0221   0.0202   0.0145  -0.0185  -0.0142   0.0166   0.00    0.0
2121 185010.000  -4460997.1523   2682557.2007  -3674442.6558   6   9   0.0221   0.0202   0.0145  -0.0185  -0.0142   0.0166   0.00    0.0
2121 185040.000  -4460997.1523   2682557.2005  -3674442.6557   6   9   0.0221   0.0201   0.0145  -0.0184  -0.0142   0.0166   0.00    0.0
2121 185070.000  -4460997.1513   2682557.1990  -3674442.6555   6   9   0.0220   0.0200   0.0145  -0.0183  -0.0141   0.0165   0.00    0.0
2121 185100.000  -4460997.1502   2682557.1986  -3674442.6553   6   9   0.0217   0.0196   0.0143  -0.0180  -0.0139   0.0163   0.00    0.0
2121 185130.000  -4460997.1504   2682557.1991  -3674442.6555   6   9   0.0217   0.0196   0.0143  -0.0179  -0.0139   0.0163   0.00    0.0
2121 185160.000  -4460997.1507   2682557.1996  -3674442.6558   6   9   0.0216   0.0195   0.0143  -0.0179  -0.0138   0.0163   0.00    0.0
2121 185190.000  -4460997.1508   2682557.1997  -3674442.6560   6   9   0.0216   0.0195   0.0143  -0.0179  -0.0138   0.0163   0.00    0.0
2121 185220.000  -4460997.1509   2682557.1998  -3674442.6561   6   9   0.0216   0.0195   0.0143  -0.0179  -0.0138   0.0163   0.00    0.0
2121 185250.000  -4460997.1509   2682557.1997  -3674442.6561   6   9   0.0216   0.0195   0.0143  -0.0179  -0.0138   0.0163   0.00    0.0
2121 185280.000  -4460997.1508   2682557.1996  -3674442.6562   6   9   0.0216   0.0195   0.0143  -0.0179  -0.0138   0.0163   0.00    0.0
2121 185310.000  -4460997.1507   2682557.1997  -3674442.6562   6   9   0.0216   0.0195   0.0143  -0.0178  -0.0138   0.0162   0.00    0.0
2121 185340.000  -4460997.1505   2682557.1997  -3674442.6561   6   9   0.0216   0.0194   0.0142  -0.0178  -0.0138   0.0162   0.00    0.0
2121 185370.000  -4460997.1502   2682557.2001  -3674442.6560   6   9   0.0215   0.0193   0.0142  -0.0177  -0.0137   0.0162   0.00    0.0
2121 185400.000  -4460997.1475   2682557.1975  -3674442.6546   6   9   0.0212   0.0189   0.0141  -0.0174  -0.0135   0.0160   0.00    0.0
2121 185430.000  -4460997.1472   2682557.1975  -3674442.6545   6   9   0.0212   0.0188   0.0140  -0.0173  -0.0135   0.0160   0.00    0.0
2121 185460.000  -4460997.1471   2682557.1976  -3674442.6544   6   9   0.0211   0.0188   0.0140  -0.0173  -0.0134   0.0159   0.00    0.0
2121 185490.000  -4460997.1472   2682557.1978  -3674442.6545   6   9   0.0211   0.0188   0.0140  -0.0173  -0.0134   0.0159   0.00    0.0
2121 185520.000  -4460997.1472   2682557.1979  -3674442.6544   6   9   0.0211   0.0188   0.0140  -0.0173  -0.0134   0.0159   0.00    0.0
2121 185550.000  -4460997.1471   2682557.1979  -3674442.6544   6   9   0.0211   0.0188   0.0140  -0.0173  -0.0134   0.0159   0.00    0.0
2121 185580.000  -4460997.1471   2682557.1979  -3674442.6543   6   9   0.0211   0.0188   0.0140  -0.0173  -0.0134   0.0159   0.00    0.0
2121 185610.000  -4460997.1470   2682557.1981  -3674442.6541   6   9   0.0211   0.0188   0.0140  -0.0172  -0.0134   0.0159   0.00    0.0
2121 185640.000  -4460997.1472   2682557.1986  -3674442.6541   6   9   0.0211   0.0187   0.0140  -0.0172  -0.0134   0.0159   0.00    0.0
2121 185670.000  -4460997.1477   2682557.1999  -3674442.6543   6   9   0.0210   0.0186   0.0139  -0.0171  -0.0133   0.0158   0.00    0.0
2121 185700.000  -4460997.1454   2682557.1974  -3674442.6534   6   9   0.0208   0.0182   0.0138  -0.0168  -0.0131   0.0157   0.00    0.0
2121 185730.000  -4460997.1443   2682557.1961  -3674442.6526   6   9   0.0207   0.0182   0.0137  -0.0167  -0.0130   0.0156   0.00    0.0
2121 185760.000  -4460997.1438   2682557.1955  -3674442.6523   6   9   0.0207   0.0181   0.0137  -0.0167  -0.0130   0.0156   0.00    0.0
2121 185790.000  -4460997.1441   2682557.1957  -3674442.6524   6   9   0.0207   0.0181   0.0137  -0.0167  -0.0130   0.0156   0.00    0.0
2121 185820.000  -4460997.1443   2682557.1957  -3674442.6525   6   9   0.0206   0.0181   0.0137  -0.0167  -0.0130   0.0156   0.00    0.0
2121 185850.000  -4460997.1444   2682557.1958  -3674442.6526   6   9   0.0206   0.0181   0.0137  -0.0167  -0.0130   0.0156   0.00    0.0
