%  GPST              x-ecef(m)      y-ecef(m)      z-ecef(m)   Q  ns   sdx(m)   sdy(m)   sdz(m)  sdxy(m)  sdyz(m)  sdzx(m) age(s)  ratio
2121 172799.999  -4460997.9258   2682556.8052  -3674443.0551   6   7   2.7597   1.7969   2.6186  -1.8114   0.2328   1.4818   0.00    0.0
2121 172829.999  -4460997.9893   2682556.9508  -3674442.4589   6   7   1.9246   1.2632   1.7878  -1.2661   0.1287   1.0172   0.00    0.0
2121 172859.999  -4460998.0664   2682557.1699  -3674442.8583   6   7   1.5602   1.0285   1.4360  -1.0276   0.0646   0.8232   0.00    0.0
2121 172889.999  -4460997.8427   2682557.1542  -3674443.0334   6   7   1.3456   0.8895   1.2324  -0.8868  -0.0488   0.7128   0.00    0.0
2121 172919.999  -4460998.0953   2682557.2315  -3674443.2219   6   7   1.2006   0.7952   1.0966  -0.7916  -0.0807   0.6402   0.00    0.0
2121 172949.999  -4460998.4619   2682557.6638  -3674443.1299   6   7   1.0944   0.7259   0.9981  -0.7219  -0.0967   0.5883   0.00    0.0
2121 172979.999  -4460998.3941   2682557.4570  -3674443.0145   6   7   1.0043   0.6696   0.9053  -0.6634  -0.1088   0.5391   0.00    0.0
2121 173009.999  -4460998.1734   2682557.2872  -3674442.9465   6   7   0.9201   0.6208   0.8064  -0.6099  -0.1202   0.4863   0.00    0.0
2121 173039.999  -4460998.1662   2682557.3230  -3674443.0921   6   7   0.8309   0.5740   0.6880  -0.5544  -0.1351   0.4236   0.00    0.0
2121 173069.999  -4460997.8874   2682557.0524  -3674442.9550   6   7   0.7218   0.5229   0.5394  -0.4873  -0.1623   0.3524   0.00    0.0
2121 173099.999  -4460997.4761   2682556.9511  -3674442.7266   6   7   0.6121   0.4724   0.4076  -0.4209  -0.1958   0.3046   0.00    0.0
2121 173129.999  -4460997.5082   2682556.9820  -3674442.6974   6   7   0.5818   0.4520   0.3874  -0.4019  -0.1948   0.2961   0.00    0.0
2121 173159.999  -4460997.5257   2682556.8948  -3674442.6617   6   7   0.5643   0.4371   0.3785  -0.3907  -0.1928   0.2922   0.00    0.0
2121 173189.999  -4460997.5245   2682556.9224  -3674442.6575   6   7   0.5508   0.4244   0.3725  -0.3818  -0.1908   0.2894   0.00    0.0
2121 173219.999  -4460997.5352   2682556.8904  -3674442.6626   6   7   0.5392   0.4132   0.3677  -0.3741  -0.1889   0.2871   0.00    0.0
2121 173249.999  -4460997.5931   2682556.8948  -3674442.6697   6   7   0.5289   0.4032   0.3636  -0.3672  -0.1871   0.2851   0.00    0.0
2121 173279.999  -4460997.6128   2682556.8883  -3674442.6772   6   7   0.5177   0.3934   0.3581  -0.3598  -0.1857   0.2827   0.00    0.0
2121 173309.999  -4460997.6152   2682556.9255  -3674442.6880   6   7   0.5043   0.3834   0.3498  -0.3513  -0.1851   0.2794   0.00    0.0
2121 173339.999  -4460997.6127   2682556.9377  -3674442.6564   6   7   0.4860   0.3726   0.3352  -0.3407  -0.1859   0.2739   0.00    0.0
2121 173369.999  -4460997.5459   2682556.9784  -3674442.6743   6   7   0.4561   0.3591   0.3059  -0.3254  -0.1905   0.2638   0.00    0.0
2121 173399.999  -4460997.3279   2682556.9247  -3674442.6170   6   7   0.4152   0.3436   0.2617  -0.3085  -0.2007   0.2505   0.00    0.0
2121 173429.999  -4460997.3921   2682556.9719  -3674442.6491   6   7   0.4035   0.3364   0.2542  -0.3024  -0.2003   0.2474   0.00    0.0
2121 173459.999  -4460997.3775   2682556.9444  -3674442.6455   6   7   0.3973   0.3308   0.2512  -0.2985  -0.1990   0.2457   0.00    0.0
2121 173489.999  -4460997.3775   2682556.9657  -3674442.6543   6   7   0.3927   0.3259   0.2493  -0.2952  -0.1975   0.2444   0.00    0.0
2121 173519.999  -4460997.3672   2682556.9538  -3674442.6612   6   7   0.3889   0.3214   0.2478  -0.2923  -0.1960   0.2432   0.00    0.0
2121 173549.999  -4460997.3713   2682556.9725  -3674442.6542   6   7   0.3855   0.3171   0.2466  -0.2896  -0.1946   0.2421   0.00    0.0
2121 173579.999  -4460997.3645   2682556.9393  -3674442.6454   6   7   0.3816   0.3130   0.2449  -0.2868  -0.1933   0.2410   0.00    0.0
2121 173609.999  -4460997.3604   2682556.9180  -3674442.6389   6   7   0.3768   0.3087   0.2424  -0.2837  -0.1922   0.2396   0.00    0.0
2121 173639.999  -4460997.3757   2682556.9477  -3674442.6423   6   7   0.3702   0.3043   0.2379  -0.2803  -0.1917   0.2376   0.00    0.0
2121 173669.999  -4460997.3601   2682557.0089  -3674442.6482   6   7   0.3587   0.2994   0.2273  -0.2764  -0.1924   0.2334   0.00    0.0
2121 173699.999  -4460997.3523   2682557.0664  -3674442.6501   6   7   0.3396   0.2939   0.2066  -0.2725  -0.1951   0.2250   0.00    0.0
2121 173729.999  -4460997.3292   2682557.0525  -3674442.6418   6   7   0.3333   0.2902   0.2023  -0.2698  -0.1942   0.2226   0.00    0.0
2121 173759.999  -4460997.3548   2682557.0684  -3674442.6521   6   7   0.3298   0.2871   0.2005  -0.2674  -0.1930   0.2211   0.00    0.0
2121 173789.999  -4460997.3829   2682557.0956  -3674442.6652   6   7   0.3272   0.2841   0.1993  -0.2652  -0.1916   0.2199   0.00    0.0
2121 173819.999  -4460997.3935   2682557.0928  -3674442.6626   6   7   0.3249   0.2814   0.1983  -0.2632  -0.1903   0.2189   0.00    0.0
2121 173849.999  -4460997.3868   2682557.0857  -3674442.6634   6   7   0.3229   0.2788   0.1975  -0.2613  -0.1891   0.2179   0.00    0.0
2121 173879.999  -4460997.3911   2682557.0793  -3674442.6634   6   7   0.3206   0.2762   0.1965  -0.2593  -0.1879   0.2168   0.00    0.0
2121 173909.999  -4460997.4198   2682557.0994  -3674442.6744   6   7   0.3178   0.2735   0.1950  -0.2573  -0.1867   0.2156   0.00    0.0
2121 173939.999  -4460997.4481   2682557.1289  -3674442.6869   6   7   0.3141   0.2709   0.1925  -0.2553  -0.1856   0.2139   0.00    0.0
2121 173969.999  -4460997.4332   2682557.1441  -3674442.6860   6   7   0.3077   0.2680   0.1867  -0.2533  -0.1847   0.2106   0.00    0.0
2121 173999.999  -4460997.3704   2682557.1527  -3674442.6737   6   7   0.2964   0.2647   0.1739  -0.2518  -0.1840   0.2035   0.00    0.0
2121 174029.999  -4460997.3842   2682557.1421  -3674442.6800   6   7   0.2922   0.2621   0.1708  -0.2498  -0.1826   0.2013   0.00    0.0
2121 174059.999  -4460997.3942   2682557.1583  -3674442.6878   6   7   0.2896   0.2598   0.1694  -0.2478  -0.1813   0.1998   0.00    0.0
2121 174089.999  -4460997.3890   2682557.1645  -3674442.6902   6   7   0.2876   0.2576   0.1683  -0.2460  -0.1801   0.1987   0.00    0.0
2121 174119.999  -4460997.3910   2682557.1672  -3674442.6926   6   7   0.2858   0.2556   0.1675  -0.2443  -0.1789   0.1976   0.00    0.0
2121 174149.999  -4460997.3991   2682557.1776  -3674442.6977   6   7   0.2843   0.2536   0.1668  -0.2427  -0.1778   0.1967   0.00    0.0
2121 174179.999  -4460997.3981   2682557.1732  -3674442.6958   6   7   0.2825   0.2517   0.1659  -0.2410  -0.1767   0.1956   0.00    0.0
2121 174209.999  -4460997.3871   2682557.1542  -3674442.6866   6   7   0.2804   0.2496   0.1647  -0.2393  -0.1754   0.1944   0.00    0.0
2121 174239.999  -4460997.3860   2682557.1475  -3674442.6828   6   7   0.2776   0.2474   0.1627  -0.2374  -0.1740   0.1926   0.00    0.0
2121 174269.999  -4460997.3723   2682557.1287  -3674442.6730   6   7   0.2727   0.2446   0.1582  -0.2351  -0.1719   0.1891   0.00    0.0
2121 174299.999  -4460997.3534   2682557.1549  -3674442.6758   6   7   0.2639   0.2403   0.1484  -0.2323  -0.1686   0.1823   0.00    0.0
2121 174329.999  -4460997.3416   2682557.1591  -3674442.6732   6   7   0.2603   0.2377   0.1456  -0.2300  -0.1667   0.1797   0.00    0.0
2121 174359.999  -4460997.3453   2682557.1656  -3674442.6736   6   7   0.2580   0.2357   0.1443  -0.2281  -0.1653   0.1782   0.00    0.0
2121 174389.999  -4460997.3517   2682557.1695  -3674442.6737   6   7   0.2562   0.2339   0.1433  -0.2264  -0.1641   0.1771   0.00    0.0
2121 174419.999  -4460997.3246   2682557.1334  -3674442.6590   6   7   0.2547   0.2322   0.1426  -0.2249  -0.1631   0.1761   0.00    0.0
2121 174449.999  -4460997.3330   2682557.1391  -3674442.6624   6   7   0.2533   0.2307   0.1419  -0.2236  -0.1621   0.1752   0.00    0.0
2121 174479.999  -4460997.3328   2682557.1380  -3674442.6619   6   7   0.2518   0.2291   0.1411  -0.2221  -0.1610   0.1742   0.00    0.0
2121 174509.999  -4460997.3410   2682557.1435  -3674442.6639   6   7   0.2499   0.2273   0.1400  -0.2203  -0.1597   0.1729   0.00    0.0
2121 174539.999  -4460997.3411   2682557.1498  -3674442.6628   6   7   0.2471   0.2250   0.1381  -0.2181  -0.1580   0.1708   0.00    0.0
2121 174569.999  -4460997.3328   2682557.1758  -3674442.6627   6   7   0.2420   0.2213   0.1339  -0.2147  -0.1548   0.1668   0.00    0.0
2121 174599.999  -4460997.3282   2682557.1935  -3674442.6701   6   7   0.2328   0.2148   0.1252  -0.2091  -0.1491   0.1590   0.00    0.0
2121 174629.999  -4460997.3513   2682557.2139  -3674442.6854   6   7   0.2286   0.2116   0.1224  -0.2059  -0.1465   0.1560   0.00    0.0
2121 174659.999  -4460997.3383   2682557.1994  -3674442.6806   6   7   0.2263   0.2096   0.1210  -0.2039  -0.1450   0.1543   0.00    0.0
2121 174689.999  -4460997.3446   2682557.2050  -3674442.6829   6   7   0.2246   0.2079   0.1201  -0.2023  -0.1439   0.1532   0.00    0.0
2121 174719.999  -4460997.3533   2682557.2118  -3674442.6867   6   7   0.2232   0.2065   0.1195  -0.2009  -0.1429   0.1523   0.00    0.0
2121 174749.999  -4460997.3535   2682557.2118  -3674442.6881   6   7   0.2220   0.2053   0.1189  -0.1997  -0.1421   0.1515   0.00    0.0
2121 174779.999  -4460997.3538   2682557.2097  -3674442.6866   6   7   0.2205   0.2039   0.1181  -0.1983  -0.1411   0.1505   0.00    0.0
2121 174809.999  -4460997.3525   2682557.2088  -3674442.6847   6   7   0.2186   0.2021   0.1171  -0.1965  -0.1397   0.1491   0.00    0.0
2121 174839.999  -4460997.3574   2682557.2179  -3674442.6873   6   7   0.2155   0.1995   0.1151  -0.1938  -0.1376   0.1467   0.00    0.0
2121 174869.999  -4460997.3399   2682557.2033  -3674442.6806   6   7   0.2094   0.1947   0.1109  -0.1889  -0.1335   0.1419   0.00    0.0
2121 174899.999  -4460997.3321   2682557.2053  -3674442.6880   6   7   0.1990   0.1862   0.1027  -0.1809  -0.1263   0.1334   0.00    0.0
2121 174929.999  -4460997.2869   2682557.1526  -3674442.6634   6   7   0.1946   0.1826   0.0999  -0.1772  -0.1233   0.1300   0.00    0.0
2121 174959.999  -4460997.2644   2682557.1281  -3674442.6502   6   7   0.1924   0.1807   0.0986  -0.1752  -0.1218   0.1284   0.00    0.0
2121 174989.999  -4460997.2593   2682557.1259  -3674442.6490   6   7   0.1909   0.1793   0.0978  -0.1738  -0.1208   0.1274   0.00    0.0
2121 175019.999  -4460997.2471   2682557.1099  -3674442.6425   6   7   0.1897   0.1781   0.0973  -0.1727  -0.1200   0.1266   0.00    0.0
2121 175049.999  -4460997.2447   2682557.1074  -3674442.6416   6   7   0.1888   0.1772   0.0968  -0.1717  -0.1193   0.1259   0.00    0.0
2121 175079.999  -4460997.2434   2682557.1063  -3674442.6411   6   7   0.1875   0.1760   0.0961  -0.1705  -0.1184   0.1250   0.00    0.0
2121 175109.999  -4460997.2454   2682557.1103  -3674442.6428   6   7   0.1856   0.1743   0.0951  -0.1688  -0.1172   0.1237   0.00    0.0
2121 175139.999  -4460997.2521   2682557.1152  -3674442.6483   6   7   0.1825   0.1717   0.0933  -0.1660  -0.1150   0.1213   0.00    0.0
2121 175169.999  -4460997.2760   2682557.1312  -3674442.6647   6   8   0.1763   0.1667   0.0894  -0.1606  -0.1107   0.1165   0.00    0.0
2121 175199.999  -4460997.2851   2682557.1594  -3674442.6757   6   8   0.1661   0.1578   0.0824  -0.1521  -0.1035   0.1084   0.00    0.0
2121 175229.999  -4460997.2648   2682557.1495  -3674442.6639   6   8   0.1617   0.1542   0.0797  -0.1483  -0.1005   0.1051   0.00    0.0
2121 175259.999  -4460997.2593   2682557.1466  -3674442.6607   6   8   0.1596   0.1524   0.0786  -0.1463  -0.0991   0.1035   0.00    0.0
2121 175289.999  -4460997.2624   2682557.1500  -3674442.6625   6   8   0.1582   0.1511   0.0779  -0.1450  -0.0981   0.1025   0.00    0.0
2121 175319.999  -4460997.2682   2682557.1574  -3674442.6655   6   8   0.1572   0.1502   0.0774  -0.1440  -0.0974   0.1018   0.00    0.0
2121 175349.999  -4460997.2709   2682557.1608  -3674442.6673   6   8   0.1563   0.1493   0.0770  -0.1432  -0.0969   0.1012   0.00    0.0
2121 175379.999  -4460997.2624   2682557.1535  -3674442.6644   6   9   0.1551   0.1483   0.0764  -0.1420  -0.0961   0.1004   0.00    0.0
2121 175409.999  -4460997.2529   2682557.1451  -3674442.6623   6   8   0.1543   0.1475   0.0761  -0.1413  -0.0956   0.0999   0.00    0.0
2121 175439.999  -4460997.2436   2682557.1355  -3674442.6582   6   8   0.1530   0.1464   0.0755  -0.1402  -0.0949   0.0992   0.00    0.0
2121 175469.999  -4460997.2425   2682557.1462  -3674442.6603   6   8   0.1507   0.1446   0.0743  -0.1385  -0.0938   0.0977   0.00    0.0
2121 175499.999  -4460997.2187   2682557.1444  -3674442.6528   6   8   0.1461   0.1406   0.0716  -0.1352  -0.0912   0.0947   0.00    0.0
2121 175529.999  -4460997.2156   2682557.1511  -3674442.6516   6   8   0.1442   0.1390   0.0707  -0.1337  -0.0902   0.0936   0.00    0.0
2121 175559.999  -4460997.2114   2682557.1475  -3674442.6498   6   8   0.1432   0.1381   0.0703  -0.1328  -0.0897   0.0930   0.00    0.0
2121 175589.999  -4460997.2133   2682557.1496  -3674442.6500   6   8   0.1424   0.1374   0.0700  -0.1321  -0.0893   0.0925   0.00    0.0
2121 175619.999  -4460997.2124   2682557.1478  -3674442.6493   6   8   0.1419   0.1369   0.0698  -0.1315  -0.0890   0.0922   0.00    0.0
2121 175649.999  -4460997.2122   2682557.1488  -3674442.6501   6   8   0.1414   0.1364   0.0697  -0.1311  -0.0887   0.0920   0.00    0.0
2121 175679.999  -4460997.2054   2682557.1400  -3674442.6465   6   8   0.1408   0.1359   0.0695  -0.1305  -0.0884   0.0916   0.00    0.0
2121 175709.999  -4460997.2038   2682557.1391  -3674442.6457   6   8   0.1400   0.1352   0.0692  -0.1298  -0.0879   0.0912   0.00    0.0
2121 175739.999  -4460997.1938   2682557.1314  -3674442.6422   6   8   0.1388   0.1341   0.0686  -0.1288  -0.0873   0.0904   0.00    0.0
2121 175769.999  -4460997.1915   2682557.1312  -3674442.6405   6   8   0.1365   0.1322   0.0675  -0.1269  -0.0860   0.0890   0.00    0.0
2121 175799.999  -4460997.2072   2682557.1495  -3674442.6492   6   8   0.1321   0.1281   0.0650  -0.1234  -0.0833   0.0860   0.00    0.0
2121 175829.999  -4460997.2070   2682557.1442  -3674442.6466   6   8   0.1303   0.1266   0.0641  -0.1219  -0.0824   0.0849   0.00    0.0
2121 175859.999  -4460997.2054   2682557.1401  -3674442.6442   6   8   0.1295   0.1258   0.0638  -0.1211  -0.0819   0.0844   0.00    0.0
2121 175889.999  -4460997.2080   2682557.1406  -3674442.6436   6   8   0.1289   0.1253   0.0636  -0.1206  -0.0815   0.0841   0.00    0.0
2121 175919.999  -4460997.2047   2682557.1347  -3674442.6411   6   8   0.1284   0.1249   0.0634  -0.1201  -0.0813   0.0838   0.00    0.0
2121 175949.999  -4460997.2017   2682557.1305  -3674442.6393   6   8   0.1281   0.1245   0.0633  -0.1198  -0.0811   0.0836   0.00    0.0
2121 175979.999  -4460997.2063   2682557.1362  -3674442.6416   6   8   0.1276   0.1240   0.0631  -0.1193  -0.0808   0.0833   0.00    0.0
2121 176009.999  -4460997.2074   2682557.1360  -3674442.6420   6   8   0.1270   0.1235   0.0629  -0.1188  -0.0805   0.0830   0.00    0.0
2121 176039.999  -4460997.2102   2682557.1366  -3674442.6446   6   8   0.1260   0.1226   0.0625  -0.1179  -0.0799   0.0824   0.00    0.0
2121 176069.999  -4460997.2094   2682557.1319  -3674442.6462   6   8   0.1242   0.1210   0.0615  -0.1164  -0.0789   0.0812   0.00    0.0
2121 176099.999  -4460997.2105   2682557.1415  -3674442.6476   6   8   0.1203   0.1173   0.0594  -0.1131  -0.0765   0.0786   0.00    0.0
2121 176129.999  -4460997.2097   2682557.1436  -3674442.6474   6   8   0.1188   0.1160   0.0587  -0.1119  -0.0757   0.0778   0.00    0.0
2121 176159.999  -4460997.2061   2682557.1398  -3674442.6450   6   8   0.1181   0.1154   0.0584  -0.1112  -0.0753   0.0774   0.00    0.0
2121 176189.999  -4460997.2059   2682557.1399  -3674442.6450   6   8   0.1177   0.1150   0.0583  -0.1108  -0.0750   0.0771   0.00    0.0
2121 176219.999  -4460997.2050   2682557.1394  -3674442.6447   6   8   0.1173   0.1146   0.0581  -0.1105  -0.0748   0.0769   0.00    0.0
2121 176249.999  -4460997.2020   2682557.1367  -3674442.6437   6   8   0.1170   0.1143   0.0580  -0.1102  -0.0747   0.0767   0.00    0.0
2121 176279.999  -4460997.2049   2682557.1399  -3674442.6447   6   8   0.1167   0.1140   0.0579  -0.1099  -0.0745   0.0766   0.00    0.0
2121 176309.999  -4460997.2047   2682557.1388  -3674442.6444   6   8   0.1162   0.1135   0.0577  -0.1094  -0.0742   0.0763   0.00    0.0
2121 176339.999  -4460997.2044   2682557.1380  -3674442.6449   6   8   0.1155   0.1129   0.0574  -0.1087  -0.0738   0.0759   0.00    0.0
2121 176369.999  -4460997.2008   2682557.1340  -3674442.6426   6   8   0.1139   0.1114   0.0567  -0.1074  -0.0730   0.0749   0.00    0.0
2121 176399.999  -4460997.2032   2682557.1420  -3674442.6446   6   8   0.1106   0.1080   0.0549  -0.1045  -0.0708   0.0728   0.00    0.0
2121 176429.999  -4460997.2114   2682557.1539  -3674442.6491   6   8   0.1094   0.1069   0.0544  -0.1034  -0.0702   0.0721   0.00    0.0
2121 176459.999  -4460997.2151   2682557.1574  -3674442.6512   6   8   0.1089   0.1064   0.0542  -0.1029  -0.0699   0.0718   0.00    0.0
2121 176489.999  -4460997.2145   2682557.1562  -3674442.6515   6   8   0.1085   0.1061   0.0541  -0.1026  -0.0697   0.0716   0.00    0.0
2121 176519.999  -4460997.2140   2682557.1552  -3674442.6515   6   8   0.1083   0.1058   0.0540  -0.1023  -0.0695   0.0714   0.00    0.0
2121 176549.999  -4460997.2143   2682557.1555  -3674442.6517   6   8   0.1080   0.1056   0.0539  -0.1021  -0.0694   0.0713   0.00    0.0
2121 176579.999  -4460997.2161   2682557.1559  -3674442.6518   6   8   0.1078   0.1053   0.0538  -0.1019  -0.0693   0.0712   0.00    0.0
2121 176609.999  -4460997.2203   2682557.1590  -3674442.6538   6   8   0.1074   0.1050   0.0537  -0.1015  -0.0691   0.0710   0.00    0.0
2121 176639.999  -4460997.2206   2682557.1555  -3674442.6540   6   8   0.1068   0.1044   0.0534  -0.1010  -0.0688   0.0707   0.00    0.0
2121 176669.999  -4460997.2108   2682557.1364  -3674442.6510   6   8   0.1056   0.1032   0.0529  -0.0999  -0.0681   0.0700   0.00    0.0
2121 176699.999  -4460997.2208   2682557.1556  -3674442.6579   6   8   0.1027   0.1001   0.0515  -0.0971  -0.0662   0.0681   0.00    0.0
2121 176729.999  -4460997.2310   2682557.1673  -3674442.6601   6   8   0.1017   0.0991   0.0511  -0.0962  -0.0657   0.0676   0.00    0.0
2121 176759.999  -4460997.2339   2682557.1705  -3674442.6599   6   8   0.1012   0.0986   0.0509  -0.0958  -0.0655   0.0673   0.00    0.0
2121 176789.999  -4460997.2327   2682557.1686  -3674442.6588   6   8   0.1010   0.0984   0.0508  -0.0956  -0.0653   0.0672   0.00    0.0
2121 176819.999  -4460997.2335   2682557.1690  -3674442.6588   6   8   0.1008   0.0982   0.0507  -0.0953  -0.0652   0.0671   0.00    0.0
2121 176849.999  -4460997.2357   2682557.1708  -3674442.6593   6   8   0.1006   0.0980   0.0507  -0.0952  -0.0651   0.0670   0.00    0.0
2121 176879.999  -4460997.2370   2682557.1725  -3674442.6596   6   8   0.1004   0.0978   0.0506  -0.0950  -0.0650   0.0669   0.00    0.0
2121 176909.999  -4460997.2384   2682557.1740  -3674442.6600   6   8   0.1001   0.0975   0.0505  -0.0947  -0.0648   0.0667   0.00    0.0
2121 176939.999  -4460997.2330   2682557.1684  -3674442.6580   6   8   0.0996   0.0970   0.0503  -0.0942  -0.0646   0.0665   0.00    0.0
2121 176969.999  -4460997.2211   2682557.1561  -3674442.6545   6   8   0.0986   0.0958   0.0499  -0.0932  -0.0640   0.0659   0.00    0.0
2121 176999.999  -4460997.2205   2682557.1655  -3674442.6574   6   8   0.0959   0.0929   0.0487  -0.0906  -0.0623   0.0643   0.00    0.0
2121 177029.999  -4460997.2276   2682557.1779  -3674442.6602   6   8   0.0950   0.0920   0.0484  -0.0898  -0.0618   0.0638   0.00    0.0
2121 177059.999  -4460997.2256   2682557.1769  -3674442.6594   6   8   0.0947   0.0916   0.0483  -0.0894  -0.0616   0.0637   0.00    0.0
2121 177089.999  -4460997.2256   2682557.1767  -3674442.6591   6   8   0.0944   0.0913   0.0482  -0.0892  -0.0615   0.0635   0.00    0.0
2121 177119.999  -4460997.2234   2682557.1740  -3674442.6580   6   8   0.0943   0.0912   0.0481  -0.0890  -0.0614   0.0635   0.00    0.0
2121 177149.999  -4460997.2193   2682557.1697  -3674442.6564   6   8   0.0941   0.0910   0.0481  -0.0889  -0.0614   0.0634   0.00    0.0
2121 177179.999  -4460997.2162   2682557.1663  -3674442.6552   6   8   0.0940   0.0908   0.0480  -0.0887  -0.0613   0.0633   0.00    0.0
2121 177209.999  -4460997.2122   2682557.1618  -3674442.6544   6   8   0.0937   0.0906   0.0480  -0.0885  -0.0611   0.0632   0.00    0.0
2121 177239.999  -4460997.2096   2682557.1582  -3674442.6539   6   8   0.0933   0.0901   0.0478  -0.0881  -0.0609   0.0630   0.00    0.0
2121 177269.999  -4460997.2078   2682557.1602  -3674442.6548   6   8   0.0923   0.0890   0.0475  -0.0871  -0.0604   0.0625   0.00    0.0
2121 177299.999  -4460997.2080   2682557.1700  -3674442.6561   6   8   0.0897   0.0861   0.0464  -0.0845  -0.0587   0.0609   0.00    0.0
2121 177329.999  -4460997.2124   2682557.1727  -3674442.6570   6   8   0.0889   0.0853   0.0461  -0.0837  -0.0583   0.0605   0.00    0.0
2121 177359.999  -4460997.2119   2682557.1731  -3674442.6572   6   8   0.0886   0.0849   0.0460  -0.0834  -0.0581   0.0603   0.00    0.0
2121 177389.999  -4460997.2134   2682557.1754  -3674442.6576   6   8   0.0884   0.0847   0.0459  -0.0832  -0.0580   0.0602   0.00    0.0
2121 177419.999  -4460997.2132   2682557.1756  -3674442.6575   6   8   0.0882   0.0845   0.0459  -0.0830  -0.0579   0.0602   0.00    0.0
2121 177449.999  -4460997.2123   2682557.1745  -3674442.6569   6   8   0.0881   0.0844   0.0458  -0.0829  -0.0579   0.0601   0.00    0.0
2121 177479.999  -4460997.2146   2682557.1767  -3674442.6577   6   8   0.0880   0.0843   0.0458  -0.0828  -0.0578   0.0600   0.00    0.0
2121 177509.999  -4460997.2169   2682557.1794  -3674442.6589   6   8   0.0878   0.0840   0.0457  -0.0826  -0.0577   0.0599   0.00    0.0
2121 177539.999  -4460997.2182   2682557.1823  -3674442.6602   6   8   0.0874   0.0836   0.0456  -0.0822  -0.0574   0.0597   0.00    0.0
2121 177569.999  -4460997.2198   2682557.1872  -3674442.6623   6   8   0.0864   0.0825   0.0452  -0.0812  -0.0568   0.0592   0.00    0.0
2121 177599.999  -4460997.2228   2682557.1975  -3674442.6646   6   8   0.0837   0.0795   0.0441  -0.0784  -0.0551   0.0576   0.00    0.0
2121 177629.999  -4460997.2164   2682557.1956  -3674442.6638   6   8   0.0829   0.0786   0.0438  -0.0776  -0.0546   0.0571   0.00    0.0
2121 177659.999  -4460997.2153   2682557.1956  -3674442.6637   6   8   0.0826   0.0782   0.0437  -0.0773  -0.0545   0.0570   0.00    0.0
2121 177689.999  -4460997.2159   2682557.1974  -3674442.6645   6   8   0.0824   0.0780   0.0437  -0.0771  -0.0544   0.0569   0.00    0.0
2121 177719.999  -4460997.2167   2682557.1994  -3674442.6652   6   8   0.0823   0.0779   0.0436  -0.0770  -0.0543   0.0568   0.00    0.0
2121 177749.999  -4460997.2191   2682557.2023  -3674442.6663   6   8   0.0822   0.0778   0.0436  -0.0769  -0.0542   0.0568   0.00    0.0
2121 177779.999  -4460997.2211   2682557.2052  -3674442.6673   6   8   0.0821   0.0777   0.0435  -0.0767  -0.0541   0.0567   0.00    0.0
2121 177809.999  -4460997.2237   2682557.2091  -3674442.6687   6   8   0.0818   0.0774   0.0435  -0.0765  -0.0540   0.0566   0.00    0.0
2121 177839.999  -4460997.2275   2682557.2138  -3674442.6708   6   8   0.0815   0.0770   0.0433  -0.0761  -0.0538   0.0564   0.00    0.0
2121 177869.999  -4460997.2263   2682557.2172  -3674442.6722   6   8   0.0804   0.0759   0.0429  -0.0751  -0.0532   0.0558   0.00    0.0
2121 177899.999  -4460997.2223   2682557.2154  -3674442.6708   6   8   0.0775   0.0728   0.0417  -0.0722  -0.0513   0.0540   0.00    0.0
2121 177929.999  -4460997.2280   2682557.2222  -3674442.6736   6   8   0.0767   0.0720   0.0414  -0.0714  -0.0508   0.0535   0.00    0.0
2121 177959.999  -4460997.2282   2682557.2225  -3674442.6744   6   8   0.0764   0.0716   0.0413  -0.0710  -0.0506   0.0533   0.00    0.0
2121 177989.999  -4460997.2292   2682557.2227  -3674442.6748   6   8   0.0762   0.0714   0.0412  -0.0709  -0.0505   0.0532   0.00    0.0
2121 178019.999  -4460997.2317   2682557.2250  -3674442.6757   6   8   0.0761   0.0713   0.0412  -0.0707  -0.0504   0.0531   0.00    0.0
2121 178049.999  -4460997.2336   2682557.2266  -3674442.6764   6   8   0.0760   0.0712   0.0411  -0.0706  -0.0504   0.0531   0.00    0.0
2121 178079.999  -4460997.2345   2682557.2273  -3674442.6766   6   8   0.0759   0.0711   0.0411  -0.0705  -0.0503   0.0530   0.00    0.0
2121 178109.999  -4460997.2378   2682557.2297  -3674442.6775   6   8   0.0756   0.0709   0.0410  -0.0703  -0.0501   0.0529   0.00    0.0
2121 178139.999  -4460997.2404   2682557.2298  -3674442.6777   6   8   0.0752   0.0704   0.0408  -0.0698  -0.0499   0.0526   0.00    0.0
2121 178169.999  -4460997.2481   2682557.2375  -3674442.6817   6   8   0.0740   0.0692   0.0403  -0.0687  -0.0491   0.0519   0.00    0.0
2121 178199.999  -4460997.2359   2682557.2275  -3674442.6772   6   8   0.0710   0.0661   0.0390  -0.0657  -0.0471   0.0499   0.00    0.0
2121 178229.999  -4460997.2258   2682557.2216  -3674442.6743   6   8   0.0701   0.0652   0.0386  -0.0648  -0.0465   0.0494   0.00    0.0
2121 178259.999  -4460997.2239   2682557.2205  -3674442.6736   6   9   0.0697   0.0649   0.0385  -0.0644  -0.0463   0.0491   0.00    0.0
2121 178289.999  -4460997.2230   2682557.2203  -3674442.6735   6   9   0.0695   0.0647   0.0384  -0.0642  -0.0462   0.0490   0.00    0.0
2121 178319.999  -4460997.2218   2682557.2192  -3674442.6729   6   9   0.0694   0.0646   0.0383  -0.0641  -0.0461   0.0489   0.00    0.0
2121 178349.999  -4460997.2210   2682557.2187  -3674442.6726   6   9   0.0693   0.0645   0.0383  -0.0640  -0.0460   0.0489   0.00    0.0
2121 178379.999  -4460997.2197   2682557.2176  -3674442.6724   6   9   0.0691   0.0643   0.0382  -0.0638  -0.0459   0.0488   0.00    0.0
2121 178409.999  -4460997.2173   2682557.2163  -3674442.6722   6   9   0.0689   0.0641   0.0381  -0.0636  -0.0458   0.0486   0.00    0.0
2121 178439.999  -4460997.2107   2682557.2106  -3674442.6701   6   9   0.0684   0.0636   0.0378  -0.0631  -0.0454   0.0482   0.00    0.0
2121 178469.999  -4460997.2055   2682557.2076  -3674442.6686   6   9   0.0671   0.0624   0.0372  -0.0618  -0.0446   0.0474   0.00    0.0
2121 178499.999  -4460997.2094   2682557.2104  -3674442.6716   6   9   0.0640   0.0594   0.0359  -0.0588  -0.0426   0.0454   0.00    0.0
2121 178529.999  -4460997.2021   2682557.2004  -3674442.6680   6   9   0.0630   0.0585   0.0354  -0.0579  -0.0419   0.0447   0.00    0.0
2121 178559.999  -4460997.1961   2682557.1943  -3674442.6652   6   9   0.0626   0.0582   0.0352  -0.0575  -0.0417   0.0444   0.00    0.0
2121 178589.999  -4460997.1948   2682557.1927  -3674442.6648   6   9   0.0624   0.0580   0.0351  -0.0573  -0.0415   0.0443   0.00    0.0
2121 178619.999  -4460997.1957   2682557.1932  -3674442.6652   6   9   0.0623   0.0578   0.0350  -0.0572  -0.0414   0.0442   0.00    0.0
2121 178649.999  -4460997.1954   2682557.1929  -3674442.6650   6   9   0.0621   0.0577   0.0349  -0.0570  -0.0414   0.0441   0.00    0.0
2121 178679.999  -4460997.1958   2682557.1935  -3674442.6654   6   8   0.0620   0.0576   0.0349  -0.0569  -0.0413   0.0440   0.00    0.0
2121 178709.999  -4460997.1959   2682557.1941  -3674442.6657   6   8   0.0619   0.0574   0.0348  -0.0568  -0.0412   0.0439   0.00    0.0
2121 178739.999  -4460997.1940   2682557.1938  -3674442.6657   6   7   0.0616   0.0571   0.0347  -0.0565  -0.0410   0.0437   0.00    0.0
2121 178769.999  -4460997.1892   2682557.1924  -3674442.6651   6   7   0.0608   0.0564   0.0344  -0.0557  -0.0405   0.0432   0.00    0.0
2121 178799.999  -4460997.1844   2682557.1881  -3674442.6634   6   7   0.0586   0.0543   0.0335  -0.0536  -0.0391   0.0418   0.00    0.0
2121 178829.999  -4460997.1841   2682557.1856  -3674442.6625   6   7   0.0580   0.0536   0.0332  -0.0530  -0.0387   0.0415   0.00    0.0
2121 178859.999  -4460997.1837   2682557.1849  -3674442.6624   6   7   0.0578   0.0534   0.0331  -0.0528  -0.0386   0.0413   0.00    0.0
2121 178889.999  -4460997.1829   2682557.1836  -3674442.6618   6   7   0.0577   0.0533   0.0331  -0.0527  -0.0385   0.0412   0.00    0.0
2121 178919.999  -4460997.1815   2682557.1820  -3674442.6612   6   7   0.0576   0.0532   0.0330  -0.0526  -0.0384   0.0412   0.00    0.0
2121 178949.999  -4460997.1815   2682557.1819  -3674442.6612   6   7   0.0575   0.0531   0.0330  -0.0525  -0.0384   0.0411   0.00    0.0
2121 178979.999  -4460997.1816   2682557.1822  -3674442.6612   6   7   0.0574   0.0531   0.0329  -0.0524  -0.0383   0.0411   0.00    0.0
2121 179009.999  -4460997.1786   2682557.1794  -3674442.6599   6   7   0.0573   0.0529   0.0329  -0.0523  -0.0382   0.0410   0.00    0.0
2121 179039.999  -4460997.1753   2682557.1768  -3674442.6585   6   7   0.0570   0.0526   0.0327  -0.0520  -0.0380   0.0408   0.00    0.0
2121 179069.999  -4460997.1622   2682557.1657  -3674442.6524   6   7   0.0562   0.0518   0.0324  -0.0512  -0.0375   0.0403   0.00    0.0
2121 179099.999  -4460997.1590   2682557.1650  -3674442.6510   6   7   0.0541   0.0498   0.0315  -0.0492  -0.0361   0.0389   0.00    0.0
2121 179129.999  -4460997.1546   2682557.1619  -3674442.6494   6   7   0.0534   0.0492   0.0312  -0.0485  -0.0357   0.0385   0.00    0.0
2121 179159.999  -4460997.1526   2682557.1602  -3674442.6486   6   7   0.0532   0.0490   0.0311  -0.0483  -0.0356   0.0383   0.00    0.0
2121 179189.999  -4460997.1538   2682557.1619  -3674442.6494   6   7   0.0531   0.0489   0.0311  -0.0482  -0.0355   0.0382   0.00    0.0
2121 179219.999  -4460997.1528   2682557.1610  -3674442.6491   6   7   0.0530   0.0488   0.0310  -0.0481  -0.0355   0.0382   0.00    0.0
2121 179249.999  -4460997.1528   2682557.1608  -3674442.6492   6   7   0.0529   0.0487   0.0310  -0.0481  -0.0354   0.0381   0.00    0.0
2121 179279.999  -4460997.1529   2682557.1610  -3674442.6492   6   7   0.0529   0.0487   0.0309  -0.0480  -0.0354   0.0381   0.00    0.0
2121 179309.999  -4460997.1530   2682557.1612  -3674442.6492   6   7   0.0527   0.0485   0.0309  -0.0478  -0.0353   0.0380   0.00    0.0
2121 179339.999  -4460997.1514   2682557.1602  -3674442.6486   6   7   0.0524   0.0482   0.0307  -0.0475  -0.0351   0.0378   0.00    0.0
2121 179369.999  -4460997.1491   2682557.1602  -3674442.6481   6   7   0.0517   0.0475   0.0304  -0.0468  -0.0346   0.0373   0.00    0.0
2121 179399.999  -4460997.1566   2682557.1684  -3674442.6517   6   7   0.0497   0.0457   0.0295  -0.0449  -0.0332   0.0360   0.00    0.0
2121 179429.999  -4460997.1599   2682557.1714  -3674442.6536   6   7   0.0491   0.0451   0.0293  -0.0443  -0.0329   0.0356   0.00    0.0
2121 179459.999  -4460997.1586   2682557.1698  -3674442.6534   6   7   0.0488   0.0449   0.0292  -0.0441  -0.0327   0.0354   0.00    0.0
2121 179489.999  -4460997.1575   2682557.1685  -3674442.6529   6   7   0.0487   0.0448   0.0291  -0.0440  -0.0326   0.0353   0.00    0.0
2121 179519.999  -4460997.1566   2682557.1676  -3674442.6525   6   7   0.0486   0.0447   0.0291  -0.0439  -0.0326   0.0353   0.00    0.0
2121 179549.999  -4460997.1568   2682557.1678  -3674442.6526   6   7   0.0486   0.0447   0.0290  -0.0439  -0.0326   0.0352   0.00    0.0
2121 179579.999  -4460997.1575   2682557.1683  -3674442.6527   6   7   0.0485   0.0446   0.0290  -0.0438  -0.0325   0.0352   0.00    0.0
2121 179609.999  -4460997.1578   2682557.1685  -3674442.6527   6   7   0.0484   0.0445   0.0289  -0.0436  -0.0324   0.0351   0.00    0.0
2121 179639.999  -4460997.1598   2682557.1707  -3674442.6531   6   7   0.0481   0.0442   0.0288  -0.0434  -0.0322   0.0349   0.00    0.0
2121 179669.999  -4460997.1642   2682557.1750  -3674442.6549   6   7   0.0474   0.0436   0.0285  -0.0427  -0.0318   0.0344   0.00    0.0
2121 179699.999  -4460997.1698   2682557.1800  -3674442.6569   6   7   0.0456   0.0419   0.0276  -0.0410  -0.0305   0.0332   0.00    0.0
2121 179729.999  -4460997.1764   2682557.1887  -3674442.6613   6   7   0.0450   0.0414   0.0274  -0.0404  -0.0302   0.0329   0.00    0.0
2121 179759.999  -4460997.1792   2682557.1918  -3674442.6628   6   7   0.0448   0.0412   0.0273  -0.0402  -0.0300   0.0327   0.00    0.0
2121 179789.999  -4460997.1810   2682557.1934  -3674442.6636   6   8   0.0447   0.0411   0.0272  -0.0401  -0.0300   0.0326   0.00    0.0
2121 179819.999  -4460997.1820   2682557.1940  -3674442.6639   6   8   0.0446   0.0411   0.0272  -0.0401  -0.0299   0.0326   0.00    0.0
2121 179849.999  -4460997.1827   2682557.1945  -3674442.6642   6   8   0.0446   0.0410   0.0272  -0.0400  -0.0299   0.0325   0.00    0.0
2121 179879.999  -4460997.1831   2682557.1946  -3674442.6642   6   8   0.0445   0.0409   0.0271  -0.0399  -0.0298   0.0325   0.00    0.0
2121 179909.999  -4460997.1842   2682557.1956  -3674442.6648   6   8   0.0444   0.0408   0.0271  -0.0398  -0.0297   0.0324   0.00    0.0
2121 179939.999  -4460997.1855   2682557.1966  -3674442.6653   6   8   0.0441   0.0406   0.0270  -0.0396  -0.0296   0.0322   0.00    0.0
2121 179969.999  -4460997.1860   2682557.1960  -3674442.6651   6   8   0.0435   0.0400   0.0267  -0.0390  -0.0292   0.0318   0.00    0.0
2121 179999.999  -4460997.1848   2682557.1953  -3674442.6642   6   8   0.0419   0.0386   0.0259  -0.0374  -0.0281   0.0307   0.00    0.0
2121 180029.999  -4460997.1764   2682557.1883  -3674442.6611   6   8   0.0414   0.0381   0.0257  -0.0369  -0.0277   0.0304   0.00    0.0
2121 180059.999  -4460997.1740   2682557.1865  -3674442.6605   6   8   0.0412   0.0380   0.0256  -0.0367  -0.0276   0.0302   0.00    0.0
2121 180089.999  -4460997.1735   2682557.1861  -3674442.6605   6   8   0.0411   0.0379   0.0255  -0.0366  -0.0275   0.0302   0.00    0.0
2121 180119.999  -4460997.1736   2682557.1863  -3674442.6607   6   8   0.0410   0.0378   0.0255  -0.0366  -0.0275   0.0301   0.00    0.0
2121 180149.999  -4460997.1733   2682557.1860  -3674442.6607   6   8   0.0410   0.0378   0.0255  -0.0365  -0.0275   0.0301   0.00    0.0
2121 180179.999  -4460997.1737   2682557.1864  -3674442.6610   6   8   0.0409   0.0377   0.0254  -0.0365  -0.0274   0.0300   0.00    0.0
2121 180209.999  -4460997.1734   2682557.1860  -3674442.6609   6   8   0.0408   0.0376   0.0254  -0.0364  -0.0273   0.0300   0.00    0.0
2121 180239.999  -4460997.1727   2682557.1853  -3674442.6605   6   8   0.0406   0.0374   0.0253  -0.0361  -0.0272   0.0298   0.00    0.0
2121 180269.999  -4460997.1711   2682557.1831  -3674442.6592   6   8   0.0400   0.0369   0.0250  -0.0356  -0.0268   0.0294   0.00    0.0
2121 180299.999  -4460997.1714   2682557.1844  -3674442.6593   6   8   0.0385   0.0356   0.0243  -0.0342  -0.0258   0.0284   0.00    0.0
2121 180329.999  -4460997.1754   2682557.1883  -3674442.6607   6   8   0.0381   0.0352   0.0241  -0.0338  -0.0255   0.0281   0.00    0.0
2121 180359.999  -4460997.1782   2682557.1911  -3674442.6617   6   8   0.0379   0.0351   0.0240  -0.0336  -0.0254   0.0280   0.00    0.0
2121 180389.999  -4460997.1793   2682557.1921  -3674442.6620   6   8   0.0378   0.0350   0.0240  -0.0335  -0.0253   0.0279   0.00    0.0
2121 180419.999  -4460997.1798   2682557.1925  -3674442.6621   6   8   0.0377   0.0350   0.0239  -0.0335  -0.0253   0.0279   0.00    0.0
2121 180449.999  -4460997.1796   2682557.1923  -3674442.6619   6   8   0.0377   0.0349   0.0239  -0.0334  -0.0252   0.0278   0.00    0.0
2121 180479.999  -4460997.1797   2682557.1922  -3674442.6617   6   8   0.0376   0.0349   0.0239  -0.0334  -0.0252   0.0278   0.00    0.0
2121 180509.999  -4460997.1793   2682557.1917  -3674442.6612   6   8   0.0375   0.0348   0.0238  -0.0333  -0.0251   0.0277   0.00    0.0
2121 180539.999  -4460997.1761   2682557.1886  -3674442.6597   6   8   0.0373   0.0346   0.0237  -0.0331  -0.0250   0.0276   0.00    0.0
2121 180569.999  -4460997.1710   2682557.1837  -3674442.6569   6   8   0.0368   0.0342   0.0235  -0.0326  -0.0246   0.0272   0.00    0.0
2121 180599.999  -4460997.1690   2682557.1831  -3674442.6562   6   8   0.0356   0.0331   0.0228  -0.0314  -0.0238   0.0263   0.00    0.0
2121 180629.999  -4460997.1715   2682557.1847  -3674442.6572   6   8   0.0352   0.0328   0.0226  -0.0310  -0.0235   0.0261   0.00    0.0
2121 180659.999  -4460997.1726   2682557.1855  -3674442.6577   6   8   0.0350   0.0326   0.0226  -0.0309  -0.0234   0.0260   0.00    0.0
2121 180689.999  -4460997.1733   2682557.1862  -3674442.6582   6   8   0.0349   0.0326   0.0225  -0.0308  -0.0233   0.0259   0.00    0.0
2121 180719.999  -4460997.1740   2682557.1869  -3674442.6586   6   8   0.0348   0.0325   0.0225  -0.0307  -0.0233   0.0259   0.00    0.0
2121 180749.999  -4460997.1743   2682557.1871  -3674442.6587   6   8   0.0348   0.0325   0.0225  -0.0307  -0.0233   0.0258   0.00    0.0
2121 180779.999  -4460997.1743   2682557.1872  -3674442.6587   6   8   0.0348   0.0324   0.0224  -0.0307  -0.0232   0.0258   0.00    0.0
2121 180809.999  -4460997.1739   2682557.1866  -3674442.6584   6   8   0.0347   0.0323   0.0224  -0.0306  -0.0232   0.0257   0.00    0.0
2121 180839.999  -4460997.1740   2682557.1868  -3674442.6587   6   8   0.0345   0.0322   0.0223  -0.0304  -0.0230   0.0256   0.00    0.0
2121 180869.999  -4460997.1734   2682557.1869  -3674442.6594   6   8   0.0340   0.0318   0.0221  -0.0300  -0.0228   0.0253   0.00    0.0
2121 180899.999  -4460997.1699   2682557.1856  -3674442.6584   6   8   0.0330   0.0309   0.0215  -0.0290  -0.0220   0.0245   0.00    0.0
2121 180929.999  -4460997.1680   2682557.1835  -3674442.6584   6   8   0.0326   0.0306   0.0213  -0.0286  -0.0218   0.0243   0.00    0.0
2121 180959.999  -4460997.1676   2682557.1830  -3674442.6583   6   8   0.0325   0.0305   0.0213  -0.0285  -0.0217   0.0242   0.00    0.0
2121 180989.999  -4460997.1674   2682557.1828  -3674442.6583   6   8   0.0324   0.0305   0.0212  -0.0284  -0.0216   0.0241   0.00    0.0
2121 181019.999  -4460997.1669   2682557.1821  -3674442.6580   6   8   0.0323   0.0304   0.0212  -0.0284  -0.0216   0.0241   0.00    0.0
2121 181049.999  -4460997.1667   2682557.1819  -3674442.6578   6   8   0.0323   0.0304   0.0212  -0.0284  -0.0215   0.0241   0.00    0.0
2121 181079.999  -4460997.1656   2682557.1808  -3674442.6571   6   8   0.0322   0.0303   0.0212  -0.0283  -0.0215   0.0240   0.00    0.0
2121 181109.999  -4460997.1639   2682557.1792  -3674442.6563   6   8   0.0322   0.0303   0.0211  -0.0282  -0.0215   0.0240   0.00    0.0
2121 181139.999  -4460997.1630   2682557.1783  -3674442.6554   6   8   0.0320   0.0301   0.0210  -0.0281  -0.0213   0.0239   0.00    0.0
2121 181169.999  -4460997.1632   2682557.1781  -3674442.6551   6   8   0.0316   0.0298   0.0208  -0.0277  -0.0211   0.0236   0.00    0.0
2121 181199.999  -4460997.1643   2682557.1799  -3674442.6560   6   8   0.0307   0.0291   0.0203  -0.0269  -0.0204   0.0229   0.00    0.0
2121 181229.999  -4460997.1663   2682557.1822  -3674442.6559   6   8   0.0304   0.0288   0.0202  -0.0266  -0.0202   0.0227   0.00    0.0
2121 181259.999  -4460997.1668   2682557.1827  -3674442.6556   6   8   0.0302   0.0287   0.0201  -0.0264  -0.0201   0.0226   0.00    0.0
2121 181289.999  -4460997.1670   2682557.1828  -3674442.6554   6   8   0.0302   0.0286   0.0201  -0.0264  -0.0201   0.0226   0.00    0.0
2121 181319.999  -4460997.1672   2682557.1834  -3674442.6555   6   8   0.0301   0.0286   0.0201  -0.0263  -0.0201   0.0225   0.00    0.0
2121 181349.999  -4460997.1668   2682557.1827  -3674442.6552   6   8   0.0301   0.0286   0.0200  -0.0263  -0.0200   0.0225   0.00    0.0
2121 181379.999  -4460997.1667   2682557.1827  -3674442.6552   6   8   0.0300   0.0285   0.0200  -0.0263  -0.0200   0.0225   0.00    0.0
2121 181409.999  -4460997.1653   2682557.1813  -3674442.6550   6   8   0.0300   0.0285   0.0200  -0.0262  -0.0200   0.0224   0.00    0.0
2121 181439.999  -4460997.1628   2682557.1783  -3674442.6545   6   8   0.0298   0.0284   0.0199  -0.0260  -0.0199   0.0223   0.00    0.0
2121 181469.999  -4460997.1625   2682557.1785  -3674442.6556   6   9   0.0295   0.0281   0.0197  -0.0257  -0.0196   0.0221   0.00    0.0
2121 181499.999  -4460997.1630   2682557.1801  -3674442.6563   6   9   0.0287   0.0274   0.0193  -0.0250  -0.0191   0.0215   0.00    0.0
2121 181529.999  -4460997.1621   2682557.1792  -3674442.6557   6   9   0.0284   0.0272   0.0191  -0.0247  -0.0189   0.0213   0.00    0.0
2121 181559.999  -4460997.1616   2682557.1789  -3674442.6555   6   9   0.0283   0.0271   0.0191  -0.0246  -0.0188   0.0212   0.00    0.0
2121 181589.999  -4460997.1608   2682557.1781  -3674442.6553   6   9   0.0282   0.0271   0.0190  -0.0246  -0.0188   0.0212   0.00    0.0
2121 181619.999  -4460997.1602   2682557.1777  -3674442.6551   6   9   0.0282   0.0270   0.0190  -0.0245  -0.0187   0.0212   0.00    0.0
2121 181649.999  -4460997.1598   2682557.1773  -3674442.6550   6   9   0.0282   0.0270   0.0190  -0.0245  -0.0187   0.0211   0.00    0.0
2121 181679.999  -4460997.1592   2682557.1769  -3674442.6548   6   9   0.0281   0.0270   0.0190  -0.0245  -0.0187   0.0211   0.00    0.0
2121 181709.999  -4460997.1583   2682557.1761  -3674442.6543   6   8   0.0281   0.0270   0.0189  -0.0244  -0.0187   0.0211   0.00    0.0
2121 181739.999  -4460997.1573   2682557.1756  -3674442.6538   6   8   0.0280   0.0269   0.0189  -0.0244  -0.0186   0.0210   0.00    0.0
2121 181769.999  -4460997.1552   2682557.1749  -3674442.6529   6   8   0.0279   0.0268   0.0188  -0.0242  -0.0185   0.0209   0.00    0.0
2121 181799.999  -4460997.1547   2682557.1760  -3674442.6524   6   8   0.0274   0.0264   0.0185  -0.0238  -0.0182   0.0206   0.00    0.0
2121 181829.999  -4460997.1551   2682557.1767  -3674442.6535   6   8   0.0273   0.0263   0.0184  -0.0237  -0.0181   0.0205   0.00    0.0
2121 181859.999  -4460997.1555   2682557.1768  -3674442.6538   6   8   0.0272   0.0262   0.0184  -0.0237  -0.0181   0.0205   0.00    0.0
2121 181889.999  -4460997.1559   2682557.1772  -3674442.6542   6   8   0.0272   0.0262   0.0184  -0.0237  -0.0180   0.0204   0.00    0.0
2121 181919.999  -4460997.1564   2682557.1778  -3674442.6546   6   8   0.0272   0.0262   0.0183  -0.0236  -0.0180   0.0204   0.00    0.0
2121 181949.999  -4460997.1567   2682557.1782  -3674442.6549   6   8   0.0272   0.0262   0.0183  -0.0236  -0.0180   0.0204   0.00    0.0
2121 181979.999  -4460997.1573   2682557.1790  -3674442.6553   6   8   0.0272   0.0262   0.0183  -0.0236  -0.0180   0.0204   0.00    0.0
2121 182009.999  -4460997.1572   2682557.1787  -3674442.6553   6   8   0.0271   0.0262   0.0183  -0.0236  -0.0180   0.0204   0.00    0.0
2121 182039.999  -4460997.1564   2682557.1776  -3674442.6546   6   8   0.0271   0.0261   0.0183  -0.0235  -0.0180   0.0204   0.00    0.0
2121 182069.999  -4460997.1559   2682557.1770  -3674442.6542   6   8   0.0270   0.0260   0.0182  -0.0234  -0.0179   0.0203   0.00    0.0
2121 182099.999  -4460997.1551   2682557.1781  -3674442.6538   6   8   0.0266   0.0257   0.0179  -0.0231  -0.0176   0.0200   0.00    0.0
2121 182129.999  -4460997.1560   2682557.1791  -3674442.6530   6   8   0.0265   0.0256   0.0178  -0.0230  -0.0175   0.0199   0.00    0.0
2121 182159.999  -4460997.1567   2682557.1799  -3674442.6533   6   8   0.0265   0.0255   0.0178  -0.0230  -0.0175   0.0199   0.00    0.0
2121 182189.999  -4460997.1571   2682557.1803  -3674442.6535   6   8   0.0265   0.0255   0.0178  -0.0230  -0.0175   0.0199   0.00    0.0
2121 182219.999  -4460997.1572   2682557.1806  -3674442.6536   6   8   0.0265   0.0255   0.0178  -0.0230  -0.0175   0.0199   0.00    0.0
2121 182249.999  -4460997.1572   2682557.1805  -3674442.6535   6   8   0.0264   0.0255   0.0178  -0.0230  -0.0175   0.0198   0.00    0.0
2121 182279.999  -4460997.1572   2682557.1810  -3674442.6534   6   8   0.0264   0.0255   0.0178  -0.0230  -0.0175   0.0198   0.00    0.0
2121 182309.999  -4460997.1570   2682557.1808  -3674442.6532   6   8   0.0264   0.0255   0.0177  -0.0229  -0.0175   0.0198   0.00    0.0
2121 182339.999  -4460997.1565   2682557.1805  -3674442.6529   6   8   0.0264   0.0254   0.0177  -0.0229  -0.0174   0.0198   0.00    0.0
2121 182369.999  -4460997.1549   2682557.1796  -3674442.6516   6   8   0.0263   0.0253   0.0176  -0.0228  -0.0174   0.0197   0.00    0.0
2121 182399.999  -4460997.1534   2682557.1801  -3674442.6506   6   8   0.0260   0.0251   0.0174  -0.0226  -0.0172   0.0195   0.00    0.0
2121 182429.999  -4460997.1512   2682557.1784  -3674442.6484   6   8   0.0259   0.0250   0.0173  -0.0225  -0.0171   0.0194   0.00    0.0
2121 182459.999  -4460997.1498   2682557.1772  -3674442.6471   6   8   0.0259   0.0250   0.0173  -0.0225  -0.0171   0.0194   0.00    0.0
2121 182489.999  -4460997.1492   2682557.1768  -3674442.6466   6   8   0.0259   0.0249   0.0173  -0.0225  -0.0171   0.0194   0.00    0.0
2121 182519.999  -4460997.1489   2682557.1765  -3674442.6464   6   8   0.0259   0.0249   0.0173  -0.0224  -0.0171   0.0194   0.00    0.0
2121 182549.999  -4460997.1485   2682557.1761  -3674442.6463   6   8   0.0259   0.0249   0.0173  -0.0224  -0.0171   0.0194   0.00    0.0
2121 182579.999  -4460997.1487   2682557.1765  -3674442.6464   6   8   0.0258   0.0249   0.0173  -0.0224  -0.0171   0.0194   0.00    0.0
2121 182609.999  -4460997.1487   2682557.1765  -3674442.6465   6   8   0.0258   0.0249   0.0173  -0.0224  -0.0171   0.0194   0.00    0.0
2121 182639.999  -4460997.1485   2682557.1763  -3674442.6467   6   8   0.0258   0.0249   0.0172  -0.0224  -0.0170   0.0193   0.00    0.0
2121 182669.999  -4460997.1488   2682557.1770  -3674442.6465   6   8   0.0257   0.0248   0.0172  -0.0223  -0.0170   0.0193   0.00    0.0
2121 182699.999  -4460997.1471   2682557.1774  -3674442.6460   6   8   0.0255   0.0245   0.0169  -0.0221  -0.0168   0.0191   0.00    0.0
2121 182729.999  -4460997.1462   2682557.1770  -3674442.6448   6   8   0.0254   0.0245   0.0169  -0.0221  -0.0168   0.0190   0.00    0.0
2121 182759.999  -4460997.1459   2682557.1768  -3674442.6444   6   8   0.0254   0.0244   0.0169  -0.0220  -0.0168   0.0190   0.00    0.0
2121 182789.999  -4460997.1455   2682557.1766  -3674442.6439   6   8   0.0254   0.0244   0.0169  -0.0220  -0.0167   0.0190   0.00    0.0
2121 182819.999  -4460997.1453   2682557.1766  -3674442.6435   6   8   0.0254   0.0244   0.0169  -0.0220  -0.0167   0.0190   0.00    0.0
2121 182849.999  -4460997.1452   2682557.1766  -3674442.6434   6   8   0.0254   0.0244   0.0168  -0.0220  -0.0167   0.0190   0.00    0.0
2121 182879.999  -4460997.1449   2682557.1764  -3674442.6432   6   8   0.0254   0.0244   0.0168  -0.0220  -0.0167   0.0190   0.00    0.0
2121 182909.999  -4460997.1445   2682557.1758  -3674442.6429   6   8   0.0254   0.0244   0.0168  -0.0220  -0.0167   0.0190   0.00    0.0
2121 182939.999  -4460997.1441   2682557.1750  -3674442.6428   6   8   0.0253   0.0244   0.0168  -0.0220  -0.0167   0.0190   0.00    0.0
2121 182969.999  -4460997.1445   2682557.1754  -3674442.6429   6   8   0.0253   0.0243   0.0167  -0.0219  -0.0167   0.0189   0.00    0.0
2121 182999.999  -4460997.1440   2682557.1759  -3674442.6436   6   8   0.0251   0.0240   0.0165  -0.0217  -0.0165   0.0187   0.00    0.0
2121 183029.999  -4460997.1436   2682557.1756  -3674442.6441   6   8   0.0250   0.0240   0.0165  -0.0217  -0.0165   0.0187   0.00    0.0
2121 183059.999  -4460997.1431   2682557.1746  -3674442.6443   6   8   0.0250   0.0239   0.0165  -0.0216  -0.0164   0.0187   0.00    0.0
2121 183089.999  -4460997.1429   2682557.1745  -3674442.6444   6   8   0.0250   0.0239   0.0165  -0.0216  -0.0164   0.0187   0.00    0.0
2121 183119.999  -4460997.1427   2682557.1741  -3674442.6445   6   8   0.0250   0.0239   0.0165  -0.0216  -0.0164   0.0187   0.00    0.0
2121 183149.999  -4460997.1427   2682557.1740  -3674442.6446   6   8   0.0249   0.0239   0.0164  -0.0216  -0.0164   0.0187   0.00    0.0
2121 183179.999  -4460997.1429   2682557.1739  -3674442.6449   6   8   0.0249   0.0239   0.0164  -0.0216  -0.0164   0.0186   0.00    0.0
2121 183209.999  -4460997.1433   2682557.1740  -3674442.6453   6   8   0.0249   0.0239   0.0164  -0.0216  -0.0164   0.0186   0.00    0.0
2121 183239.999  -4460997.1442   2682557.1744  -3674442.6462   6   8   0.0249   0.0239   0.0164  -0.0216  -0.0164   0.0186   0.00    0.0
2121 183269.999  -4460997.1450   2682557.1754  -3674442.6470   6   8   0.0248   0.0238   0.0163  -0.0215  -0.0163   0.0185   0.00    0.0
2121 183299.999  -4460997.1437   2682557.1760  -3674442.6470   6   8   0.0246   0.0235   0.0161  -0.0213  -0.0162   0.0184   0.00    0.0
2121 183329.999  -4460997.1432   2682557.1755  -3674442.6474   6   8   0.0245   0.0235   0.0161  -0.0212  -0.0161   0.0183   0.00    0.0
2121 183359.999  -4460997.1429   2682557.1754  -3674442.6477   6   8   0.0245   0.0234   0.0161  -0.0212  -0.0161   0.0183   0.00    0.0
2121 183389.999  -4460997.1432   2682557.1757  -3674442.6479   6   8   0.0245   0.0234   0.0160  -0.0212  -0.0161   0.0183   0.00    0.0
2121 183419.999  -4460997.1436   2682557.1761  -3674442.6482   6   7   0.0245   0.0234   0.0160  -0.0212  -0.0161   0.0183   0.00    0.0
2121 183449.999  -4460997.1439   2682557.1764  -3674442.6484   6   7   0.0244   0.0234   0.0160  -0.0212  -0.0161   0.0182   0.00    0.0
2121 183479.999  -4460997.1445   2682557.1770  -3674442.6488   6   7   0.0244   0.0234   0.0160  -0.0212  -0.0161   0.0182   0.00    0.0
2121 183509.999  -4460997.1454   2682557.1780  -3674442.6492   6   7   0.0244   0.0234   0.0160  -0.0212  -0.0161   0.0182   0.00    0.0
2121 183539.999  -4460997.1470   2682557.1800  -3674442.6498   6   7   0.0244   0.0233   0.0160  -0.0211  -0.0161   0.0182   0.00    0.0
2121 183569.999  -4460997.1507   2682557.1851  -3674442.6509   6   7   0.0243   0.0232   0.0159  -0.0210  -0.0160   0.0181   0.00    0.0
2121 183599.999  -4460997.1504   2682557.1858  -3674442.6513   6   7   0.0241   0.0230   0.0157  -0.0208  -0.0158   0.0179   0.00    0.0
2121 183629.999  -4460997.1494   2682557.1853  -3674442.6506   6   7   0.0240   0.0229   0.0156  -0.0207  -0.0157   0.0178   0.00    0.0
2121 183659.999  -4460997.1497   2682557.1858  -3674442.6505   6   6   0.0239   0.0229   0.0156  -0.0207  -0.0157   0.0178   0.00    0.0
2121 183689.999  -4460997.1499   2682557.1862  -3674442.6505   6   7   0.0239   0.0228   0.0156  -0.0207  -0.0157   0.0178   0.00    0.0
2121 183719.999  -4460997.1500   2682557.1863  -3674442.6504   6   7   0.0239   0.0228   0.0156  -0.0207  -0.0157   0.0178   0.00    0.0
2121 183749.999  -4460997.1500   2682557.1864  -3674442.6504   6   7   0.0239   0.0228   0.0156  -0.0207  -0.0157   0.0178   0.00    0.0
2121 183779.999  -4460997.1500   2682557.1865  -3674442.6504   6   7   0.0239   0.0228   0.0156  -0.0207  -0.0157   0.0178   0.00    0.0
2121 183809.999  -4460997.1501   2682557.1866  -3674442.6504   6   7   0.0239   0.0228   0.0156  -0.0207  -0.0157   0.0178   0.00    0.0
2121 183839.999  -4460997.1506   2682557.1871  -3674442.6509   6   7   0.0239   0.0228   0.0156  -0.0206  -0.0157   0.0178   0.00    0.0
2121 183869.999  -4460997.1512   2682557.1880  -3674442.6516   6   7   0.0238   0.0227   0.0155  -0.0205  -0.0156   0.0177   0.00    0.0
2121 183899.999  -4460997.1517   2682557.1894  -3674442.6524   6   7   0.0236   0.0224   0.0154  -0.0203  -0.0154   0.0176   0.00    0.0
2121 183929.999  -4460997.1517   2682557.1898  -3674442.6520   6   7   0.0235   0.0223   0.0154  -0.0202  -0.0154   0.0176   0.00    0.0
2121 183959.999  -4460997.1519   2682557.1902  -3674442.6520   6   7   0.0235   0.0223   0.0153  -0.0202  -0.0154   0.0175   0.00    0.0
2121 183989.999  -4460997.1522   2682557.1907  -3674442.6522   6   7   0.0235   0.0222   0.0153  -0.0202  -0.0154   0.0175   0.00    0.0
2121 184019.999  -4460997.1523   2682557.1910  -3674442.6523   6   7   0.0235   0.0222   0.0153  -0.0202  -0.0154   0.0175   0.00    0.0
2121 184049.999  -4460997.1525   2682557.1912  -3674442.6524   6   7   0.0235   0.0222   0.0153  -0.0202  -0.0154   0.0175   0.00    0.0
2121 184079.999  -4460997.1526   2682557.1914  -3674442.6526   6   7   0.0235   0.0222   0.0153  -0.0202  -0.0154   0.0175   0.00    0.0
2121 184109.999  -4460997.1528   2682557.1917  -3674442.6527   6   7   0.0235   0.0222   0.0153  -0.0202  -0.0154   0.0175   0.00    0.0
2121 184139.999  -4460997.1528   2682557.1918  -3674442.6526   6   7   0.0235   0.0222   0.0153  -0.0201  -0.0153   0.0175   0.00    0.0
2121 184169.999  -4460997.1524   2682557.1917  -3674442.6519   6   7   0.0234   0.0221   0.0153  -0.0201  -0.0153   0.0174   0.00    0.0
2121 184199.999  -4460997.1529   2682557.1923  -3674442.6525   6   7   0.0232   0.0217   0.0151  -0.0198  -0.0151   0.0173   0.00    0.0
2121 184229.999  -4460997.1525   2682557.1919  -3674442.6526   6   7   0.0231   0.0217   0.0151  -0.0197  -0.0150   0.0173   0.00    0.0
2121 184259.999  -4460997.1525   2682557.1922  -3674442.6527   6   7   0.0231   0.0216   0.0151  -0.0197  -0.0150   0.0172   0.00    0.0
2121 184289.999  -4460997.1527   2682557.1924  -3674442.6528   6   7   0.0231   0.0216   0.0151  -0.0197  -0.0150   0.0172   0.00    0.0
2121 184319.999  -4460997.1527   2682557.1925  -3674442.6529   6   7   0.0231   0.0216   0.0151  -0.0197  -0.0150   0.0172   0.00    0.0
2121 184349.999  -4460997.1528   2682557.1925  -3674442.6530   6   7   0.0231   0.0216   0.0151  -0.0197  -0.0150   0.0172   0.00    0.0
2121 184379.999  -4460997.1528   2682557.1926  -3674442.6531   6   7   0.0230   0.0216   0.0151  -0.0196  -0.0150   0.0172   0.00    0.0
2121 184409.999  -4460997.1530   2682557.1929  -3674442.6533   6   7   0.0230   0.0216   0.0151  -0.0196  -0.0150   0.0172   0.00    0.0
2121 184439.999  -4460997.1534   2682557.1936  -3674442.6536   6   7   0.0230   0.0215   0.0150  -0.0196  -0.0150   0.0172   0.00    0.0
2121 184469.999  -4460997.1533   2682557.1942  -3674442.6538   6   7   0.0229   0.0214   0.0150  -0.0195  -0.0149   0.0171   0.00    0.0
2121 184499.999  -4460997.1517   2682557.1932  -3674442.6533   6   7   0.0227   0.0211   0.0149  -0.0192  -0.0147   0.0170   0.00    0.0
2121 184529.999  -4460997.1517   2682557.1934  -3674442.6536   6   7   0.0226   0.0210   0.0148  -0.0191  -0.0147   0.0169   0.00    0.0
2121 184559.999  -4460997.1520   2682557.1941  -3674442.6539   6   7   0.0226   0.0209   0.0148  -0.0191  -0.0146   0.0169   0.00    0.0
2121 184589.999  -4460997.1522   2682557.1944  -3674442.6541   6   7   0.0226   0.0209   0.0148  -0.0191  -0.0146   0.0169   0.00    0.0
2121 184619.999  -4460997.1524   2682557.1947  -3674442.6543   6   7   0.0226   0.0209   0.0148  -0.0191  -0.0146   0.0169   0.00    0.0
2121 184649.999  -4460997.1526   2682557.1948  -3674442.6544   6   8   0.0226   0.0209   0.0148  -0.0191  -0.0146   0.0169   0.00    0.0
2121 184679.999  -4460997.1526   2682557.1948  -3674442.6544   6   8   0.0226   0.0209   0.0148  -0.0191  -0.0146   0.0169   0.00    0.0
2121 184709.999  -4460997.1525   2682557.1947  -3674442.6545   6   8   0.0226   0.0209   0.0148  -0.0191  -0.0146   0.0169   0.00    0.0
2121 184739.999  -4460997.1527   2682557.1947  -3674442.6549   6   9   0.0225   0.0208   0.0148  -0.0190  -0.0146   0.0169   0.00    0.0
2121 184769.999  -4460997.1528   2682557.1947  -3674442.6557   6   9   0.0225   0.0207   0.0147  -0.0189  -0.0145   0.0168   0.00    0.0
2121 184799.999  -4460997.1514   2682557.1940  -3674442.6551   6   9   0.0222   0.0204   0.0146  -0.0186  -0.0143   0.0167   0.00    0.0
2121 184829.999  -4460997.1512   2682557.1941  -3674442.6550   6   9   0.0221   0.0203   0.0146  -0.0185  -0.0143   0.0166   0.00    0.0
2121 184859.999  -4460997.1510   2682557.1941  -3674442.6549   6   9   0.0221   0.0202   0.0146  -0.0185  -0.0143   0.0166   0.00    0.0
2121 184889.999  -4460997.1509   2682557.1940  -3674442.6549   6   9   0.0221   0.0202   0.0145  -0.0185  -0.0142   0.0166   0.00    0.0
2121 184919.999  -4460997.1508   2682557.1939  -3674442.6548   6   9   0.0221   0.0202   0.0145  -0.0185  -0.0142   0.0166   0.00    0.0
2121 184949.999  -4460997.1506   2682557.1936  -3674442.6547   6   9   0.0221   0.0202   0.0145  -0.0185  -0.0142   0.0166   0.00    0.0
2121 184979.999  -4460997.1504   2682557.1936  -3674442.6547   6   9   0.0221   0.0202   0.0145  -0.0185  -0.0142   0.0166   0.00    0.0
2121 185009.999  -4460997.1504   2682557.1934  -3674442.6547   6   9   0.0221   0.0202   0.0145  -0.0185  -0.0142   0.0166   0.00    0.0
2121 185039.999  -4460997.1504   2682557.1932  -3674442.6546   6   9   0.0221   0.0201   0.0145  -0.0184  -0.0142   0.0166   0.00    0.0
2121 185069.999  -4460997.1494   2682557.1918  -3674442.6545   6   9   0.0220   0.0200   0.0145  -0.0183  -0.0141   0.0165   0.00    0.0
2121 185099.999  -4460997.1487   2682557.1918  -3674442.6545   6   9   0.0217   0.0196   0.0143  -0.0180  -0.0139   0.0163   0.00    0.0
2121 185129.999  -4460997.1491   2682557.1925  -3674442.6548   6   9   0.0217   0.0196   0.0143  -0.0179  -0.0139   0.0163   0.00    0.0
2121 185159.999  -4460997.1494   2682557.1930  -3674442.6551   6   9   0.0216   0.0195   0.0143  -0.0179  -0.0138   0.0163   0.00    0.0
2121 185189.999  -4460997.1495   2682557.1931  -3674442.6553   6   9   0.0216   0.0195   0.0143  -0.0179  -0.0138   0.0163   0.00    0.0
2121 185219.999  -4460997.1495   2682557.1931  -3674442.6554   6   9   0.0216   0.0195   0.0143  -0.0179  -0.0138   0.0163   0.00    0.0
2121 185249.999  -4460997.1495   2682557.1931  -3674442.6554   6   9   0.0216   0.0195   0.0143  -0.0179  -0.0138   0.0163   0.00    0.0
2121 185279.999  -4460997.1495   2682557.1930  -3674442.6555   6   9   0.0216   0.0195   0.0143  -0.0179  -0.0138   0.0163   0.00    0.0
2121 185309.999  -4460997.1494   2682557.1930  -3674442.6555   6   9   0.0216   0.0195   0.0143  -0.0178  -0.0138   0.0162   0.00    0.0
2121 185339.999  -4460997.1491   2682557.1929  -3674442.6554   6   9   0.0216   0.0194   0.0142  -0.0178  -0.0138   0.0162   0.00    0.0
2121 185369.999  -4460997.1490   2682557.1933  -3674442.6554   6   9   0.0215   0.0193   0.0142  -0.0177  -0.0137   0.0162   0.00    0.0
2121 185399.999  -4460997.1466   2682557.1910  -3674442.6541   6   9   0.0212   0.0189   0.0141  -0.0174  -0.0135   0.0160   0.00    0.0
2121 185429.999  -4460997.1464   2682557.1911  -3674442.6541   6   9   0.0212   0.0188   0.0140  -0.0173  -0.0135   0.0160   0.00    0.0
2121 185459.999  -4460997.1462   2682557.1911  -3674442.6540   6   9   0.0211   0.0188   0.0140  -0.0173  -0.0134   0.0159   0.00    0.0
2121 185489.999  -4460997.1463   2682557.1913  -3674442.6540   6   9   0.0211   0.0188   0.0140  -0.0173  -0.0134   0.0159   0.00    0.0
2121 185519.999  -4460997.1463   2682557.1913  -3674442.6540   6   9   0.0211   0.0188   0.0140  -0.0173  -0.0134   0.0159   0.00    0.0
2121 185549.999  -4460997.1463   2682557.1914  -3674442.6539   6   9   0.0211   0.0188   0.0140  -0.0173  -0.0134   0.0159   0.00    0.0
2121 185579.999  -4460997.1462   2682557.1915  -3674442.6538   6   9   0.0211   0.0188   0.0140  -0.0173  -0.0134   0.0159   0.00    0.0
2121 185609.999  -4460997.1462   2682557.1917  -3674442.6537   6   9   0.0211   0.0188   0.0140  -0.0172  -0.0134   0.0159   0.00    0.0
2121 185639.999  -4460997.1463   2682557.1922  -3674442.6537   6   9   0.0211   0.0187   0.0140  -0.0172  -0.0134   0.0159   0.00    0.0
2121 185669.999  -4460997.1469   2682557.1935  -3674442.6538   6   9   0.0210   0.0186   0.0139  -0.0171  -0.0133   0.0158   0.00    0.0
2121 185699.999  -4460997.1448   2682557.1914  -3674442.6532   6   9   0.0208   0.0182   0.0138  -0.0168  -0.0131   0.0157   0.00    0.0
2121 185729.999  -4460997.1437   2682557.1901  -3674442.6523   6   9   0.0207   0.0182   0.0137  -0.0167  -0.0130   0.0156   0.00    0.0
2121 185759.999  -4460997.1432   2682557.1894  -3674442.6520   6   9   0.0207   0.0181   0.0137  -0.0167  -0.0130   0.0156   0.00    0.0
2121 185789.999  -4460997.1434   2682557.1895  -3674442.6522   6   9   0.0207   0.0181   0.0137  -0.0167  -0.0130   0.0156   0.00    0.0
2121 185819.999  -4460997.1437   2682557.1896  -3674442.6523   6   9   0.0206   0.0181   0.0137  -0.0167  -0.0130   0.0156   0.00    0.0
2121 185849.999  -4460997.1438   2682557.1897  -3674442.6524   6   9   0.0206   0.0181   0.0137  -0.0167  -0.0130   0.0156   0.00    0.0
