%  GPST              x-ecef(m)      y-ecef(m)      z-ecef(m)   Q  ns   sdx(m)   sdy(m)   sdz(m)  sdxy(m)  sdyz(m)  sdzx(m) age(s)  ratio
2121 172800.000  -2994428.9597   4951309.0269   2674496.3673   6   8   1.7975   2.5902   2.1057  -1.7269   1.6657  -0.8383   0.00    0.0
2121 172830.000  -2994429.2202   4951308.8793   2674496.1227   6   8   1.2508   1.7923   1.4523  -1.1895   1.1458  -0.5810   0.00    0.0
2121 172860.000  -2994429.1775   4951308.9206   2674496.2819   6   8   1.0142   1.4486   1.1719  -0.9598   0.9242  -0.4723   0.00    0.0
2121 172890.000  -2994429.1116   4951308.6869   2674496.2284   6   8   0.8758   1.2483   1.0089  -0.8268   0.7966  -0.4107   0.00    0.0
2121 172920.000  -2994429.0709   4951308.7721   2674496.3641   6   8   0.7828   1.1142   0.9000  -0.7381   0.7121  -0.3705   0.00    0.0
2121 172950.000  -2994429.1136   4951308.6944   2674496.3491   6   8   0.7151   1.0168   0.8210  -0.6741   0.6513  -0.3421   0.00    0.0
2121 172980.000  -2994429.1985   4951308.7482   2674496.3580   6   8   0.6566   0.9317   0.7501  -0.6162   0.5963  -0.3171   0.00    0.0
2121 173010.000  -2994429.1699   4951308.7074   2674496.3929   6   8   0.6006   0.8497   0.6789  -0.5575   0.5415  -0.2940   0.00    0.0
2121 173040.000  -2994429.1912   4951308.7654   2674496.5048   6   8   0.5395   0.7619   0.5986  -0.4899   0.4829  -0.2738   0.00    0.0
2121 173070.000  -2994429.0732   4951308.7544   2674496.5477   6   8   0.4652   0.6624   0.5029  -0.4053   0.4233  -0.2616   0.00    0.0
2121 173100.000  -2994429.0282   4951308.7898   2674496.6832   6   8   0.3947   0.5767   0.4178  -0.3285   0.3840  -0.2576   0.00    0.0
2121 173130.000  -2994429.0216   4951308.7143   2674496.6646   6   8   0.3764   0.5546   0.4005  -0.3162   0.3725  -0.2519   0.00    0.0
2121 173160.000  -2994429.0122   4951308.6786   2674496.6485   6   8   0.3657   0.5415   0.3918  -0.3117   0.3664  -0.2482   0.00    0.0
2121 173190.000  -2994428.9976   4951308.6662   2674496.6156   6   8   0.3575   0.5312   0.3854  -0.3090   0.3616  -0.2450   0.00    0.0
2121 173220.000  -2994429.0099   4951308.6668   2674496.5909   6   8   0.3505   0.5223   0.3800  -0.3068   0.3576  -0.2423   0.00    0.0
2121 173250.000  -2994429.0130   4951308.6503   2674496.5716   6   8   0.3443   0.5142   0.3754  -0.3049   0.3539  -0.2397   0.00    0.0
2121 173280.000  -2994429.0244   4951308.6570   2674496.5784   6   8   0.3375   0.5058   0.3699  -0.3018   0.3500  -0.2372   0.00    0.0
2121 173310.000  -2994429.0118   4951308.6952   2674496.6000   6   8   0.3292   0.4961   0.3629  -0.2968   0.3454  -0.2346   0.00    0.0
2121 173340.000  -2994428.9868   4951308.7318   2674496.6273   6   8   0.3170   0.4832   0.3520  -0.2877   0.3391  -0.2314   0.00    0.0
2121 173370.000  -2994428.9269   4951308.7245   2674496.6859   6   8   0.2947   0.4618   0.3309  -0.2685   0.3282  -0.2253   0.00    0.0
2121 173400.000  -2994428.8198   4951308.7102   2674496.6219   6   8   0.2605   0.4280   0.2937  -0.2371   0.3081  -0.2107   0.00    0.0
2121 173430.000  -2994428.7701   4951308.6999   2674496.5910   6   8   0.2508   0.4178   0.2857  -0.2301   0.3018  -0.2058   0.00    0.0
2121 173460.000  -2994428.7591   4951308.6719   2674496.5833   6   8   0.2463   0.4121   0.2822  -0.2276   0.2985  -0.2034   0.00    0.0
2121 173490.000  -2994428.7514   4951308.6466   2674496.5716   6   8   0.2431   0.4077   0.2798  -0.2263   0.2961  -0.2017   0.00    0.0
2121 173520.000  -2994428.7483   4951308.6152   2674496.5630   6   8   0.2406   0.4038   0.2778  -0.2254   0.2941  -0.2004   0.00    0.0
2121 173550.000  -2994428.7375   4951308.6003   2674496.5558   6   8   0.2384   0.4004   0.2762  -0.2247   0.2922  -0.1992   0.00    0.0
2121 173580.000  -2994428.7366   4951308.5868   2674496.5588   6   8   0.2358   0.3966   0.2740  -0.2234   0.2901  -0.1977   0.00    0.0
2121 173610.000  -2994428.7220   4951308.5781   2674496.5594   6   8   0.2320   0.3918   0.2709  -0.2210   0.2872  -0.1955   0.00    0.0
2121 173640.000  -2994428.7011   4951308.5776   2674496.5685   6   8   0.2257   0.3846   0.2654  -0.2157   0.2823  -0.1914   0.00    0.0
2121 173670.000  -2994428.6660   4951308.5746   2674496.5655   6   8   0.2119   0.3701   0.2519  -0.2025   0.2711  -0.1816   0.00    0.0
2121 173700.000  -2994428.6453   4951308.5980   2674496.5483   6   8   0.1861   0.3410   0.2219  -0.1756   0.2469  -0.1604   0.00    0.0
2121 173730.000  -2994428.6443   4951308.6273   2674496.5554   6   8   0.1787   0.3321   0.2150  -0.1686   0.2402  -0.1547   0.00    0.0
2121 173760.000  -2994428.6361   4951308.6426   2674496.5526   6   8   0.1756   0.3277   0.2122  -0.1660   0.2371  -0.1524   0.00    0.0
2121 173790.000  -2994428.6323   4951308.6385   2674496.5463   6   8   0.1738   0.3246   0.2105  -0.1647   0.2352  -0.1511   0.00    0.0
2121 173820.000  -2994428.6215   4951308.6407   2674496.5416   6   8   0.1724   0.3220   0.2092  -0.1639   0.2336  -0.1501   0.00    0.0
2121 173850.000  -2994428.6177   4951308.6528   2674496.5419   6   8   0.1713   0.3198   0.2082  -0.1634   0.2323  -0.1494   0.00    0.0
2121 173880.000  -2994428.6092   4951308.6445   2674496.5340   6   8   0.1698   0.3171   0.2068  -0.1623   0.2306  -0.1483   0.00    0.0
2121 173910.000  -2994428.6029   4951308.6439   2674496.5303   6   8   0.1674   0.3135   0.2044  -0.1601   0.2280  -0.1463   0.00    0.0
2121 173940.000  -2994428.5998   4951308.6368   2674496.5293   6   8   0.1630   0.3076   0.2000  -0.1554   0.2233  -0.1424   0.00    0.0
2121 173970.000  -2994428.5954   4951308.6445   2674496.5421   6   8   0.1529   0.2951   0.1892  -0.1440   0.2127  -0.1332   0.00    0.0
2121 174000.000  -2994428.6061   4951308.6931   2674496.5515   6   8   0.1333   0.2701   0.1652  -0.1213   0.1910  -0.1141   0.00    0.0
2121 174030.000  -2994428.6082   4951308.7225   2674496.5518   6   8   0.1281   0.2628   0.1597  -0.1153   0.1852  -0.1093   0.00    0.0
2121 174060.000  -2994428.6163   4951308.7302   2674496.5568   6   8   0.1260   0.2594   0.1576  -0.1132   0.1827  -0.1075   0.00    0.0
2121 174090.000  -2994428.6235   4951308.7252   2674496.5575   6   8   0.1248   0.2572   0.1564  -0.1121   0.1812  -0.1065   0.00    0.0
2121 174120.000  -2994428.6251   4951308.7169   2674496.5537   6   8   0.1240   0.2554   0.1555  -0.1115   0.1800  -0.1059   0.00    0.0
2121 174150.000  -2994428.6263   4951308.7017   2674496.5483   6   8   0.1234   0.2539   0.1548  -0.1111   0.1791  -0.1054   0.00    0.0
2121 174180.000  -2994428.6304   4951308.6925   2674496.5461   6   8   0.1225   0.2520   0.1538  -0.1103   0.1778  -0.1046   0.00    0.0
2121 174210.000  -2994428.6370   4951308.6870   2674496.5460   6   7   0.1212   0.2498   0.1524  -0.1091   0.1762  -0.1035   0.00    0.0
2121 174240.000  -2994428.6418   4951308.7010   2674496.5544   6   7   0.1188   0.2461   0.1496  -0.1065   0.1733  -0.1012   0.00    0.0
2121 174270.000  -2994428.6408   4951308.7338   2674496.5815   6   7   0.1129   0.2382   0.1427  -0.0997   0.1664  -0.0955   0.00    0.0
2121 174300.000  -2994428.6510   4951308.7867   2674496.6050   6   7   0.1008   0.2210   0.1266  -0.0852   0.1515  -0.0829   0.00    0.0
2121 174330.000  -2994428.6726   4951308.7989   2674496.6205   6   7   0.0974   0.2159   0.1228  -0.0812   0.1474  -0.0796   0.00    0.0
2121 174360.000  -2994428.6759   4951308.8036   2674496.6243   6   6   0.0965   0.2142   0.1217  -0.0805   0.1462  -0.0789   0.00    0.0
2121 174390.000  -2994428.6756   4951308.8009   2674496.6248   6   6   0.0960   0.2131   0.1211  -0.0802   0.1455  -0.0785   0.00    0.0
2121 174420.000  -2994428.6748   4951308.7975   2674496.6241   6   6   0.0956   0.2121   0.1207  -0.0801   0.1450  -0.0783   0.00    0.0
2121 174450.000  -2994428.6738   4951308.7984   2674496.6250   6   6   0.0954   0.2114   0.1204  -0.0801   0.1445  -0.0782   0.00    0.0
2121 174480.000  -2994428.6739   4951308.7933   2674496.6236   6   6   0.0950   0.2104   0.1199  -0.0800   0.1439  -0.0780   0.00    0.0
2121 174510.000  -2994428.6755   4951308.7917   2674496.6228   6   6   0.0944   0.2092   0.1192  -0.0796   0.1431  -0.0775   0.00    0.0
2121 174540.000  -2994428.6768   4951308.7902   2674496.6216   6   6   0.0932   0.2073   0.1178  -0.0786   0.1416  -0.0766   0.00    0.0
2121 174570.000  -2994428.6813   4951308.8012   2674496.6267   6   6   0.0902   0.2028   0.1140  -0.0756   0.1380  -0.0738   0.00    0.0
2121 174600.000  -2994428.6790   4951308.8518   2674496.6359   6   6   0.0830   0.1916   0.1039  -0.0679   0.1286  -0.0665   0.00    0.0
2121 174630.000  -2994428.6829   4951308.8633   2674496.6426   6   6   0.0812   0.1886   0.1017  -0.0663   0.1263  -0.0650   0.00    0.0
2121 174660.000  -2994428.6798   4951308.8695   2674496.6435   6   6   0.0806   0.1873   0.1009  -0.0658   0.1254  -0.0645   0.00    0.0
2121 174690.000  -2994428.6783   4951308.8710   2674496.6434   6   6   0.0803   0.1864   0.1005  -0.0656   0.1249  -0.0643   0.00    0.0
2121 174720.000  -2994428.6765   4951308.8734   2674496.6431   6   6   0.0801   0.1858   0.1002  -0.0656   0.1245  -0.0641   0.00    0.0
2121 174750.000  -2994428.6745   4951308.8790   2674496.6446   6   6   0.0799   0.1852   0.1000  -0.0656   0.1242  -0.0641   0.00    0.0
2121 174780.000  -2994428.6728   4951308.8785   2674496.6439   6   6   0.0796   0.1846   0.0996  -0.0655   0.1238  -0.0639   0.00    0.0
2121 174810.000  -2994428.6700   4951308.8806   2674496.6453   6   6   0.0792   0.1837   0.0991  -0.0653   0.1232  -0.0636   0.00    0.0
2121 174840.000  -2994428.6685   4951308.8844   2674496.6498   6   6   0.0785   0.1822   0.0982  -0.0646   0.1221  -0.0629   0.00    0.0
2121 174870.000  -2994428.6705   4951308.8988   2674496.6581   6   6   0.0764   0.1789   0.0955  -0.0625   0.1194  -0.0610   0.00    0.0
2121 174900.000  -2994428.6694   4951308.9368   2674496.6673   6   6   0.0709   0.1697   0.0878  -0.0565   0.1119  -0.0554   0.00    0.0
2121 174930.000  -2994428.6724   4951308.9435   2674496.6717   6   6   0.0696   0.1673   0.0862  -0.0552   0.1101  -0.0542   0.00    0.0
2121 174960.000  -2994428.6742   4951308.9472   2674496.6729   6   6   0.0692   0.1663   0.0856  -0.0548   0.1094  -0.0538   0.00    0.0
2121 174990.000  -2994428.6744   4951308.9483   2674496.6726   6   6   0.0689   0.1656   0.0852  -0.0547   0.1090  -0.0536   0.00    0.0
2121 175020.000  -2994428.6742   4951308.9469   2674496.6712   6   6   0.0688   0.1651   0.0850  -0.0546   0.1087  -0.0535   0.00    0.0
2121 175050.000  -2994428.6732   4951308.9534   2674496.6729   6   6   0.0687   0.1647   0.0848  -0.0546   0.1084  -0.0535   0.00    0.0
2121 175080.000  -2994428.6733   4951308.9549   2674496.6733   6   6   0.0685   0.1642   0.0846  -0.0545   0.1081  -0.0533   0.00    0.0
2121 175110.000  -2994428.6733   4951308.9546   2674496.6734   6   6   0.0682   0.1635   0.0842  -0.0543   0.1076  -0.0531   0.00    0.0
2121 175140.000  -2994428.6725   4951308.9525   2674496.6740   6   6   0.0676   0.1623   0.0834  -0.0537   0.1067  -0.0526   0.00    0.0
2121 175170.000  -2994428.6709   4951308.9524   2674496.6712   6   6   0.0661   0.1594   0.0812  -0.0519   0.1044  -0.0509   0.00    0.0
2121 175200.000  -2994428.6723   4951308.9574   2674496.6695   6   6   0.0618   0.1516   0.0750  -0.0465   0.0981  -0.0462   0.00    0.0
2121 175230.000  -2994428.6680   4951308.9575   2674496.6687   6   6   0.0608   0.1494   0.0736  -0.0452   0.0965  -0.0451   0.00    0.0
2121 175260.000  -2994428.6645   4951308.9571   2674496.6682   6   6   0.0604   0.1485   0.0730  -0.0448   0.0958  -0.0448   0.00    0.0
2121 175290.000  -2994428.6632   4951308.9556   2674496.6679   6   6   0.0602   0.1480   0.0727  -0.0446   0.0954  -0.0446   0.00    0.0
2121 175320.000  -2994428.6616   4951308.9554   2674496.6670   6   6   0.0601   0.1475   0.0726  -0.0446   0.0952  -0.0445   0.00    0.0
2121 175350.000  -2994428.6607   4951308.9519   2674496.6651   6   6   0.0600   0.1472   0.0724  -0.0446   0.0950  -0.0445   0.00    0.0
2121 175380.000  -2994428.6591   4951308.9476   2674496.6623   6   6   0.0599   0.1468   0.0722  -0.0445   0.0947  -0.0443   0.00    0.0
2121 175410.000  -2994428.6565   4951308.9443   2674496.6592   6   6   0.0596   0.1461   0.0718  -0.0442   0.0942  -0.0441   0.00    0.0
2121 175440.000  -2994428.6517   4951308.9377   2674496.6540   6   6   0.0592   0.1450   0.0711  -0.0435   0.0934  -0.0436   0.00    0.0
2121 175470.000  -2994428.6438   4951308.9307   2674496.6470   6   6   0.0579   0.1424   0.0693  -0.0416   0.0913  -0.0421   0.00    0.0
2121 175500.000  -2994428.6507   4951308.9384   2674496.6507   6   6   0.0543   0.1356   0.0642  -0.0363   0.0859  -0.0379   0.00    0.0
2121 175530.000  -2994428.6443   4951308.9580   2674496.6546   6   6   0.0534   0.1336   0.0629  -0.0348   0.0844  -0.0369   0.00    0.0
2121 175560.000  -2994428.6409   4951308.9623   2674496.6536   6   6   0.0531   0.1328   0.0625  -0.0343   0.0838  -0.0365   0.00    0.0
2121 175590.000  -2994428.6419   4951308.9623   2674496.6536   6   6   0.0530   0.1323   0.0622  -0.0341   0.0835  -0.0363   0.00    0.0
2121 175620.000  -2994428.6427   4951308.9659   2674496.6551   6   6   0.0528   0.1319   0.0620  -0.0340   0.0832  -0.0362   0.00    0.0
2121 175650.000  -2994428.6432   4951308.9673   2674496.6558   6   6   0.0528   0.1316   0.0619  -0.0339   0.0830  -0.0362   0.00    0.0
2121 175680.000  -2994428.6439   4951308.9687   2674496.6565   6   6   0.0526   0.1312   0.0617  -0.0338   0.0828  -0.0360   0.00    0.0
2121 175710.000  -2994428.6439   4951308.9727   2674496.6574   6   6   0.0524   0.1306   0.0614  -0.0334   0.0823  -0.0358   0.00    0.0
2121 175740.000  -2994428.6419   4951308.9755   2674496.6562   6   6   0.0520   0.1295   0.0607  -0.0326   0.0815  -0.0353   0.00    0.0
2121 175770.000  -2994428.6360   4951308.9781   2674496.6530   6   6   0.0509   0.1270   0.0591  -0.0301   0.0795  -0.0338   0.00    0.0
2121 175800.000  -2994428.6296   4951308.9849   2674496.6516   6   6   0.0478   0.1211   0.0549  -0.0242   0.0750  -0.0299   0.00    0.0
2121 175830.000  -2994428.6292   4951308.9756   2674496.6449   6   6   0.0471   0.1192   0.0538  -0.0221   0.0736  -0.0288   0.00    0.0
2121 175860.000  -2994428.6294   4951308.9677   2674496.6403   6   6   0.0468   0.1184   0.0533  -0.0214   0.0730  -0.0284   0.00    0.0
2121 175890.000  -2994428.6298   4951308.9622   2674496.6376   6   6   0.0466   0.1180   0.0531  -0.0210   0.0727  -0.0283   0.00    0.0
2121 175920.000  -2994428.6301   4951308.9579   2674496.6357   6   6   0.0465   0.1176   0.0530  -0.0208   0.0725  -0.0281   0.00    0.0
2121 175950.000  -2994428.6306   4951308.9584   2674496.6357   6   5   0.0465   0.1175   0.0529  -0.0208   0.0724  -0.0281   0.00    0.0
2121 175980.000  -2994428.6308   4951308.9599   2674496.6361   6   5   0.0464   0.1172   0.0528  -0.0208   0.0722  -0.0280   0.00    0.0
2121 176010.000  -2994428.6307   4951308.9607   2674496.6363   6   5   0.0463   0.1170   0.0526  -0.0206   0.0720  -0.0279   0.00    0.0
2121 176040.000  -2994428.6332   4951308.9600   2674496.6378   6   5   0.0460   0.1165   0.0523  -0.0201   0.0717  -0.0276   0.00    0.0
2121 176070.000  -2994428.6400   4951308.9613   2674496.6398   6   5   0.0452   0.1153   0.0515  -0.0185   0.0708  -0.0267   0.00    0.0
2121 176100.000  -2994428.6556   4951308.9653   2674496.6484   6   5   0.0430   0.1120   0.0489  -0.0137   0.0682  -0.0241   0.00    0.0
2121 176130.000  -2994428.6576   4951308.9681   2674496.6506   6   5   0.0425   0.1111   0.0483  -0.0123   0.0676  -0.0235   0.00    0.0
2121 176160.000  -2994428.6575   4951308.9685   2674496.6504   6   5   0.0423   0.1107   0.0481  -0.0118   0.0673  -0.0233   0.00    0.0
2121 176190.000  -2994428.6584   4951308.9684   2674496.6506   6   5   0.0422   0.1105   0.0480  -0.0117   0.0672  -0.0232   0.00    0.0
2121 176220.000  -2994428.6595   4951308.9676   2674496.6506   6   6   0.0421   0.1103   0.0479  -0.0116   0.0671  -0.0232   0.00    0.0
2121 176250.000  -2994428.6600   4951308.9664   2674496.6501   6   6   0.0421   0.1102   0.0479  -0.0117   0.0670  -0.0232   0.00    0.0
2121 176280.000  -2994428.6606   4951308.9658   2674496.6497   6   6   0.0420   0.1100   0.0478  -0.0116   0.0669  -0.0231   0.00    0.0
2121 176310.000  -2994428.6617   4951308.9658   2674496.6502   6   6   0.0419   0.1098   0.0477  -0.0114   0.0667  -0.0230   0.00    0.0
2121 176340.000  -2994428.6636   4951308.9682   2674496.6518   6   6   0.0417   0.1094   0.0474  -0.0108   0.0664  -0.0228   0.00    0.0
2121 176370.000  -2994428.6670   4951308.9752   2674496.6543   6   6   0.0411   0.1085   0.0467  -0.0087   0.0658  -0.0221   0.00    0.0
2121 176400.000  -2994428.6712   4951308.9923   2674496.6616   6   6   0.0394   0.1060   0.0447   0.0055   0.0638  -0.0198   0.00    0.0
2121 176430.000  -2994428.6744   4951309.0000   2674496.6662   6   6   0.0389   0.1053   0.0443   0.0075   0.0633  -0.0193   0.00    0.0
2121 176460.000  -2994428.6757   4951309.0026   2674496.6679   6   6   0.0388   0.1050   0.0441   0.0079   0.0631  -0.0192   0.00    0.0
2121 176490.000  -2994428.6762   4951309.0026   2674496.6684   6   6   0.0387   0.1048   0.0440   0.0080   0.0630  -0.0191   0.00    0.0
2121 176520.000  -2994428.6763   4951309.0019   2674496.6682   6   6   0.0387   0.1047   0.0439   0.0080   0.0629  -0.0191   0.00    0.0
2121 176550.000  -2994428.6765   4951309.0013   2674496.6680   6   6   0.0386   0.1045   0.0439   0.0080   0.0628  -0.0190   0.00    0.0
2121 176580.000  -2994428.6770   4951309.0007   2674496.6679   6   6   0.0386   0.1044   0.0438   0.0080   0.0627  -0.0190   0.00    0.0
2121 176610.000  -2994428.6791   4951309.0007   2674496.6687   6   6   0.0385   0.1042   0.0437   0.0082   0.0626  -0.0189   0.00    0.0
2121 176640.000  -2994428.6820   4951309.0013   2674496.6702   6   6   0.0383   0.1039   0.0435   0.0088   0.0624  -0.0187   0.00    0.0
2121 176670.000  -2994428.6856   4951309.0050   2674496.6722   6   6   0.0379   0.1032   0.0430   0.0103   0.0618  -0.0181   0.00    0.0
2121 176700.000  -2994428.6905   4951309.0177   2674496.6768   6   6   0.0365   0.1013   0.0414   0.0137   0.0603  -0.0161   0.00    0.0
2121 176730.000  -2994428.6896   4951309.0200   2674496.6774   6   7   0.0362   0.1007   0.0410   0.0143   0.0599  -0.0157   0.00    0.0
2121 176760.000  -2994428.6884   4951309.0209   2674496.6769   6   7   0.0360   0.1005   0.0409   0.0145   0.0597  -0.0155   0.00    0.0
2121 176790.000  -2994428.6876   4951309.0196   2674496.6760   6   7   0.0360   0.1003   0.0408   0.0145   0.0596  -0.0155   0.00    0.0
2121 176820.000  -2994428.6872   4951309.0184   2674496.6753   6   7   0.0359   0.1002   0.0408   0.0144   0.0595  -0.0155   0.00    0.0
2121 176850.000  -2994428.6872   4951309.0168   2674496.6747   6   7   0.0359   0.1000   0.0407   0.0144   0.0594  -0.0155   0.00    0.0
2121 176880.000  -2994428.6869   4951309.0178   2674496.6747   6   7   0.0358   0.0999   0.0407   0.0144   0.0593  -0.0155   0.00    0.0
2121 176910.000  -2994428.6872   4951309.0186   2674496.6746   6   8   0.0358   0.0997   0.0406   0.0144   0.0592  -0.0154   0.00    0.0
2121 176940.000  -2994428.6878   4951309.0196   2674496.6738   6   8   0.0356   0.0995   0.0404   0.0146   0.0590  -0.0152   0.00    0.0
2121 176970.000  -2994428.6876   4951309.0234   2674496.6744   6   8   0.0353   0.0989   0.0400   0.0153   0.0586  -0.0147   0.00    0.0
2121 177000.000  -2994428.6908   4951309.0365   2674496.6796   6   8   0.0342   0.0976   0.0388   0.0172   0.0575  -0.0128   0.00    0.0
2121 177030.000  -2994428.6909   4951309.0369   2674496.6804   6   8   0.0339   0.0971   0.0385   0.0175   0.0572  -0.0124   0.00    0.0
2121 177060.000  -2994428.6912   4951309.0342   2674496.6794   6   8   0.0338   0.0969   0.0383   0.0176   0.0570  -0.0123   0.00    0.0
2121 177090.000  -2994428.6917   4951309.0325   2674496.6789   6   8   0.0337   0.0968   0.0383   0.0176   0.0569  -0.0122   0.00    0.0
2121 177120.000  -2994428.6921   4951309.0301   2674496.6780   6   8   0.0337   0.0967   0.0382   0.0176   0.0569  -0.0122   0.00    0.0
2121 177150.000  -2994428.6926   4951309.0279   2674496.6773   6   8   0.0337   0.0965   0.0382   0.0175   0.0568  -0.0122   0.00    0.0
2121 177180.000  -2994428.6927   4951309.0278   2674496.6773   6   8   0.0336   0.0964   0.0381   0.0175   0.0567  -0.0122   0.00    0.0
2121 177210.000  -2994428.6931   4951309.0278   2674496.6776   6   8   0.0336   0.0963   0.0381   0.0175   0.0566  -0.0122   0.00    0.0
2121 177240.000  -2994428.6939   4951309.0284   2674496.6781   6   8   0.0335   0.0961   0.0379   0.0176   0.0565  -0.0120   0.00    0.0
2121 177270.000  -2994428.6955   4951309.0347   2674496.6800   6   8   0.0331   0.0957   0.0376   0.0181   0.0562  -0.0114   0.00    0.0
2121 177300.000  -2994428.7009   4951309.0525   2674496.6865   6   8   0.0322   0.0947   0.0366   0.0194   0.0553  -0.0096   0.00    0.0
2121 177330.000  -2994428.7038   4951309.0580   2674496.6908   6   8   0.0320   0.0944   0.0363   0.0197   0.0551  -0.0091   0.00    0.0
2121 177360.000  -2994428.7042   4951309.0576   2674496.6913   6   8   0.0319   0.0942   0.0363   0.0197   0.0549  -0.0090   0.00    0.0
2121 177390.000  -2994428.7047   4951309.0563   2674496.6910   6   8   0.0319   0.0941   0.0362   0.0197   0.0549  -0.0089   0.00    0.0
2121 177420.000  -2994428.7041   4951309.0572   2674496.6913   6   8   0.0318   0.0940   0.0361   0.0197   0.0548  -0.0089   0.00    0.0
2121 177450.000  -2994428.7043   4951309.0546   2674496.6904   6   8   0.0318   0.0939   0.0361   0.0196   0.0547  -0.0090   0.00    0.0
2121 177480.000  -2994428.7041   4951309.0558   2674496.6910   6   8   0.0318   0.0938   0.0361   0.0196   0.0547  -0.0089   0.00    0.0
2121 177510.000  -2994428.7047   4951309.0556   2674496.6913   6   8   0.0317   0.0937   0.0360   0.0196   0.0546  -0.0089   0.00    0.0
2121 177540.000  -2994428.7062   4951309.0580   2674496.6928   6   8   0.0316   0.0935   0.0359   0.0197   0.0545  -0.0087   0.00    0.0
2121 177570.000  -2994428.7091   4951309.0636   2674496.6958   6   8   0.0313   0.0932   0.0356   0.0200   0.0542  -0.0081   0.00    0.0
2121 177600.000  -2994428.7108   4951309.0711   2674496.6978   6   8   0.0306   0.0926   0.0349   0.0211   0.0536  -0.0058   0.00    0.0
2121 177630.000  -2994428.7087   4951309.0730   2674496.6974   6   8   0.0304   0.0923   0.0347   0.0213   0.0534  -0.0052   0.00    0.0
2121 177660.000  -2994428.7092   4951309.0733   2674496.6975   6   8   0.0303   0.0922   0.0346   0.0213   0.0533  -0.0051   0.00    0.0
2121 177690.000  -2994428.7097   4951309.0749   2674496.6982   6   8   0.0302   0.0921   0.0345   0.0213   0.0532  -0.0050   0.00    0.0
2121 177720.000  -2994428.7101   4951309.0759   2674496.6985   6   8   0.0302   0.0920   0.0345   0.0213   0.0532  -0.0050   0.00    0.0
2121 177750.000  -2994428.7106   4951309.0764   2674496.6985   6   8   0.0302   0.0919   0.0345   0.0212   0.0531  -0.0050   0.00    0.0
2121 177780.000  -2994428.7111   4951309.0765   2674496.6985   6   8   0.0301   0.0918   0.0344   0.0212   0.0530  -0.0050   0.00    0.0
2121 177810.000  -2994428.7119   4951309.0780   2674496.6991   6   8   0.0301   0.0917   0.0344   0.0212   0.0530  -0.0050   0.00    0.0
2121 177840.000  -2994428.7135   4951309.0784   2674496.6996   6   8   0.0300   0.0915   0.0343   0.0213   0.0529  -0.0047   0.00    0.0
2121 177870.000  -2994428.7169   4951309.0804   2674496.7011   6   8   0.0297   0.0913   0.0340   0.0215   0.0527  -0.0038   0.00    0.0
2121 177900.000  -2994428.7191   4951309.0818   2674496.7018   6   8   0.0290   0.0907   0.0334   0.0225   0.0521   0.0036   0.00    0.0
2121 177930.000  -2994428.7206   4951309.0815   2674496.7021   6   8   0.0288   0.0905   0.0332   0.0226   0.0519   0.0043   0.00    0.0
2121 177960.000  -2994428.7205   4951309.0807   2674496.7018   6   8   0.0287   0.0904   0.0331   0.0227   0.0518   0.0045   0.00    0.0
2121 177990.000  -2994428.7205   4951309.0812   2674496.7021   6   8   0.0287   0.0903   0.0331   0.0226   0.0518   0.0045   0.00    0.0
2121 178020.000  -2994428.7212   4951309.0784   2674496.7013   6   8   0.0287   0.0902   0.0330   0.0226   0.0517   0.0045   0.00    0.0
2121 178050.000  -2994428.7214   4951309.0780   2674496.7012   6   8   0.0286   0.0901   0.0330   0.0226   0.0517   0.0045   0.00    0.0
2121 178080.000  -2994428.7221   4951309.0777   2674496.7012   6   8   0.0286   0.0900   0.0330   0.0225   0.0516   0.0045   0.00    0.0
2121 178110.000  -2994428.7231   4951309.0805   2674496.7022   6   8   0.0285   0.0899   0.0329   0.0225   0.0515   0.0045   0.00    0.0
2121 178140.000  -2994428.7245   4951309.0842   2674496.7039   6   8   0.0284   0.0898   0.0328   0.0226   0.0514   0.0047   0.00    0.0
2121 178170.000  -2994428.7275   4951309.0876   2674496.7058   6   8   0.0282   0.0895   0.0326   0.0228   0.0512   0.0054   0.00    0.0
2121 178200.000  -2994428.7272   4951309.0803   2674496.7027   6   8   0.0276   0.0889   0.0320   0.0236   0.0506   0.0073   0.00    0.0
2121 178230.000  -2994428.7251   4951309.0724   2674496.6987   6   8   0.0274   0.0886   0.0318   0.0238   0.0504   0.0076   0.00    0.0
2121 178260.000  -2994428.7247   4951309.0705   2674496.6976   6   8   0.0273   0.0885   0.0317   0.0238   0.0503   0.0077   0.00    0.0
2121 178290.000  -2994428.7243   4951309.0702   2674496.6972   6   8   0.0273   0.0884   0.0317   0.0238   0.0503   0.0077   0.00    0.0
2121 178320.000  -2994428.7241   4951309.0702   2674496.6971   6   8   0.0272   0.0883   0.0316   0.0237   0.0502   0.0077   0.00    0.0
2121 178350.000  -2994428.7237   4951309.0715   2674496.6974   6   8   0.0272   0.0882   0.0316   0.0237   0.0502   0.0076   0.00    0.0
2121 178380.000  -2994428.7235   4951309.0722   2674496.6976   6   8   0.0272   0.0881   0.0316   0.0237   0.0501   0.0076   0.00    0.0
2121 178410.000  -2994428.7233   4951309.0752   2674496.6984   6   8   0.0271   0.0880   0.0315   0.0236   0.0500   0.0076   0.00    0.0
2121 178440.000  -2994428.7235   4951309.0752   2674496.6982   6   8   0.0270   0.0878   0.0314   0.0237   0.0499   0.0077   0.00    0.0
2121 178470.000  -2994428.7241   4951309.0728   2674496.6970   6   8   0.0268   0.0875   0.0312   0.0238   0.0496   0.0081   0.00    0.0
2121 178500.000  -2994428.7245   4951309.0718   2674496.6975   6   8   0.0262   0.0865   0.0305   0.0245   0.0489   0.0092   0.00    0.0
2121 178530.000  -2994428.7244   4951309.0708   2674496.6977   6   8   0.0260   0.0862   0.0303   0.0247   0.0486   0.0094   0.00    0.0
2121 178560.000  -2994428.7254   4951309.0708   2674496.6982   6   8   0.0260   0.0860   0.0302   0.0247   0.0485   0.0095   0.00    0.0
2121 178590.000  -2994428.7258   4951309.0693   2674496.6978   6   8   0.0259   0.0859   0.0302   0.0246   0.0485   0.0095   0.00    0.0
2121 178620.000  -2994428.7261   4951309.0682   2674496.6974   6   8   0.0259   0.0858   0.0301   0.0246   0.0484   0.0094   0.00    0.0
2121 178650.000  -2994428.7262   4951309.0670   2674496.6969   6   8   0.0259   0.0857   0.0301   0.0246   0.0483   0.0094   0.00    0.0
2121 178680.000  -2994428.7260   4951309.0666   2674496.6967   6   8   0.0258   0.0856   0.0301   0.0245   0.0483   0.0094   0.00    0.0
2121 178710.000  -2994428.7259   4951309.0664   2674496.6967   6   8   0.0258   0.0855   0.0300   0.0245   0.0482   0.0094   0.00    0.0
2121 178740.000  -2994428.7266   4951309.0638   2674496.6957   6   8   0.0257   0.0852   0.0299   0.0245   0.0480   0.0095   0.00    0.0
2121 178770.000  -2994428.7280   4951309.0637   2674496.6957   6   8   0.0255   0.0847   0.0296   0.0247   0.0477   0.0097   0.00    0.0
2121 178800.000  -2994428.7311   4951309.0651   2674496.6969   6   8   0.0250   0.0833   0.0289   0.0252   0.0467   0.0104   0.00    0.0
2121 178830.000  -2994428.7321   4951309.0660   2674496.6976   6   8   0.0248   0.0828   0.0287   0.0252   0.0464   0.0105   0.00    0.0
2121 178860.000  -2994428.7325   4951309.0663   2674496.6977   6   8   0.0247   0.0826   0.0286   0.0252   0.0462   0.0106   0.00    0.0
2121 178890.000  -2994428.7328   4951309.0659   2674496.6977   6   8   0.0247   0.0824   0.0285   0.0252   0.0461   0.0106   0.00    0.0
2121 178920.000  -2994428.7325   4951309.0659   2674496.6976   6   8   0.0246   0.0823   0.0285   0.0252   0.0461   0.0106   0.00    0.0
2121 178950.000  -2994428.7322   4951309.0663   2674496.6977   6   8   0.0246   0.0822   0.0284   0.0252   0.0460   0.0105   0.00    0.0
2121 178980.000  -2994428.7320   4951309.0659   2674496.6976   6   8   0.0246   0.0821   0.0284   0.0251   0.0459   0.0105   0.00    0.0
2121 179010.000  -2994428.7320   4951309.0654   2674496.6976   6   8   0.0245   0.0819   0.0283   0.0251   0.0458   0.0105   0.00    0.0
2121 179040.000  -2994428.7322   4951309.0660   2674496.6982   6   8   0.0244   0.0816   0.0282   0.0251   0.0456   0.0106   0.00    0.0
2121 179070.000  -2994428.7336   4951309.0693   2674496.7004   6   8   0.0242   0.0809   0.0279   0.0252   0.0451   0.0107   0.00    0.0
2121 179100.000  -2994428.7359   4951309.0677   2674496.7011   6   8   0.0238   0.0789   0.0270   0.0255   0.0439   0.0111   0.00    0.0
2121 179130.000  -2994428.7374   4951309.0689   2674496.7017   6   8   0.0236   0.0783   0.0268   0.0255   0.0435   0.0112   0.00    0.0
2121 179160.000  -2994428.7371   4951309.0677   2674496.7014   6   8   0.0235   0.0780   0.0267   0.0255   0.0433   0.0112   0.00    0.0
2121 179190.000  -2994428.7371   4951309.0658   2674496.7007   6   7   0.0235   0.0779   0.0266   0.0255   0.0432   0.0112   0.00    0.0
2121 179220.000  -2994428.7374   4951309.0632   2674496.6999   6   7   0.0235   0.0778   0.0266   0.0254   0.0432   0.0112   0.00    0.0
2121 179250.000  -2994428.7376   4951309.0613   2674496.6992   6   7   0.0234   0.0777   0.0266   0.0254   0.0431   0.0112   0.00    0.0
2121 179280.000  -2994428.7380   4951309.0595   2674496.6987   6   7   0.0234   0.0776   0.0265   0.0253   0.0431   0.0111   0.00    0.0
2121 179310.000  -2994428.7382   4951309.0595   2674496.6987   6   7   0.0234   0.0775   0.0265   0.0253   0.0430   0.0111   0.00    0.0
2121 179340.000  -2994428.7393   4951309.0604   2674496.6993   6   7   0.0233   0.0772   0.0264   0.0252   0.0428   0.0110   0.00    0.0
2121 179370.000  -2994428.7419   4951309.0609   2674496.6999   6   7   0.0231   0.0766   0.0261   0.0250   0.0425   0.0110   0.00    0.0
2121 179400.000  -2994428.7437   4951309.0556   2674496.6994   6   7   0.0227   0.0748   0.0255   0.0249   0.0414   0.0110   0.00    0.0
2121 179430.000  -2994428.7436   4951309.0546   2674496.6995   6   7   0.0226   0.0743   0.0253   0.0248   0.0411   0.0110   0.00    0.0
2121 179460.000  -2994428.7431   4951309.0543   2674496.6994   6   7   0.0225   0.0741   0.0252   0.0247   0.0410   0.0109   0.00    0.0
2121 179490.000  -2994428.7427   4951309.0542   2674496.6994   6   7   0.0225   0.0740   0.0251   0.0246   0.0409   0.0109   0.00    0.0
2121 179520.000  -2994428.7422   4951309.0549   2674496.6997   6   7   0.0225   0.0739   0.0251   0.0246   0.0408   0.0108   0.00    0.0
2121 179550.000  -2994428.7418   4951309.0556   2674496.6999   6   7   0.0225   0.0738   0.0251   0.0245   0.0408   0.0108   0.00    0.0
2121 179580.000  -2994428.7417   4951309.0553   2674496.6998   6   7   0.0224   0.0737   0.0250   0.0245   0.0407   0.0108   0.00    0.0
2121 179610.000  -2994428.7417   4951309.0542   2674496.6994   6   7   0.0224   0.0735   0.0250   0.0244   0.0406   0.0107   0.00    0.0
2121 179640.000  -2994428.7408   4951309.0534   2674496.6991   6   7   0.0223   0.0732   0.0249   0.0243   0.0405   0.0107   0.00    0.0
2121 179670.000  -2994428.7396   4951309.0496   2674496.6974   6   7   0.0222   0.0725   0.0246   0.0241   0.0400   0.0106   0.00    0.0
2121 179700.000  -2994428.7390   4951309.0597   2674496.7022   6   7   0.0218   0.0706   0.0239   0.0238   0.0389   0.0105   0.00    0.0
2121 179730.000  -2994428.7404   4951309.0636   2674496.7034   6   7   0.0217   0.0700   0.0237   0.0236   0.0385   0.0104   0.00    0.0
2121 179760.000  -2994428.7411   4951309.0664   2674496.7042   6   7   0.0216   0.0697   0.0236   0.0235   0.0384   0.0103   0.00    0.0
2121 179790.000  -2994428.7413   4951309.0676   2674496.7046   6   7   0.0216   0.0696   0.0236   0.0234   0.0383   0.0102   0.00    0.0
2121 179820.000  -2994428.7413   4951309.0681   2674496.7047   6   7   0.0216   0.0695   0.0236   0.0234   0.0383   0.0102   0.00    0.0
2121 179850.000  -2994428.7413   4951309.0679   2674496.7047   6   7   0.0215   0.0694   0.0235   0.0233   0.0382   0.0102   0.00    0.0
2121 179880.000  -2994428.7413   4951309.0677   2674496.7048   6   7   0.0215   0.0693   0.0235   0.0233   0.0382   0.0102   0.00    0.0
2121 179910.000  -2994428.7412   4951309.0674   2674496.7048   6   7   0.0215   0.0691   0.0235   0.0232   0.0381   0.0101   0.00    0.0
2121 179940.000  -2994428.7409   4951309.0670   2674496.7051   6   7   0.0214   0.0689   0.0234   0.0231   0.0379   0.0100   0.00    0.0
2121 179970.000  -2994428.7415   4951309.0679   2674496.7060   6   7   0.0213   0.0681   0.0231   0.0228   0.0375   0.0099   0.00    0.0
2121 180000.000  -2994428.7420   4951309.0727   2674496.7081   6   7   0.0209   0.0660   0.0224   0.0223   0.0363   0.0096   0.00    0.0
2121 180030.000  -2994428.7414   4951309.0693   2674496.7071   6   7   0.0208   0.0654   0.0222   0.0221   0.0360   0.0095   0.00    0.0
2121 180060.000  -2994428.7412   4951309.0683   2674496.7068   6   7   0.0207   0.0652   0.0222   0.0220   0.0358   0.0094   0.00    0.0
2121 180090.000  -2994428.7411   4951309.0670   2674496.7064   6   7   0.0207   0.0650   0.0221   0.0219   0.0357   0.0094   0.00    0.0
2121 180120.000  -2994428.7412   4951309.0661   2674496.7061   6   7   0.0207   0.0649   0.0221   0.0219   0.0357   0.0093   0.00    0.0
2121 180150.000  -2994428.7411   4951309.0658   2674496.7060   6   7   0.0207   0.0649   0.0221   0.0218   0.0356   0.0093   0.00    0.0
2121 180180.000  -2994428.7411   4951309.0651   2674496.7059   6   7   0.0207   0.0648   0.0220   0.0218   0.0356   0.0093   0.00    0.0
2121 180210.000  -2994428.7408   4951309.0649   2674496.7060   6   7   0.0206   0.0646   0.0220   0.0217   0.0355   0.0092   0.00    0.0
2121 180240.000  -2994428.7404   4951309.0650   2674496.7062   6   7   0.0206   0.0643   0.0219   0.0215   0.0353   0.0091   0.00    0.0
2121 180270.000  -2994428.7404   4951309.0653   2674496.7069   6   7   0.0204   0.0635   0.0216   0.0212   0.0349   0.0089   0.00    0.0
2121 180300.000  -2994428.7420   4951309.0681   2674496.7095   6   8   0.0201   0.0615   0.0210   0.0206   0.0338   0.0086   0.00    0.0
2121 180330.000  -2994428.7427   4951309.0682   2674496.7101   6   8   0.0200   0.0609   0.0208   0.0204   0.0334   0.0084   0.00    0.0
2121 180360.000  -2994428.7432   4951309.0671   2674496.7098   6   8   0.0199   0.0606   0.0207   0.0203   0.0333   0.0083   0.00    0.0
2121 180390.000  -2994428.7437   4951309.0666   2674496.7096   6   8   0.0199   0.0605   0.0207   0.0202   0.0332   0.0082   0.00    0.0
2121 180420.000  -2994428.7442   4951309.0664   2674496.7094   6   8   0.0199   0.0604   0.0207   0.0201   0.0331   0.0082   0.00    0.0
2121 180450.000  -2994428.7446   4951309.0663   2674496.7093   6   8   0.0199   0.0603   0.0207   0.0201   0.0331   0.0082   0.00    0.0
2121 180480.000  -2994428.7452   4951309.0660   2674496.7092   6   8   0.0198   0.0602   0.0206   0.0200   0.0330   0.0081   0.00    0.0
2121 180510.000  -2994428.7458   4951309.0653   2674496.7091   6   8   0.0198   0.0601   0.0206   0.0200   0.0330   0.0081   0.00    0.0
2121 180540.000  -2994428.7461   4951309.0655   2674496.7092   6   8   0.0198   0.0598   0.0205   0.0198   0.0328   0.0080   0.00    0.0
2121 180570.000  -2994428.7469   4951309.0653   2674496.7092   6   8   0.0196   0.0590   0.0203   0.0195   0.0324   0.0078   0.00    0.0
2121 180600.000  -2994428.7466   4951309.0688   2674496.7109   6   8   0.0193   0.0571   0.0197   0.0189   0.0313   0.0073   0.00    0.0
2121 180630.000  -2994428.7475   4951309.0682   2674496.7102   6   8   0.0192   0.0565   0.0195   0.0186   0.0310   0.0071   0.00    0.0
2121 180660.000  -2994428.7478   4951309.0694   2674496.7105   6   8   0.0192   0.0563   0.0195   0.0185   0.0309   0.0070   0.00    0.0
2121 180690.000  -2994428.7478   4951309.0696   2674496.7105   6   8   0.0191   0.0561   0.0194   0.0184   0.0308   0.0070   0.00    0.0
2121 180720.000  -2994428.7477   4951309.0702   2674496.7106   6   8   0.0191   0.0561   0.0194   0.0184   0.0308   0.0070   0.00    0.0
2121 180750.000  -2994428.7478   4951309.0704   2674496.7106   6   8   0.0191   0.0560   0.0194   0.0183   0.0307   0.0069   0.00    0.0
2121 180780.000  -2994428.7478   4951309.0707   2674496.7107   6   8   0.0191   0.0559   0.0194   0.0183   0.0307   0.0069   0.00    0.0
2121 180810.000  -2994428.7479   4951309.0709   2674496.7107   6   8   0.0191   0.0558   0.0193   0.0182   0.0306   0.0068   0.00    0.0
2121 180840.000  -2994428.7478   4951309.0709   2674496.7107   6   8   0.0190   0.0555   0.0192   0.0181   0.0305   0.0067   0.00    0.0
2121 180870.000  -2994428.7480   4951309.0676   2674496.7100   6   8   0.0189   0.0548   0.0190   0.0177   0.0301   0.0065   0.00    0.0
2121 180900.000  -2994428.7482   4951309.0693   2674496.7114   6   8   0.0186   0.0530   0.0186   0.0170   0.0292   0.0059   0.00    0.0
2121 180930.000  -2994428.7497   4951309.0710   2674496.7119   6   8   0.0185   0.0525   0.0184   0.0168   0.0289   0.0057   0.00    0.0
2121 180960.000  -2994428.7503   4951309.0719   2674496.7122   6   8   0.0184   0.0523   0.0183   0.0166   0.0287   0.0056   0.00    0.0
2121 180990.000  -2994428.7506   4951309.0720   2674496.7122   6   8   0.0184   0.0521   0.0183   0.0166   0.0287   0.0056   0.00    0.0
2121 181020.000  -2994428.7508   4951309.0724   2674496.7124   6   8   0.0184   0.0521   0.0183   0.0165   0.0286   0.0055   0.00    0.0
2121 181050.000  -2994428.7510   4951309.0720   2674496.7123   6   8   0.0184   0.0520   0.0183   0.0165   0.0286   0.0055   0.00    0.0
2121 181080.000  -2994428.7514   4951309.0713   2674496.7122   6   8   0.0184   0.0519   0.0182   0.0164   0.0285   0.0054   0.00    0.0
2121 181110.000  -2994428.7516   4951309.0710   2674496.7122   6   8   0.0183   0.0518   0.0182   0.0164   0.0285   0.0054   0.00    0.0
2121 181140.000  -2994428.7515   4951309.0712   2674496.7125   6   8   0.0183   0.0516   0.0181   0.0162   0.0283   0.0052   0.00    0.0
2121 181170.000  -2994428.7513   4951309.0683   2674496.7121   6   8   0.0181   0.0509   0.0179   0.0159   0.0280   0.0049   0.00    0.0
2121 181200.000  -2994428.7512   4951309.0707   2674496.7136   6   8   0.0178   0.0493   0.0175   0.0151   0.0272   0.0043   0.00    0.0
2121 181230.000  -2994428.7510   4951309.0720   2674496.7143   6   8   0.0177   0.0488   0.0174   0.0149   0.0269   0.0040   0.00    0.0
2121 181260.000  -2994428.7509   4951309.0727   2674496.7148   6   8   0.0177   0.0486   0.0173   0.0148   0.0268   0.0039   0.00    0.0
2121 181290.000  -2994428.7509   4951309.0736   2674496.7151   6   9   0.0177   0.0485   0.0173   0.0147   0.0267   0.0038   0.00    0.0
2121 181320.000  -2994428.7508   4951309.0743   2674496.7153   6   9   0.0177   0.0484   0.0173   0.0147   0.0267   0.0037   0.00    0.0
2121 181350.000  -2994428.7509   4951309.0742   2674496.7153   6   9   0.0177   0.0484   0.0173   0.0146   0.0267   0.0037   0.00    0.0
2121 181380.000  -2994428.7511   4951309.0738   2674496.7152   6   9   0.0176   0.0483   0.0173   0.0146   0.0266   0.0037   0.00    0.0
2121 181410.000  -2994428.7517   4951309.0734   2674496.7152   6   9   0.0176   0.0482   0.0172   0.0145   0.0266   0.0036   0.00    0.0
2121 181440.000  -2994428.7523   4951309.0731   2674496.7152   6   9   0.0176   0.0481   0.0172   0.0144   0.0265   0.0034   0.00    0.0
2121 181470.000  -2994428.7528   4951309.0734   2674496.7154   6   9   0.0174   0.0476   0.0171   0.0141   0.0263   0.0031   0.00    0.0
2121 181500.000  -2994428.7519   4951309.0741   2674496.7156   6   9   0.0172   0.0464   0.0169   0.0134   0.0258   0.0021   0.00    0.0
2121 181530.000  -2994428.7523   4951309.0735   2674496.7154   6   9   0.0171   0.0460   0.0168   0.0131   0.0256   0.0017   0.00    0.0
2121 181560.000  -2994428.7522   4951309.0725   2674496.7151   6   9   0.0170   0.0458   0.0168   0.0130   0.0255   0.0014   0.00    0.0
2121 181590.000  -2994428.7521   4951309.0717   2674496.7151   6   9   0.0170   0.0458   0.0167   0.0130   0.0255   0.0013   0.00    0.0
2121 181620.000  -2994428.7521   4951309.0711   2674496.7150   6   9   0.0170   0.0457   0.0167   0.0129   0.0254   0.0012   0.00    0.0
2121 181650.000  -2994428.7522   4951309.0706   2674496.7149   6   9   0.0170   0.0457   0.0167   0.0129   0.0254   0.0011   0.00    0.0
2121 181680.000  -2994428.7523   4951309.0698   2674496.7147   6   9   0.0170   0.0456   0.0167   0.0128   0.0254   0.0009   0.00    0.0
2121 181710.000  -2994428.7526   4951309.0691   2674496.7145   6   9   0.0170   0.0455   0.0167   0.0128   0.0254   0.0006   0.00    0.0
2121 181740.000  -2994428.7533   4951309.0670   2674496.7139   6   9   0.0169   0.0454   0.0167   0.0127   0.0253  -0.0007   0.00    0.0
2121 181770.000  -2994428.7536   4951309.0632   2674496.7130   6   9   0.0168   0.0449   0.0166   0.0124   0.0251  -0.0016   0.00    0.0
2121 181800.000  -2994428.7542   4951309.0568   2674496.7105   6   9   0.0165   0.0438   0.0164   0.0116   0.0246  -0.0027   0.00    0.0
2121 181830.000  -2994428.7538   4951309.0551   2674496.7092   6   9   0.0164   0.0435   0.0163   0.0114   0.0244  -0.0029   0.00    0.0
2121 181860.000  -2994428.7538   4951309.0537   2674496.7083   6   9   0.0164   0.0433   0.0163   0.0113   0.0244  -0.0030   0.00    0.0
2121 181890.000  -2994428.7535   4951309.0535   2674496.7080   6   9   0.0164   0.0432   0.0162   0.0112   0.0243  -0.0031   0.00    0.0
2121 181920.000  -2994428.7535   4951309.0531   2674496.7079   6   9   0.0164   0.0432   0.0162   0.0112   0.0243  -0.0031   0.00    0.0
2121 181950.000  -2994428.7535   4951309.0527   2674496.7077   6   9   0.0164   0.0432   0.0162   0.0111   0.0243  -0.0032   0.00    0.0
2121 181980.000  -2994428.7538   4951309.0521   2674496.7074   6   9   0.0163   0.0431   0.0162   0.0111   0.0242  -0.0032   0.00    0.0
2121 182010.000  -2994428.7540   4951309.0512   2674496.7070   6   9   0.0163   0.0430   0.0162   0.0110   0.0242  -0.0033   0.00    0.0
2121 182040.000  -2994428.7547   4951309.0491   2674496.7062   6   9   0.0163   0.0429   0.0161   0.0109   0.0241  -0.0034   0.00    0.0
2121 182070.000  -2994428.7567   4951309.0466   2674496.7054   6   9   0.0162   0.0425   0.0161   0.0106   0.0239  -0.0036   0.00    0.0
2121 182100.000  -2994428.7567   4951309.0395   2674496.7033   6   9   0.0159   0.0414   0.0159   0.0097   0.0235  -0.0042   0.00    0.0
2121 182130.000  -2994428.7555   4951309.0355   2674496.7025   6   9   0.0158   0.0411   0.0158   0.0095   0.0233  -0.0043   0.00    0.0
2121 182160.000  -2994428.7551   4951309.0334   2674496.7022   6   9   0.0158   0.0410   0.0158   0.0094   0.0233  -0.0044   0.00    0.0
2121 182190.000  -2994428.7549   4951309.0323   2674496.7020   6   9   0.0158   0.0409   0.0157   0.0093   0.0232  -0.0044   0.00    0.0
2121 182220.000  -2994428.7548   4951309.0318   2674496.7019   6   9   0.0158   0.0409   0.0157   0.0093   0.0232  -0.0045   0.00    0.0
2121 182250.000  -2994428.7547   4951309.0313   2674496.7018   6   9   0.0158   0.0408   0.0157   0.0092   0.0232  -0.0045   0.00    0.0
2121 182280.000  -2994428.7545   4951309.0305   2674496.7016   6   9   0.0158   0.0408   0.0157   0.0092   0.0232  -0.0045   0.00    0.0
2121 182310.000  -2994428.7544   4951309.0297   2674496.7014   6   9   0.0157   0.0407   0.0157   0.0091   0.0231  -0.0046   0.00    0.0
2121 182340.000  -2994428.7543   4951309.0294   2674496.7014   6   9   0.0157   0.0406   0.0157   0.0090   0.0231  -0.0046   0.00    0.0
2121 182370.000  -2994428.7542   4951309.0295   2674496.7013   6   9   0.0156   0.0402   0.0156   0.0087   0.0229  -0.0048   0.00    0.0
2121 182400.000  -2994428.7537   4951309.0253   2674496.6997   6   9   0.0153   0.0392   0.0154   0.0078   0.0225  -0.0052   0.00    0.0
2121 182430.000  -2994428.7536   4951309.0227   2674496.6985   6   9   0.0153   0.0390   0.0153   0.0075   0.0223  -0.0053   0.00    0.0
2121 182460.000  -2994428.7536   4951309.0217   2674496.6979   6   9   0.0152   0.0388   0.0153   0.0074   0.0223  -0.0053   0.00    0.0
2121 182490.000  -2994428.7537   4951309.0208   2674496.6975   6   9   0.0152   0.0388   0.0153   0.0073   0.0222  -0.0053   0.00    0.0
2121 182520.000  -2994428.7538   4951309.0203   2674496.6973   6   9   0.0152   0.0387   0.0153   0.0073   0.0222  -0.0054   0.00    0.0
2121 182550.000  -2994428.7539   4951309.0197   2674496.6971   6   9   0.0152   0.0387   0.0153   0.0072   0.0222  -0.0054   0.00    0.0
2121 182580.000  -2994428.7540   4951309.0192   2674496.6968   6   9   0.0152   0.0387   0.0153   0.0072   0.0222  -0.0054   0.00    0.0
2121 182610.000  -2994428.7542   4951309.0186   2674496.6965   6   9   0.0152   0.0386   0.0152   0.0071   0.0221  -0.0054   0.00    0.0
2121 182640.000  -2994428.7542   4951309.0172   2674496.6960   6   9   0.0152   0.0385   0.0152   0.0070   0.0221  -0.0055   0.00    0.0
2121 182670.000  -2994428.7542   4951309.0151   2674496.6953   6   9   0.0151   0.0381   0.0151   0.0066   0.0219  -0.0056   0.00    0.0
2121 182700.000  -2994428.7526   4951309.0146   2674496.6946   6   9   0.0148   0.0373   0.0150   0.0055   0.0215  -0.0059   0.00    0.0
2121 182730.000  -2994428.7531   4951309.0125   2674496.6937   6   9   0.0148   0.0370   0.0149   0.0052   0.0214  -0.0060   0.00    0.0
2121 182760.000  -2994428.7531   4951309.0118   2674496.6933   6   9   0.0147   0.0369   0.0149   0.0050   0.0213  -0.0060   0.00    0.0
2121 182790.000  -2994428.7531   4951309.0117   2674496.6932   6   9   0.0147   0.0368   0.0148   0.0049   0.0213  -0.0060   0.00    0.0
2121 182820.000  -2994428.7531   4951309.0118   2674496.6932   6   9   0.0147   0.0368   0.0148   0.0049   0.0213  -0.0060   0.00    0.0
2121 182850.000  -2994428.7531   4951309.0118   2674496.6931   6   9   0.0147   0.0368   0.0148   0.0048   0.0213  -0.0060   0.00    0.0
2121 182880.000  -2994428.7530   4951309.0119   2674496.6931   6   9   0.0147   0.0367   0.0148   0.0048   0.0212  -0.0060   0.00    0.0
2121 182910.000  -2994428.7527   4951309.0124   2674496.6932   6   9   0.0147   0.0367   0.0148   0.0047   0.0212  -0.0061   0.00    0.0
2121 182940.000  -2994428.7527   4951309.0128   2674496.6936   6   9   0.0147   0.0365   0.0148   0.0045   0.0211  -0.0061   0.00    0.0
2121 182970.000  -2994428.7513   4951309.0161   2674496.6949   6   9   0.0146   0.0362   0.0147   0.0040   0.0210  -0.0062   0.00    0.0
2121 183000.000  -2994428.7494   4951309.0209   2674496.6966   6   9   0.0144   0.0354   0.0145   0.0022   0.0206  -0.0064   0.00    0.0
2121 183030.000  -2994428.7488   4951309.0231   2674496.6973   6   9   0.0143   0.0352   0.0144   0.0013   0.0205  -0.0065   0.00    0.0
2121 183060.000  -2994428.7485   4951309.0238   2674496.6976   6   9   0.0143   0.0351   0.0144   0.0008   0.0204  -0.0065   0.00    0.0
2121 183090.000  -2994428.7484   4951309.0240   2674496.6977   6   9   0.0143   0.0350   0.0144   0.0003   0.0204  -0.0065   0.00    0.0
2121 183120.000  -2994428.7483   4951309.0242   2674496.6979   6   9   0.0143   0.0350   0.0144  -0.0006   0.0204  -0.0065   0.00    0.0
2121 183150.000  -2994428.7482   4951309.0243   2674496.6980   6   9   0.0143   0.0350   0.0144  -0.0008   0.0204  -0.0065   0.00    0.0
2121 183180.000  -2994428.7482   4951309.0241   2674496.6981   6   9   0.0142   0.0349   0.0144  -0.0010   0.0204  -0.0065   0.00    0.0
2121 183210.000  -2994428.7483   4951309.0235   2674496.6982   6   8   0.0142   0.0349   0.0144  -0.0013   0.0203  -0.0066   0.00    0.0
2121 183240.000  -2994428.7483   4951309.0221   2674496.6983   6   7   0.0142   0.0348   0.0143  -0.0018   0.0203  -0.0066   0.00    0.0
2121 183270.000  -2994428.7475   4951309.0219   2674496.6989   6   7   0.0141   0.0346   0.0143  -0.0027   0.0202  -0.0067   0.00    0.0
2121 183300.000  -2994428.7445   4951309.0306   2674496.7016   6   7   0.0140   0.0340   0.0142  -0.0043   0.0200  -0.0069   0.00    0.0
2121 183330.000  -2994428.7441   4951309.0341   2674496.7027   6   7   0.0139   0.0338   0.0141  -0.0047   0.0199  -0.0070   0.00    0.0
2121 183360.000  -2994428.7439   4951309.0352   2674496.7030   6   7   0.0139   0.0337   0.0141  -0.0048   0.0199  -0.0070   0.00    0.0
2121 183390.000  -2994428.7438   4951309.0359   2674496.7032   6   7   0.0139   0.0337   0.0141  -0.0049   0.0198  -0.0070   0.00    0.0
2121 183420.000  -2994428.7437   4951309.0362   2674496.7033   6   7   0.0139   0.0337   0.0141  -0.0049   0.0198  -0.0070   0.00    0.0
2121 183450.000  -2994428.7437   4951309.0363   2674496.7033   6   7   0.0139   0.0337   0.0141  -0.0049   0.0198  -0.0070   0.00    0.0
2121 183480.000  -2994428.7436   4951309.0364   2674496.7034   6   7   0.0139   0.0337   0.0141  -0.0050   0.0198  -0.0070   0.00    0.0
2121 183510.000  -2994428.7438   4951309.0362   2674496.7034   6   7   0.0138   0.0336   0.0141  -0.0050   0.0198  -0.0070   0.00    0.0
2121 183540.000  -2994428.7440   4951309.0357   2674496.7035   6   7   0.0138   0.0335   0.0141  -0.0052   0.0198  -0.0071   0.00    0.0
2121 183570.000  -2994428.7437   4951309.0357   2674496.7039   6   7   0.0138   0.0334   0.0140  -0.0055   0.0197  -0.0071   0.00    0.0
2121 183600.000  -2994428.7409   4951309.0449   2674496.7066   6   7   0.0136   0.0328   0.0139  -0.0063   0.0194  -0.0073   0.00    0.0
2121 183630.000  -2994428.7401   4951309.0468   2674496.7075   6   7   0.0136   0.0326   0.0139  -0.0065   0.0193  -0.0074   0.00    0.0
2121 183660.000  -2994428.7399   4951309.0473   2674496.7078   6   7   0.0136   0.0326   0.0139  -0.0066   0.0193  -0.0074   0.00    0.0
2121 183690.000  -2994428.7397   4951309.0478   2674496.7080   6   7   0.0136   0.0325   0.0138  -0.0067   0.0193  -0.0074   0.00    0.0
2121 183720.000  -2994428.7395   4951309.0480   2674496.7080   6   7   0.0136   0.0325   0.0138  -0.0067   0.0193  -0.0074   0.00    0.0
2121 183750.000  -2994428.7394   4951309.0482   2674496.7081   6   7   0.0135   0.0325   0.0138  -0.0067   0.0193  -0.0074   0.00    0.0
2121 183780.000  -2994428.7393   4951309.0486   2674496.7082   6   7   0.0135   0.0325   0.0138  -0.0067   0.0193  -0.0074   0.00    0.0
2121 183810.000  -2994428.7392   4951309.0487   2674496.7083   6   7   0.0135   0.0324   0.0138  -0.0068   0.0193  -0.0074   0.00    0.0
2121 183840.000  -2994428.7390   4951309.0497   2674496.7087   6   7   0.0135   0.0324   0.0138  -0.0069   0.0192  -0.0075   0.00    0.0
2121 183870.000  -2994428.7382   4951309.0522   2674496.7095   6   7   0.0135   0.0322   0.0137  -0.0071   0.0191  -0.0075   0.00    0.0
2121 183900.000  -2994428.7367   4951309.0584   2674496.7115   6   7   0.0133   0.0317   0.0136  -0.0077   0.0189  -0.0077   0.00    0.0
2121 183930.000  -2994428.7364   4951309.0597   2674496.7119   6   7   0.0133   0.0315   0.0136  -0.0078   0.0188  -0.0077   0.00    0.0
2121 183960.000  -2994428.7365   4951309.0593   2674496.7117   6   7   0.0133   0.0315   0.0136  -0.0079   0.0188  -0.0077   0.00    0.0
2121 183990.000  -2994428.7365   4951309.0591   2674496.7116   6   7   0.0133   0.0314   0.0135  -0.0079   0.0188  -0.0077   0.00    0.0
2121 184020.000  -2994428.7365   4951309.0590   2674496.7115   6   7   0.0133   0.0314   0.0135  -0.0080   0.0188  -0.0077   0.00    0.0
2121 184050.000  -2994428.7365   4951309.0589   2674496.7114   6   7   0.0133   0.0314   0.0135  -0.0080   0.0188  -0.0077   0.00    0.0
2121 184080.000  -2994428.7364   4951309.0591   2674496.7114   6   7   0.0133   0.0314   0.0135  -0.0080   0.0187  -0.0077   0.00    0.0
2121 184110.000  -2994428.7363   4951309.0594   2674496.7114   6   7   0.0133   0.0314   0.0135  -0.0080   0.0187  -0.0078   0.00    0.0
2121 184140.000  -2994428.7360   4951309.0602   2674496.7116   6   7   0.0133   0.0313   0.0135  -0.0081   0.0187  -0.0078   0.00    0.0
2121 184170.000  -2994428.7355   4951309.0637   2674496.7124   6   7   0.0132   0.0311   0.0135  -0.0082   0.0186  -0.0078   0.00    0.0
2121 184200.000  -2994428.7339   4951309.0703   2674496.7148   6   7   0.0131   0.0306   0.0133  -0.0087   0.0184  -0.0079   0.00    0.0
2121 184230.000  -2994428.7330   4951309.0727   2674496.7156   6   7   0.0131   0.0305   0.0133  -0.0088   0.0183  -0.0080   0.00    0.0
2121 184260.000  -2994428.7326   4951309.0739   2674496.7162   6   7   0.0131   0.0305   0.0133  -0.0088   0.0183  -0.0080   0.00    0.0
2121 184290.000  -2994428.7325   4951309.0742   2674496.7165   6   7   0.0131   0.0304   0.0132  -0.0089   0.0183  -0.0080   0.00    0.0
2121 184320.000  -2994428.7325   4951309.0743   2674496.7165   6   7   0.0131   0.0304   0.0132  -0.0089   0.0183  -0.0080   0.00    0.0
2121 184350.000  -2994428.7324   4951309.0743   2674496.7166   6   7   0.0131   0.0304   0.0132  -0.0089   0.0183  -0.0080   0.00    0.0
2121 184380.000  -2994428.7324   4951309.0742   2674496.7165   6   7   0.0131   0.0304   0.0132  -0.0089   0.0182  -0.0080   0.00    0.0
2121 184410.000  -2994428.7324   4951309.0742   2674496.7165   6   7   0.0130   0.0304   0.0132  -0.0089   0.0182  -0.0080   0.00    0.0
2121 184440.000  -2994428.7321   4951309.0744   2674496.7167   6   7   0.0130   0.0303   0.0132  -0.0090   0.0182  -0.0080   0.00    0.0
2121 184470.000  -2994428.7315   4951309.0764   2674496.7177   6   7   0.0130   0.0302   0.0132  -0.0091   0.0181  -0.0081   0.00    0.0
2121 184500.000  -2994428.7304   4951309.0837   2674496.7205   6   7   0.0129   0.0297   0.0130  -0.0094   0.0179  -0.0082   0.00    0.0
2121 184530.000  -2994428.7300   4951309.0830   2674496.7203   6   7   0.0129   0.0296   0.0130  -0.0095   0.0178  -0.0082   0.00    0.0
2121 184560.000  -2994428.7297   4951309.0828   2674496.7200   6   7   0.0129   0.0296   0.0129  -0.0095   0.0178  -0.0082   0.00    0.0
2121 184590.000  -2994428.7296   4951309.0828   2674496.7199   6   7   0.0129   0.0295   0.0129  -0.0095   0.0178  -0.0082   0.00    0.0
2121 184620.000  -2994428.7295   4951309.0827   2674496.7197   6   7   0.0129   0.0295   0.0129  -0.0096   0.0178  -0.0082   0.00    0.0
2121 184650.000  -2994428.7295   4951309.0826   2674496.7197   6   7   0.0129   0.0295   0.0129  -0.0096   0.0178  -0.0082   0.00    0.0
2121 184680.000  -2994428.7295   4951309.0825   2674496.7196   6   7   0.0129   0.0295   0.0129  -0.0096   0.0178  -0.0082   0.00    0.0
2121 184710.000  -2994428.7295   4951309.0827   2674496.7196   6   7   0.0129   0.0295   0.0129  -0.0096   0.0178  -0.0082   0.00    0.0
2121 184740.000  -2994428.7292   4951309.0833   2674496.7197   6   7   0.0129   0.0294   0.0129  -0.0096   0.0177  -0.0082   0.00    0.0
2121 184770.000  -2994428.7286   4951309.0839   2674496.7196   6   7   0.0128   0.0293   0.0128  -0.0097   0.0177  -0.0082   0.00    0.0
2121 184800.000  -2994428.7281   4951309.0877   2674496.7211   6   7   0.0128   0.0289   0.0127  -0.0100   0.0174  -0.0083   0.00    0.0
2121 184830.000  -2994428.7280   4951309.0890   2674496.7216   6   7   0.0127   0.0288   0.0127  -0.0101   0.0174  -0.0083   0.00    0.0
2121 184860.000  -2994428.7281   4951309.0889   2674496.7215   6   7   0.0127   0.0287   0.0126  -0.0101   0.0174  -0.0083   0.00    0.0
2121 184890.000  -2994428.7280   4951309.0886   2674496.7214   6   7   0.0127   0.0287   0.0126  -0.0101   0.0173  -0.0083   0.00    0.0
2121 184920.000  -2994428.7281   4951309.0884   2674496.7213   6   7   0.0127   0.0287   0.0126  -0.0101   0.0173  -0.0083   0.00    0.0
2121 184950.000  -2994428.7280   4951309.0882   2674496.7213   6   7   0.0127   0.0287   0.0126  -0.0101   0.0173  -0.0083   0.00    0.0
2121 184980.000  -2994428.7280   4951309.0880   2674496.7212   6   7   0.0127   0.0287   0.0126  -0.0101   0.0173  -0.0083   0.00    0.0
2121 185010.000  -2994428.7280   4951309.0878   2674496.7212   6   7   0.0127   0.0286   0.0126  -0.0101   0.0173  -0.0084   0.00    0.0
2121 185040.000  -2994428.7278   4951309.0884   2674496.7217   6   7   0.0127   0.0286   0.0126  -0.0102   0.0173  -0.0084   0.00    0.0
2121 185070.000  -2994428.7273   4951309.0914   2674496.7230   6   7   0.0127   0.0285   0.0125  -0.0102   0.0172  -0.0084   0.00    0.0
2121 185100.000  -2994428.7261   4951309.0979   2674496.7253   6   7   0.0126   0.0281   0.0124  -0.0104   0.0170  -0.0084   0.00    0.0
2121 185130.000  -2994428.7261   4951309.0998   2674496.7265   6   7   0.0126   0.0280   0.0124  -0.0105   0.0169  -0.0084   0.00    0.0
2121 185160.000  -2994428.7261   4951309.1006   2674496.7269   6   7   0.0126   0.0280   0.0123  -0.0105   0.0169  -0.0084   0.00    0.0
2121 185190.000  -2994428.7262   4951309.1008   2674496.7270   6   7   0.0126   0.0279   0.0123  -0.0105   0.0169  -0.0084   0.00    0.0
2121 185220.000  -2994428.7262   4951309.1008   2674496.7270   6   7   0.0126   0.0279   0.0123  -0.0105   0.0169  -0.0084   0.00    0.0
2121 185250.000  -2994428.7263   4951309.1005   2674496.7269   6   7   0.0126   0.0279   0.0123  -0.0105   0.0169  -0.0084   0.00    0.0
2121 185280.000  -2994428.7264   4951309.1003   2674496.7268   6   7   0.0126   0.0279   0.0123  -0.0105   0.0169  -0.0084   0.00    0.0
2121 185310.000  -2994428.7265   4951309.1001   2674496.7268   6   7   0.0126   0.0279   0.0123  -0.0105   0.0169  -0.0084   0.00    0.0
2121 185340.000  -2994428.7267   4951309.1000   2674496.7266   6   7   0.0126   0.0279   0.0123  -0.0106   0.0169  -0.0084   0.00    0.0
2121 185370.000  -2994428.7269   4951309.1013   2674496.7271   6   7   0.0125   0.0277   0.0122  -0.0106   0.0168  -0.0085   0.00    0.0
2121 185400.000  -2994428.7261   4951309.1080   2674496.7299   6   7   0.0125   0.0274   0.0121  -0.0108   0.0166  -0.0085   0.00    0.0
2121 185430.000  -2994428.7259   4951309.1096   2674496.7307   6   7   0.0125   0.0273   0.0121  -0.0108   0.0165  -0.0085   0.00    0.0
2121 185460.000  -2994428.7258   4951309.1104   2674496.7310   6   7   0.0124   0.0273   0.0120  -0.0108   0.0165  -0.0085   0.00    0.0
2121 185490.000  -2994428.7257   4951309.1110   2674496.7312   6   7   0.0124   0.0273   0.0120  -0.0108   0.0165  -0.0085   0.00    0.0
2121 185520.000  -2994428.7258   4951309.1111   2674496.7313   6   7   0.0124   0.0273   0.0120  -0.0108   0.0165  -0.0085   0.00    0.0
2121 185550.000  -2994428.7258   4951309.1112   2674496.7313   6   7   0.0124   0.0273   0.0120  -0.0108   0.0165  -0.0085   0.00    0.0
2121 185580.000  -2994428.7258   4951309.1113   2674496.7314   6   7   0.0124   0.0272   0.0120  -0.0108   0.0165  -0.0085   0.00    0.0
2121 185610.000  -2994428.7258   4951309.1111   2674496.7312   6   7   0.0124   0.0272   0.0120  -0.0108   0.0165  -0.0085   0.00    0.0
2121 185640.000  -2994428.7259   4951309.1104   2674496.7310   6   7   0.0124   0.0272   0.0120  -0.0109   0.0165  -0.0085   0.00    0.0
2121 185670.000  -2994428.7260   4951309.1106   2674496.7309   6   7   0.0124   0.0271   0.0119  -0.0109   0.0164  -0.0085   0.00    0.0
2121 185700.000  -2994428.7257   4951309.1167   2674496.7337   6   7   0.0123   0.0268   0.0118  -0.0110   0.0162  -0.0085   0.00    0.0
2121 185730.000  -2994428.7257   4951309.1192   2674496.7349   6   7   0.0123   0.0267   0.0118  -0.0111   0.0162  -0.0085   0.00    0.0
2121 185760.000  -2994428.7256   4951309.1202   2674496.7353   6   7   0.0123   0.0267   0.0117  -0.0111   0.0161  -0.0085   0.00    0.0
2121 185790.000  -2994428.7256   4951309.1202   2674496.7353   6   7   0.0123   0.0267   0.0117  -0.0111   0.0161  -0.0085   0.00    0.0
2121 185820.000  -2994428.7256   4951309.1201   2674496.7352   6   7   0.0123   0.0266   0.0117  -0.0111   0.0161  -0.0085   0.00    0.0
2121 185850.000  -2994428.7256   4951309.1200   2674496.7352   6   7   0.0123   0.0266   0.0117  -0.0111   0.0161  -0.0085   0.00    0.0
